__time,/dwm1001/id_458E/pose_kf/header/seq,/dwm1001/id_458E/pose_kf/header/stamp,/dwm1001/id_458E/pose_kf/pose/orientation/pitch_deg,/dwm1001/id_458E/pose_kf/pose/orientation/roll_deg,/dwm1001/id_458E/pose_kf/pose/orientation/w,/dwm1001/id_458E/pose_kf/pose/orientation/x,/dwm1001/id_458E/pose_kf/pose/orientation/y,/dwm1001/id_458E/pose_kf/pose/orientation/yaw_deg,/dwm1001/id_458E/pose_kf/pose/orientation/z,/dwm1001/id_458E/pose_kf/pose/position/x,/dwm1001/id_458E/pose_kf/pose/position/y,/dwm1001/id_458E/pose_kf/pose/position/z
1649352550.122261,22450.000000,1649352550.122115,0.000000,0.000000,1.000000,0.000000,0.000000,0.000000,0.000000,7.266424,32.437925,1.128586
1649352550.222987,22451.000000,1649352550.222435,0.000000,0.000000,1.000000,0.000000,0.000000,0.000000,0.000000,7.265931,32.441121,1.114493
1649352550.322450,22452.000000,1649352550.322319,0.000000,0.000000,1.000000,0.000000,0.000000,0.000000,0.000000,7.265517,32.442998,1.107397
1649352550.422272,22453.000000,1649352550.422132,0.000000,0.000000,1.000000,0.000000,0.000000,0.000000,0.000000,7.267358,32.441443,1.101383
1649352550.522129,22454.000000,1649352550.522015,0.000000,0.000000,1.000000,0.000000,0.000000,0.000000,0.000000,7.269140,32.441012,1.093193
1649352550.622396,22455.000000,1649352550.622282,0.000000,0.000000,1.000000,0.000000,0.000000,0.000000,0.000000,7.271949,32.440560,1.071638
1649352550.722467,22456.000000,1649352550.722281,0.000000,0.000000,1.000000,0.000000,0.000000,0.000000,0.000000,7.273539,32.440090,1.042937
1649352550.822618,22457.000000,1649352550.822506,0.000000,0.000000,1.000000,0.000000,0.000000,0.000000,0.000000,7.275058,32.439608,1.013877
1649352550.922516,22458.000000,1649352550.922404,0.000000,0.000000,1.000000,0.000000,0.000000,0.000000,0.000000,7.275416,32.440209,1.000647
1649352551.023384,22459.000000,1649352551.022939,0.000000,0.000000,1.000000,0.000000,0.000000,0.000000,0.000000,7.275763,32.442923,1.000205
1649352551.122136,22460.000000,1649352551.122011,0.000000,0.000000,1.000000,0.000000,0.000000,0.000000,0.000000,7.275009,32.444359,0.984611
1649352551.222097,22461.000000,1649352551.221965,0.000000,0.000000,1.000000,0.000000,0.000000,0.000000,0.000000,7.274305,32.446764,0.985141
1649352551.322270,22462.000000,1649352551.322121,0.000000,0.000000,1.000000,0.000000,0.000000,0.000000,0.000000,7.275832,32.448990,0.993879
1649352551.422141,22463.000000,1649352551.422032,0.000000,0.000000,1.000000,0.000000,0.000000,0.000000,0.000000,7.276192,32.451042,1.012085
1649352551.522194,22464.000000,1649352551.522094,0.000000,0.000000,1.000000,0.000000,0.000000,0.000000,0.000000,7.277626,32.451837,1.009502
1649352551.622219,22465.000000,1649352551.622095,0.000000,0.000000,1.000000,0.000000,0.000000,0.000000,0.000000,7.278982,32.452534,1.007936
1649352551.722229,22466.000000,1649352551.722118,0.000000,0.000000,1.000000,0.000000,0.000000,0.000000,0.000000,7.279169,32.452048,1.005730
1649352551.822625,22467.000000,1649352551.822251,0.000000,0.000000,1.000000,0.000000,0.000000,0.000000,0.000000,7.280431,32.451539,1.013394
1649352551.922531,22468.000000,1649352551.922410,0.000000,0.000000,1.000000,0.000000,0.000000,0.000000,0.000000,7.281616,32.451013,1.025674
1649352552.022461,22469.000000,1649352552.022316,0.000000,0.000000,1.000000,0.000000,0.000000,0.000000,0.000000,7.281634,32.450476,1.044778
1649352552.122207,22470.000000,1649352552.122089,0.000000,0.000000,1.000000,0.000000,0.000000,0.000000,0.000000,7.281639,32.449931,1.063946
1649352552.222493,22471.000000,1649352552.222358,0.000000,0.000000,1.000000,0.000000,0.000000,0.000000,0.000000,7.280544,32.448292,1.079915
1649352552.322476,22472.000000,1649352552.322337,0.000000,0.000000,1.000000,0.000000,0.000000,0.000000,0.000000,7.279501,32.445627,1.097626
1649352552.422482,22473.000000,1649352552.422329,0.000000,0.000000,1.000000,0.000000,0.000000,0.000000,0.000000,7.277422,32.443091,1.114561
1649352552.522499,22474.000000,1649352552.522359,0.000000,0.000000,1.000000,0.000000,0.000000,0.000000,0.000000,7.277641,32.440686,1.113789
1649352552.622754,22475.000000,1649352552.622462,0.000000,0.000000,1.000000,0.000000,0.000000,0.000000,0.000000,7.276760,32.438414,1.118611
1649352552.722313,22476.000000,1649352552.722175,0.000000,0.000000,1.000000,0.000000,0.000000,0.000000,0.000000,7.275933,32.435182,1.130408
1649352552.822490,22477.000000,1649352552.822393,0.000000,0.000000,1.000000,0.000000,0.000000,0.000000,0.000000,7.274069,32.435416,1.146463
1649352552.922403,22478.000000,1649352552.922298,0.000000,0.000000,1.000000,0.000000,0.000000,0.000000,0.000000,7.272319,32.434563,1.162551
1649352553.022353,22479.000000,1649352553.022235,0.000000,0.000000,1.000000,0.000000,0.000000,0.000000,0.000000,7.271773,32.433774,1.168164
1649352553.122374,22480.000000,1649352553.122245,0.000000,0.000000,1.000000,0.000000,0.000000,0.000000,0.000000,7.270184,32.434138,1.158076
1649352553.222137,22481.000000,1649352553.222014,0.000000,0.000000,1.000000,0.000000,0.000000,0.000000,0.000000,7.269796,32.436680,1.161168
1649352553.322138,22482.000000,1649352553.322014,0.000000,0.000000,1.000000,0.000000,0.000000,0.000000,0.000000,7.269451,32.439091,1.172072
1649352553.422484,22483.000000,1649352553.422179,0.000000,0.000000,1.000000,0.000000,0.000000,0.000000,0.000000,7.268056,32.442462,1.184007
1649352553.522323,22484.000000,1649352553.522151,0.000000,0.000000,1.000000,0.000000,0.000000,0.000000,0.000000,7.267854,32.446728,1.200144
1649352553.622160,22485.000000,1649352553.622046,0.000000,0.000000,1.000000,0.000000,0.000000,0.000000,0.000000,7.268777,32.448558,1.214648
1649352553.722237,22486.000000,1649352553.722122,0.000000,0.000000,1.000000,0.000000,0.000000,0.000000,0.000000,7.270761,32.449170,1.230792
1649352553.822371,22487.000000,1649352553.822227,0.000000,0.000000,1.000000,0.000000,0.000000,0.000000,0.000000,7.272649,32.448630,1.240427
1649352553.922392,22488.000000,1649352553.922233,0.000000,0.000000,1.000000,0.000000,0.000000,0.000000,0.000000,7.273351,32.448095,1.252679
1649352554.022449,22489.000000,1649352554.022335,0.000000,0.000000,1.000000,0.000000,0.000000,0.000000,0.000000,7.275108,32.445386,1.256946
1649352554.122473,22490.000000,1649352554.122336,0.000000,0.000000,1.000000,0.000000,0.000000,0.000000,0.000000,7.276767,32.442813,1.264038
1649352554.222256,22491.000000,1649352554.222092,0.000000,0.000000,1.000000,0.000000,0.000000,0.000000,0.000000,7.275057,32.442558,1.277064
1649352554.322149,22492.000000,1649352554.322048,0.000000,0.000000,1.000000,0.000000,0.000000,0.000000,0.000000,7.274530,32.441224,1.266740
1649352554.422155,22493.000000,1649352554.422004,0.000000,0.000000,1.000000,0.000000,0.000000,0.000000,0.000000,7.274031,32.438875,1.242905
1649352554.522162,22494.000000,1649352554.522068,0.000000,0.000000,1.000000,0.000000,0.000000,0.000000,0.000000,7.274652,32.437753,1.233574
1649352554.622345,22495.000000,1649352554.622208,0.000000,0.000000,1.000000,0.000000,0.000000,0.000000,0.000000,7.274149,32.436705,1.228507
1649352554.722260,22496.000000,1649352554.722148,0.000000,0.000000,1.000000,0.000000,0.000000,0.000000,0.000000,7.274764,32.434638,1.225128
1649352554.822177,22497.000000,1649352554.822031,0.000000,0.000000,1.000000,0.000000,0.000000,0.000000,0.000000,7.273165,32.432705,1.228218
1649352554.922118,22498.000000,1649352554.921984,0.000000,0.000000,1.000000,0.000000,0.000000,0.000000,0.000000,7.272748,32.429812,1.229452
1649352555.023247,22499.000000,1649352555.022973,0.000000,0.000000,1.000000,0.000000,0.000000,0.000000,0.000000,7.272358,32.428201,1.219230
1649352555.122161,22500.000000,1649352555.122055,0.000000,0.000000,1.000000,0.000000,0.000000,0.000000,0.000000,7.271997,32.428894,1.219811
1649352555.222153,22501.000000,1649352555.222029,0.000000,0.000000,1.000000,0.000000,0.000000,0.000000,0.000000,7.270572,32.429581,1.215439
1649352555.322122,22502.000000,1649352555.322014,0.000000,0.000000,1.000000,0.000000,0.000000,0.000000,0.000000,7.271416,32.428079,1.208744
1649352555.422358,22503.000000,1649352555.422257,0.000000,0.000000,1.000000,0.000000,0.000000,0.000000,0.000000,7.272223,32.427780,1.209513
1649352555.522240,22504.000000,1649352555.522133,0.000000,0.000000,1.000000,0.000000,0.000000,0.000000,0.000000,7.272990,32.427527,1.214220
1649352555.622651,22505.000000,1649352555.622374,0.000000,0.000000,1.000000,0.000000,0.000000,0.000000,0.000000,7.272628,32.428408,1.207378
1649352555.722465,22506.000000,1649352555.722305,0.000000,0.000000,1.000000,0.000000,0.000000,0.000000,0.000000,7.272288,32.430356,1.208015
1649352555.823006,22507.000000,1649352555.822649,0.000000,0.000000,1.000000,0.000000,0.000000,0.000000,0.000000,7.271971,32.432215,1.215833
1649352555.922129,22508.000000,1649352555.922025,0.000000,0.000000,1.000000,0.000000,0.000000,0.000000,0.000000,7.271676,32.430713,1.228916
1649352556.022098,22509.000000,1649352556.021983,0.000000,0.000000,1.000000,0.000000,0.000000,0.000000,0.000000,7.274674,32.429306,1.245421
1649352556.122168,22510.000000,1649352556.122055,0.000000,0.000000,1.000000,0.000000,0.000000,0.000000,0.000000,7.276415,32.430176,1.264379
1649352556.222345,22511.000000,1649352556.222090,0.000000,0.000000,1.000000,0.000000,0.000000,0.000000,0.000000,7.278050,32.428831,1.276792
1649352556.322498,22512.000000,1649352556.322329,0.000000,0.000000,1.000000,0.000000,0.000000,0.000000,0.000000,7.278493,32.428668,1.291779
1649352556.422383,22513.000000,1649352556.422259,0.000000,0.000000,1.000000,0.000000,0.000000,0.000000,0.000000,7.279987,32.428531,1.293089
1649352556.522253,22514.000000,1649352556.522135,0.000000,0.000000,1.000000,0.000000,0.000000,0.000000,0.000000,7.281381,32.428419,1.295795
1649352556.623594,22515.000000,1649352556.623221,0.000000,0.000000,1.000000,0.000000,0.000000,0.000000,0.000000,7.283767,32.429419,1.303067
1649352556.722420,22516.000000,1649352556.722265,0.000000,0.000000,1.000000,0.000000,0.000000,0.000000,0.000000,7.284906,32.430376,1.294555
1649352556.822444,22517.000000,1649352556.822308,0.000000,0.000000,1.000000,0.000000,0.000000,0.000000,0.000000,7.284861,32.431290,1.286240
1649352556.922424,22518.000000,1649352556.922286,0.000000,0.000000,1.000000,0.000000,0.000000,0.000000,0.000000,7.285882,32.432159,1.286198
1649352557.022444,22519.000000,1649352557.022326,0.000000,0.000000,1.000000,0.000000,0.000000,0.000000,0.000000,7.285726,32.431892,1.288456
1649352557.122203,22520.000000,1649352557.122097,0.000000,0.000000,1.000000,0.000000,0.000000,0.000000,0.000000,7.285552,32.431642,1.290504
1649352557.222237,22521.000000,1649352557.222084,0.000000,0.000000,1.000000,0.000000,0.000000,0.000000,0.000000,7.286452,32.432500,1.286705
1649352557.322136,22522.000000,1649352557.322028,0.000000,0.000000,1.000000,0.000000,0.000000,0.000000,0.000000,7.287276,32.433311,1.287792
1649352557.422452,22523.000000,1649352557.422234,0.000000,0.000000,1.000000,0.000000,0.000000,0.000000,0.000000,7.289118,32.434076,1.276633
1649352557.522267,22524.000000,1649352557.522169,0.000000,0.000000,1.000000,0.000000,0.000000,0.000000,0.000000,7.290827,32.432614,1.267457
1649352557.622216,22525.000000,1649352557.622065,0.000000,0.000000,1.000000,0.000000,0.000000,0.000000,0.000000,7.292408,32.432322,1.258588
1649352557.722208,22526.000000,1649352557.722093,0.000000,0.000000,1.000000,0.000000,0.000000,0.000000,0.000000,7.293865,32.432048,1.254872
1649352557.822073,22527.000000,1649352557.821939,0.000000,0.000000,1.000000,0.000000,0.000000,0.000000,0.000000,7.294110,32.431790,1.240785
1649352557.922654,22528.000000,1649352557.922496,0.000000,0.000000,1.000000,0.000000,0.000000,0.000000,0.000000,7.294303,32.432640,1.236126
1649352558.022491,22529.000000,1649352558.022331,0.000000,0.000000,1.000000,0.000000,0.000000,0.000000,0.000000,7.293358,32.432353,1.233266
1649352558.122425,22530.000000,1649352558.122310,0.000000,0.000000,1.000000,0.000000,0.000000,0.000000,0.000000,7.293522,32.433173,1.235362
1649352558.222521,22531.000000,1649352558.222369,0.000000,0.000000,1.000000,0.000000,0.000000,0.000000,0.000000,7.293646,32.435037,1.244631
1649352558.322528,22532.000000,1649352558.322415,0.000000,0.000000,1.000000,0.000000,0.000000,0.000000,0.000000,7.294823,32.436792,1.256735
1649352558.422108,22533.000000,1649352558.422003,0.000000,0.000000,1.000000,0.000000,0.000000,0.000000,0.000000,7.295905,32.436258,1.264283
1649352558.522345,22534.000000,1649352558.522236,0.000000,0.000000,1.000000,0.000000,0.000000,0.000000,0.000000,7.294714,32.436833,1.252124
1649352558.622223,22535.000000,1649352558.622074,0.000000,0.000000,1.000000,0.000000,0.000000,0.000000,0.000000,7.295741,32.436275,1.245268
1649352558.722588,22536.000000,1649352558.722471,0.000000,0.000000,1.000000,0.000000,0.000000,0.000000,0.000000,7.296683,32.434647,1.245934
1649352558.822153,22537.000000,1649352558.822031,0.000000,0.000000,1.000000,0.000000,0.000000,0.000000,0.000000,7.297543,32.434196,1.253819
1649352558.923290,22538.000000,1649352558.922939,0.000000,0.000000,1.000000,0.000000,0.000000,0.000000,0.000000,7.297235,32.432677,1.259747
1649352559.023152,22539.000000,1649352559.022792,0.000000,0.000000,1.000000,0.000000,0.000000,0.000000,0.000000,7.296914,32.430153,1.267014
1649352559.122601,22540.000000,1649352559.122411,0.000000,0.000000,1.000000,0.000000,0.000000,0.000000,0.000000,7.295495,32.427778,1.274748
1649352559.222538,22541.000000,1649352559.222342,0.000000,0.000000,1.000000,0.000000,0.000000,0.000000,0.000000,7.295223,32.425550,1.280502
1649352559.322467,22542.000000,1649352559.322316,0.000000,0.000000,1.000000,0.000000,0.000000,0.000000,0.000000,7.294948,32.422377,1.283539
1649352559.422390,22543.000000,1649352559.422276,0.000000,0.000000,1.000000,0.000000,0.000000,0.000000,0.000000,7.295762,32.421589,1.289614
1649352559.522360,22544.000000,1649352559.522223,0.000000,0.000000,1.000000,0.000000,0.000000,0.000000,0.000000,7.295424,32.420878,1.297788
1649352559.622187,22545.000000,1649352559.622074,0.000000,0.000000,1.000000,0.000000,0.000000,0.000000,0.000000,7.292907,32.420238,1.309581
1649352559.722319,22546.000000,1649352559.722157,0.000000,0.000000,1.000000,0.000000,0.000000,0.000000,0.000000,7.289431,32.421848,1.322409
1649352559.822556,22547.000000,1649352559.822339,0.000000,0.000000,1.000000,0.000000,0.000000,0.000000,0.000000,7.286148,32.422306,1.331376
1649352559.922560,22548.000000,1649352559.922445,0.000000,0.000000,1.000000,0.000000,0.000000,0.000000,0.000000,7.283059,32.421672,1.334207
1649352560.022439,22549.000000,1649352560.022306,0.000000,0.000000,1.000000,0.000000,0.000000,0.000000,0.000000,7.280161,32.420006,1.330344
1649352560.122466,22550.000000,1649352560.122322,0.000000,0.000000,1.000000,0.000000,0.000000,0.000000,0.000000,7.278543,32.418459,1.331359
1649352560.222483,22551.000000,1649352560.222368,0.000000,0.000000,1.000000,0.000000,0.000000,0.000000,0.000000,7.278138,32.419208,1.321736
1649352560.322250,22552.000000,1649352560.322131,0.000000,0.000000,1.000000,0.000000,0.000000,0.000000,0.000000,7.278880,32.419943,1.320473
1649352560.422218,22553.000000,1649352560.422106,0.000000,0.000000,1.000000,0.000000,0.000000,0.000000,0.000000,7.279610,32.420662,1.319981
1649352560.522270,22554.000000,1649352560.522155,0.000000,0.000000,1.000000,0.000000,0.000000,0.000000,0.000000,7.280326,32.422451,1.323459
1649352560.622230,22555.000000,1649352560.622071,0.000000,0.000000,1.000000,0.000000,0.000000,0.000000,0.000000,7.281025,32.423065,1.323487
1649352560.722323,22556.000000,1649352560.722225,0.000000,0.000000,1.000000,0.000000,0.000000,0.000000,0.000000,7.280614,32.422565,1.321014
1649352560.822128,22557.000000,1649352560.822022,0.000000,0.000000,1.000000,0.000000,0.000000,0.000000,0.000000,7.280244,32.421014,1.314535
1649352560.922206,22558.000000,1649352560.922065,0.000000,0.000000,1.000000,0.000000,0.000000,0.000000,0.000000,7.279913,32.418472,1.307452
1649352561.022595,22559.000000,1649352561.022374,0.000000,0.000000,1.000000,0.000000,0.000000,0.000000,0.000000,7.280708,32.413910,1.296577
1649352561.122567,22560.000000,1649352561.122452,0.000000,0.000000,1.000000,0.000000,0.000000,0.000000,0.000000,7.280385,32.412903,1.290955
1649352561.222091,22561.000000,1649352561.222001,0.000000,0.000000,1.000000,0.000000,0.000000,0.000000,0.000000,7.280095,32.411988,1.288771
1649352561.322111,22562.000000,1649352561.322017,0.000000,0.000000,1.000000,0.000000,0.000000,0.000000,0.000000,7.279836,32.412250,1.292312
1649352561.422181,22563.000000,1649352561.422087,0.000000,0.000000,1.000000,0.000000,0.000000,0.000000,0.000000,7.278516,32.415804,1.276339
1649352561.522213,22564.000000,1649352561.522077,0.000000,0.000000,1.000000,0.000000,0.000000,0.000000,0.000000,7.278376,32.418095,1.243282
1649352561.622221,22565.000000,1649352561.622091,0.000000,0.000000,1.000000,0.000000,0.000000,0.000000,0.000000,7.278262,32.421365,1.214850
1649352561.722198,22566.000000,1649352561.722056,0.000000,0.000000,1.000000,0.000000,0.000000,0.000000,0.000000,7.278171,32.423368,1.195742
1649352561.822612,22567.000000,1649352561.822450,0.000000,0.000000,1.000000,0.000000,0.000000,0.000000,0.000000,7.278102,32.426347,1.186417
1649352561.922410,22568.000000,1649352561.922285,0.000000,0.000000,1.000000,0.000000,0.000000,0.000000,0.000000,7.276962,32.428060,1.181651
1649352562.022165,22569.000000,1649352562.022039,0.000000,0.000000,1.000000,0.000000,0.000000,0.000000,0.000000,7.276993,32.430752,1.185294
1649352562.122241,22570.000000,1649352562.122107,0.000000,0.000000,1.000000,0.000000,0.000000,0.000000,0.000000,7.277039,32.435452,1.191350
1649352562.222736,22571.000000,1649352562.222382,0.000000,0.000000,1.000000,0.000000,0.000000,0.000000,0.000000,7.277099,32.437676,1.198093
1649352562.322462,22572.000000,1649352562.322346,0.000000,0.000000,1.000000,0.000000,0.000000,0.000000,0.000000,7.276080,32.439736,1.207897
1649352562.422154,22573.000000,1649352562.422035,0.000000,0.000000,1.000000,0.000000,0.000000,0.000000,0.000000,7.276225,32.440544,1.201262
1649352562.522134,22574.000000,1649352562.522018,0.000000,0.000000,1.000000,0.000000,0.000000,0.000000,0.000000,7.276377,32.440171,1.196602
1649352562.622277,22575.000000,1649352562.622153,0.000000,0.000000,1.000000,0.000000,0.000000,0.000000,0.000000,7.276536,32.439775,1.197067
1649352562.722322,22576.000000,1649352562.722198,0.000000,0.000000,1.000000,0.000000,0.000000,0.000000,0.000000,7.276699,32.439360,1.200831
1649352562.822227,22577.000000,1649352562.822088,0.000000,0.000000,1.000000,0.000000,0.000000,0.000000,0.000000,7.276865,32.437842,1.201301
1649352562.922508,22578.000000,1649352562.922347,0.000000,0.000000,1.000000,0.000000,0.000000,0.000000,0.000000,7.277033,32.438557,1.209894
1649352563.022240,22579.000000,1649352563.022069,0.000000,0.000000,1.000000,0.000000,0.000000,0.000000,0.000000,7.277201,32.440294,1.221427
1649352563.122435,22580.000000,1649352563.122307,0.000000,0.000000,1.000000,0.000000,0.000000,0.000000,0.000000,7.277368,32.440812,1.230115
1649352563.222511,22581.000000,1649352563.222355,0.000000,0.000000,1.000000,0.000000,0.000000,0.000000,0.000000,7.277534,32.439088,1.234442
1649352563.322110,22582.000000,1649352563.321981,0.000000,0.000000,1.000000,0.000000,0.000000,0.000000,0.000000,7.277697,32.440703,1.237802
1649352563.422402,22583.000000,1649352563.422267,0.000000,0.000000,1.000000,0.000000,0.000000,0.000000,0.000000,7.277857,32.441109,1.241841
1649352563.522220,22584.000000,1649352563.522110,0.000000,0.000000,1.000000,0.000000,0.000000,0.000000,0.000000,7.278013,32.441465,1.250556
1649352563.622140,22585.000000,1649352563.622002,0.000000,0.000000,1.000000,0.000000,0.000000,0.000000,0.000000,7.278164,32.440682,1.251647
1649352563.722618,22586.000000,1649352563.722466,0.000000,0.000000,1.000000,0.000000,0.000000,0.000000,0.000000,7.278311,32.441008,1.258323
1649352563.822979,22587.000000,1649352563.822664,0.000000,0.000000,1.000000,0.000000,0.000000,0.000000,0.000000,7.279542,32.441291,1.269543
1649352563.922499,22588.000000,1649352563.922294,0.000000,0.000000,1.000000,0.000000,0.000000,0.000000,0.000000,7.280705,32.439355,1.271396
1649352564.022178,22589.000000,1649352564.022058,0.000000,0.000000,1.000000,0.000000,0.000000,0.000000,0.000000,7.280709,32.437509,1.273128
1649352564.122158,22590.000000,1649352564.122045,0.000000,0.000000,1.000000,0.000000,0.000000,0.000000,0.000000,7.279618,32.436844,1.280389
1649352564.222401,22591.000000,1649352564.222294,0.000000,0.000000,1.000000,0.000000,0.000000,0.000000,0.000000,7.279676,32.435118,1.284074
1649352564.322258,22592.000000,1649352564.322146,0.000000,0.000000,1.000000,0.000000,0.000000,0.000000,0.000000,7.278639,32.433485,1.266583
1649352564.422264,22593.000000,1649352564.422101,0.000000,0.000000,1.000000,0.000000,0.000000,0.000000,0.000000,7.276571,32.433035,1.240897
1649352564.522202,22594.000000,1649352564.522101,0.000000,0.000000,1.000000,0.000000,0.000000,0.000000,0.000000,7.275714,32.433706,1.226746
1649352564.622324,22595.000000,1649352564.622135,0.000000,0.000000,1.000000,0.000000,0.000000,0.000000,0.000000,7.274915,32.433253,1.218044
1649352564.723316,22596.000000,1649352564.723145,0.000000,0.000000,1.000000,0.000000,0.000000,0.000000,0.000000,7.276352,32.431738,1.191196
1649352564.822073,22597.000000,1649352564.821964,0.000000,0.000000,1.000000,0.000000,0.000000,0.000000,0.000000,7.277719,32.430315,1.173591
1649352564.922243,22598.000000,1649352564.922146,0.000000,0.000000,1.000000,0.000000,0.000000,0.000000,0.000000,7.277924,32.428982,1.164882
1649352565.022550,22599.000000,1649352565.022381,0.000000,0.000000,1.000000,0.000000,0.000000,0.000000,0.000000,7.279209,32.427738,1.162301
1649352565.122186,22600.000000,1649352565.122052,0.000000,0.000000,1.000000,0.000000,0.000000,0.000000,0.000000,7.281513,32.426581,1.168018
1649352565.222512,22601.000000,1649352565.222376,0.000000,0.000000,1.000000,0.000000,0.000000,0.000000,0.000000,7.282592,32.426599,1.158297
1649352565.322151,22602.000000,1649352565.322037,0.000000,0.000000,1.000000,0.000000,0.000000,0.000000,0.000000,7.283599,32.426636,1.154741
1649352565.422315,22603.000000,1649352565.422180,0.000000,0.000000,1.000000,0.000000,0.000000,0.000000,0.000000,7.285628,32.427781,1.152261
1649352565.522196,22604.000000,1649352565.522040,0.000000,0.000000,1.000000,0.000000,0.000000,0.000000,0.000000,7.285345,32.428878,1.134685
1649352565.622559,22605.000000,1649352565.622400,0.000000,0.000000,1.000000,0.000000,0.000000,0.000000,0.000000,7.283968,32.429926,1.101839
1649352565.722483,22606.000000,1649352565.722341,0.000000,0.000000,1.000000,0.000000,0.000000,0.000000,0.000000,7.283745,32.430922,1.086646
1649352565.822501,22607.000000,1649352565.822393,0.000000,0.000000,1.000000,0.000000,0.000000,0.000000,0.000000,7.284612,32.430777,1.078734
1649352565.922338,22608.000000,1649352565.922236,0.000000,0.000000,1.000000,0.000000,0.000000,0.000000,0.000000,7.283238,32.431733,1.078621
1649352566.022249,22609.000000,1649352566.022066,0.000000,0.000000,1.000000,0.000000,0.000000,0.000000,0.000000,7.284112,32.432636,1.088403
1649352566.122229,22610.000000,1649352566.122113,0.000000,0.000000,1.000000,0.000000,0.000000,0.000000,0.000000,7.282746,32.434578,1.100397
1649352566.222209,22611.000000,1649352566.222077,0.000000,0.000000,1.000000,0.000000,0.000000,0.000000,0.000000,7.283630,32.434225,1.114486
1649352566.322143,22612.000000,1649352566.322003,0.000000,0.000000,1.000000,0.000000,0.000000,0.000000,0.000000,7.285548,32.433883,1.122490
1649352566.422114,22613.000000,1649352566.421984,0.000000,0.000000,1.000000,0.000000,0.000000,0.000000,0.000000,7.286257,32.433554,1.133507
1649352566.522068,22614.000000,1649352566.521978,0.000000,0.000000,1.000000,0.000000,0.000000,0.000000,0.000000,7.285822,32.433239,1.132875
1649352566.622149,22615.000000,1649352566.622036,0.000000,0.000000,1.000000,0.000000,0.000000,0.000000,0.000000,7.285398,32.432938,1.117836
1649352566.722329,22616.000000,1649352566.722210,0.000000,0.000000,1.000000,0.000000,0.000000,0.000000,0.000000,7.286077,32.432651,1.101090
1649352566.822185,22617.000000,1649352566.822082,0.000000,0.000000,1.000000,0.000000,0.000000,0.000000,0.000000,7.285616,32.433469,1.094825
1649352566.922138,22618.000000,1649352566.922021,0.000000,0.000000,1.000000,0.000000,0.000000,0.000000,0.000000,7.285170,32.434239,1.077657
1649352567.023299,22619.000000,1649352567.022949,0.000000,0.000000,1.000000,0.000000,0.000000,0.000000,0.000000,7.284740,32.433871,1.050049
1649352567.122635,22620.000000,1649352567.122339,0.000000,0.000000,1.000000,0.000000,0.000000,0.000000,0.000000,7.286507,32.433518,1.032623
1649352567.222448,22621.000000,1649352567.222291,0.000000,0.000000,1.000000,0.000000,0.000000,0.000000,0.000000,7.288167,32.432092,1.007248
1649352567.322179,22622.000000,1649352567.322055,0.000000,0.000000,1.000000,0.000000,0.000000,0.000000,0.000000,7.288630,32.431835,0.996858
1649352567.422696,22623.000000,1649352567.422409,0.000000,0.000000,1.000000,0.000000,0.000000,0.000000,0.000000,7.289052,32.429414,0.991180
1649352567.522352,22624.000000,1649352567.522135,0.000000,0.000000,1.000000,0.000000,0.000000,0.000000,0.000000,7.289433,32.428226,0.976312
1649352567.622159,22625.000000,1649352567.622036,0.000000,0.000000,1.000000,0.000000,0.000000,0.000000,0.000000,7.288686,32.428205,0.974414
1649352567.722138,22626.000000,1649352567.722014,0.000000,0.000000,1.000000,0.000000,0.000000,0.000000,0.000000,7.286875,32.429288,0.982534
1649352567.822256,22627.000000,1649352567.822128,0.000000,0.000000,1.000000,0.000000,0.000000,0.000000,0.000000,7.285155,32.429231,0.991374
1649352567.922740,22628.000000,1649352567.922629,0.000000,0.000000,1.000000,0.000000,0.000000,0.000000,0.000000,7.284618,32.425913,0.992008
1649352568.022563,22629.000000,1649352568.022412,0.000000,0.000000,1.000000,0.000000,0.000000,0.000000,0.000000,7.283021,32.424975,1.001692
1649352568.122218,22630.000000,1649352568.122069,0.000000,0.000000,1.000000,0.000000,0.000000,0.000000,0.000000,7.281515,32.425198,1.015199
1649352568.222239,22631.000000,1649352568.222089,0.000000,0.000000,1.000000,0.000000,0.000000,0.000000,0.000000,7.281191,32.424337,1.029923
1649352568.322400,22632.000000,1649352568.322227,0.000000,0.000000,1.000000,0.000000,0.000000,0.000000,0.000000,7.280896,32.423542,1.022397
1649352568.422463,22633.000000,1649352568.422329,0.000000,0.000000,1.000000,0.000000,0.000000,0.000000,0.000000,7.281717,32.423902,1.027398
1649352568.522454,22634.000000,1649352568.522305,0.000000,0.000000,1.000000,0.000000,0.000000,0.000000,0.000000,7.282501,32.423171,1.034729
1649352568.623763,22635.000000,1649352568.623435,0.000000,0.000000,1.000000,0.000000,0.000000,0.000000,0.000000,7.283246,32.422499,1.047504
1649352568.722198,22636.000000,1649352568.722094,0.000000,0.000000,1.000000,0.000000,0.000000,0.000000,0.000000,7.283953,32.421885,1.038866
1649352568.822131,22637.000000,1649352568.822003,0.000000,0.000000,1.000000,0.000000,0.000000,0.000000,0.000000,7.285711,32.421326,1.037109
1649352568.922033,22638.000000,1649352568.921930,0.000000,0.000000,1.000000,0.000000,0.000000,0.000000,0.000000,7.285187,32.420820,1.041955
1649352569.022264,22639.000000,1649352569.022149,0.000000,0.000000,1.000000,0.000000,0.000000,0.000000,0.000000,7.283597,32.422544,1.045062
1649352569.122414,22640.000000,1649352569.122286,0.000000,0.000000,1.000000,0.000000,0.000000,0.000000,0.000000,7.282094,32.425281,1.057782
1649352569.222143,22641.000000,1649352569.222028,0.000000,0.000000,1.000000,0.000000,0.000000,0.000000,0.000000,7.281770,32.426785,1.064381
1649352569.322132,22642.000000,1649352569.322012,0.000000,0.000000,1.000000,0.000000,0.000000,0.000000,0.000000,7.280379,32.428207,1.076384
1649352569.422465,22643.000000,1649352569.422207,0.000000,0.000000,1.000000,0.000000,0.000000,0.000000,0.000000,7.279075,32.429549,1.075002
1649352569.522661,22644.000000,1649352569.522472,0.000000,0.000000,1.000000,0.000000,0.000000,0.000000,0.000000,7.277856,32.431901,1.084970
1649352569.622441,22645.000000,1649352569.622300,0.000000,0.000000,1.000000,0.000000,0.000000,0.000000,0.000000,7.275630,32.433019,1.095332
1649352569.722785,22646.000000,1649352569.722675,0.000000,0.000000,1.000000,0.000000,0.000000,0.000000,0.000000,7.273549,32.432970,1.097182
1649352569.822592,22647.000000,1649352569.822437,0.000000,0.000000,1.000000,0.000000,0.000000,0.000000,0.000000,7.271609,32.431816,1.101345
1649352569.922495,22648.000000,1649352569.922331,0.000000,0.000000,1.000000,0.000000,0.000000,0.000000,0.000000,7.271988,32.431805,1.114175
1649352570.022464,22649.000000,1649352570.022278,0.000000,0.000000,1.000000,0.000000,0.000000,0.000000,0.000000,7.271286,32.432873,1.115140
1649352570.122486,22650.000000,1649352570.122349,0.000000,0.000000,1.000000,0.000000,0.000000,0.000000,0.000000,7.269562,32.431690,1.106333
1649352570.223274,22651.000000,1649352570.222754,0.000000,0.000000,1.000000,0.000000,0.000000,0.000000,0.000000,7.269056,32.431652,1.106712
1649352570.322180,22652.000000,1649352570.322029,0.000000,0.000000,1.000000,0.000000,0.000000,0.000000,0.000000,7.268612,32.431608,1.113490
1649352570.422137,22653.000000,1649352570.422028,0.000000,0.000000,1.000000,0.000000,0.000000,0.000000,0.000000,7.268224,32.431558,1.122366
1649352570.522105,22654.000000,1649352570.521978,0.000000,0.000000,1.000000,0.000000,0.000000,0.000000,0.000000,7.267890,32.432595,1.137275
1649352570.622569,22655.000000,1649352570.622413,0.000000,0.000000,1.000000,0.000000,0.000000,0.000000,0.000000,7.268696,32.432475,1.126499
1649352570.722497,22656.000000,1649352570.722344,0.000000,0.000000,1.000000,0.000000,0.000000,0.000000,0.000000,7.268395,32.432352,1.123354
1649352570.822130,22657.000000,1649352570.822025,0.000000,0.000000,1.000000,0.000000,0.000000,0.000000,0.000000,7.269228,32.431137,1.126733
1649352570.922268,22658.000000,1649352570.922139,0.000000,0.000000,1.000000,0.000000,0.000000,0.000000,0.000000,7.268946,32.431075,1.133950
1649352571.023269,22659.000000,1649352571.022874,0.000000,0.000000,1.000000,0.000000,0.000000,0.000000,0.000000,7.267612,32.431014,1.132745
1649352571.122423,22660.000000,1649352571.122273,0.000000,0.000000,1.000000,0.000000,0.000000,0.000000,0.000000,7.265285,32.432043,1.136365
1649352571.222367,22661.000000,1649352571.222202,0.000000,0.000000,1.000000,0.000000,0.000000,0.000000,0.000000,7.266387,32.433009,1.147031
1649352571.322040,22662.000000,1649352571.321939,0.000000,0.000000,1.000000,0.000000,0.000000,0.000000,0.000000,7.267454,32.432824,1.157187
1649352571.422241,22663.000000,1649352571.422137,0.000000,0.000000,1.000000,0.000000,0.000000,0.000000,0.000000,7.268484,32.432642,1.170870
1649352571.522141,22664.000000,1649352571.522031,0.000000,0.000000,1.000000,0.000000,0.000000,0.000000,0.000000,7.268383,32.431372,1.183080
1649352571.622128,22665.000000,1649352571.622012,0.000000,0.000000,1.000000,0.000000,0.000000,0.000000,0.000000,7.269395,32.430169,1.185798
1649352571.722211,22666.000000,1649352571.722067,0.000000,0.000000,1.000000,0.000000,0.000000,0.000000,0.000000,7.270362,32.429034,1.167309
1649352571.823584,22667.000000,1649352571.822746,0.000000,0.000000,1.000000,0.000000,0.000000,0.000000,0.000000,7.273466,32.427965,1.155118
1649352571.922475,22668.000000,1649352571.922361,0.000000,0.000000,1.000000,0.000000,0.000000,0.000000,0.000000,7.274217,32.428053,1.153834
1649352572.022151,22669.000000,1649352572.022042,0.000000,0.000000,1.000000,0.000000,0.000000,0.000000,0.000000,7.274923,32.429234,1.162216
1649352572.122100,22670.000000,1649352572.122001,0.000000,0.000000,1.000000,0.000000,0.000000,0.000000,0.000000,7.275584,32.428173,1.162122
1649352572.222269,22671.000000,1649352572.222178,0.000000,0.000000,1.000000,0.000000,0.000000,0.000000,0.000000,7.278381,32.427177,1.164379
1649352572.322106,22672.000000,1649352572.322010,0.000000,0.000000,1.000000,0.000000,0.000000,0.000000,0.000000,7.281009,32.426244,1.155183
1649352572.422134,22673.000000,1649352572.421998,0.000000,0.000000,1.000000,0.000000,0.000000,0.000000,0.000000,7.282380,32.426464,1.135821
1649352572.522059,22674.000000,1649352572.521952,0.000000,0.000000,1.000000,0.000000,0.000000,0.000000,0.000000,7.282559,32.426682,1.106737
1649352572.622196,22675.000000,1649352572.622040,0.000000,0.000000,1.000000,0.000000,0.000000,0.000000,0.000000,7.282702,32.427988,1.092566
1649352572.722205,22676.000000,1649352572.722055,0.000000,0.000000,1.000000,0.000000,0.000000,0.000000,0.000000,7.283903,32.427046,1.087085
1649352572.822242,22677.000000,1649352572.822129,0.000000,0.000000,1.000000,0.000000,0.000000,0.000000,0.000000,7.285012,32.426162,1.087533
1649352572.922484,22678.000000,1649352572.922359,0.000000,0.000000,1.000000,0.000000,0.000000,0.000000,0.000000,7.287121,32.425336,1.096891
1649352573.022469,22679.000000,1649352573.022362,0.000000,0.000000,1.000000,0.000000,0.000000,0.000000,0.000000,7.287991,32.424567,1.113976
1649352573.122229,22680.000000,1649352573.122122,0.000000,0.000000,1.000000,0.000000,0.000000,0.000000,0.000000,7.285508,32.429304,1.118285
1649352573.222150,22681.000000,1649352573.222022,0.000000,0.000000,1.000000,0.000000,0.000000,0.000000,0.000000,7.285316,32.432691,1.128874
1649352573.322128,22682.000000,1649352573.321998,0.000000,0.000000,1.000000,0.000000,0.000000,0.000000,0.000000,7.285111,32.436971,1.143858
1649352573.422207,22683.000000,1649352573.422075,0.000000,0.000000,1.000000,0.000000,0.000000,0.000000,0.000000,7.287077,32.439901,1.162229
1649352573.522269,22684.000000,1649352573.522139,0.000000,0.000000,1.000000,0.000000,0.000000,0.000000,0.000000,7.286729,32.440458,1.174950
1649352573.622146,22685.000000,1649352573.622032,0.000000,0.000000,1.000000,0.000000,0.000000,0.000000,0.000000,7.286377,32.440951,1.191908
1649352573.722106,22686.000000,1649352573.722004,0.000000,0.000000,1.000000,0.000000,0.000000,0.000000,0.000000,7.286023,32.438113,1.199197
1649352573.822478,22687.000000,1649352573.822360,0.000000,0.000000,1.000000,0.000000,0.000000,0.000000,0.000000,7.285670,32.435408,1.209297
1649352573.922183,22688.000000,1649352573.922075,0.000000,0.000000,1.000000,0.000000,0.000000,0.000000,0.000000,7.285320,32.433928,1.208371
1649352574.022242,22689.000000,1649352574.022122,0.000000,0.000000,1.000000,0.000000,0.000000,0.000000,0.000000,7.286065,32.433612,1.211389
1649352574.122455,22690.000000,1649352574.122293,0.000000,0.000000,1.000000,0.000000,0.000000,0.000000,0.000000,7.286753,32.434399,1.221416
1649352574.222645,22691.000000,1649352574.222394,0.000000,0.000000,1.000000,0.000000,0.000000,0.000000,0.000000,7.288477,32.434044,1.229289
1649352574.322411,22692.000000,1649352574.322294,0.000000,0.000000,1.000000,0.000000,0.000000,0.000000,0.000000,7.290086,32.434793,1.241537
1649352574.422141,22693.000000,1649352574.421980,0.000000,0.000000,1.000000,0.000000,0.000000,0.000000,0.000000,7.290491,32.436584,1.253937
1649352574.522100,22694.000000,1649352574.522016,0.000000,0.000000,1.000000,0.000000,0.000000,0.000000,0.000000,7.290849,32.440444,1.269696
1649352574.622203,22695.000000,1649352574.622111,0.000000,0.000000,1.000000,0.000000,0.000000,0.000000,0.000000,7.292253,32.439708,1.278980
1649352574.722146,22696.000000,1649352574.722017,0.000000,0.000000,1.000000,0.000000,0.000000,0.000000,0.000000,7.295733,32.438991,1.286076
1649352574.822138,22697.000000,1649352574.822009,0.000000,0.000000,1.000000,0.000000,0.000000,0.000000,0.000000,7.297896,32.438296,1.295099
1649352574.922382,22698.000000,1649352574.922219,0.000000,0.000000,1.000000,0.000000,0.000000,0.000000,0.000000,7.299900,32.437624,1.288225
1649352575.023197,22699.000000,1649352575.022839,0.000000,0.000000,1.000000,0.000000,0.000000,0.000000,0.000000,7.301748,32.436978,1.284662
1649352575.122551,22700.000000,1649352575.122357,0.000000,0.000000,1.000000,0.000000,0.000000,0.000000,0.000000,7.303447,32.436358,1.287518
1649352575.222420,22701.000000,1649352575.222273,0.000000,0.000000,1.000000,0.000000,0.000000,0.000000,0.000000,7.305002,32.434676,1.287664
1649352575.322355,22702.000000,1649352575.322234,0.000000,0.000000,1.000000,0.000000,0.000000,0.000000,0.000000,7.304238,32.434174,1.291669
1649352575.422282,22703.000000,1649352575.422168,0.000000,0.000000,1.000000,0.000000,0.000000,0.000000,0.000000,7.302378,32.431521,1.293733
1649352575.522223,22704.000000,1649352575.522118,0.000000,0.000000,1.000000,0.000000,0.000000,0.000000,0.000000,7.302760,32.427931,1.295549
1649352575.622123,22705.000000,1649352575.622010,0.000000,0.000000,1.000000,0.000000,0.000000,0.000000,0.000000,7.301993,32.427828,1.296326
1649352575.722128,22706.000000,1649352575.722013,0.000000,0.000000,1.000000,0.000000,0.000000,0.000000,0.000000,7.302324,32.427750,1.300144
1649352575.822809,22707.000000,1649352575.822164,0.000000,0.000000,1.000000,0.000000,0.000000,0.000000,0.000000,7.303695,32.427694,1.309298
1649352575.922368,22708.000000,1649352575.922203,0.000000,0.000000,1.000000,0.000000,0.000000,0.000000,0.000000,7.302776,32.427659,1.315500
1649352576.022240,22709.000000,1649352576.022024,0.000000,0.000000,1.000000,0.000000,0.000000,0.000000,0.000000,7.301876,32.427643,1.303543
1649352576.122158,22710.000000,1649352576.122049,0.000000,0.000000,1.000000,0.000000,0.000000,0.000000,0.000000,7.300999,32.429824,1.299186
1649352576.222417,22711.000000,1649352576.222292,0.000000,0.000000,1.000000,0.000000,0.000000,0.000000,0.000000,7.297969,32.430803,1.277136
1649352576.322158,22712.000000,1649352576.322028,0.000000,0.000000,1.000000,0.000000,0.000000,0.000000,0.000000,7.296183,32.430644,1.245408
1649352576.422558,22713.000000,1649352576.422356,0.000000,0.000000,1.000000,0.000000,0.000000,0.000000,0.000000,7.293399,32.431588,1.230254
1649352576.522447,22714.000000,1649352576.522314,0.000000,0.000000,1.000000,0.000000,0.000000,0.000000,0.000000,7.290772,32.432482,1.199582
1649352576.622498,22715.000000,1649352576.622227,0.000000,0.000000,1.000000,0.000000,0.000000,0.000000,0.000000,7.287210,32.431145,1.174230
1649352576.722323,22716.000000,1649352576.722193,0.000000,0.000000,1.000000,0.000000,0.000000,0.000000,0.000000,7.286047,32.430974,1.161284
1649352576.822197,22717.000000,1649352576.822088,0.000000,0.000000,1.000000,0.000000,0.000000,0.000000,0.000000,7.284972,32.429726,1.151391
1649352576.922299,22718.000000,1649352576.922146,0.000000,0.000000,1.000000,0.000000,0.000000,0.000000,0.000000,7.282892,32.429642,1.122664
1649352577.022750,22719.000000,1649352577.022582,0.000000,0.000000,1.000000,0.000000,0.000000,0.000000,0.000000,7.279868,32.428480,1.103326
1649352577.122482,22720.000000,1649352577.122342,0.000000,0.000000,1.000000,0.000000,0.000000,0.000000,0.000000,7.277048,32.426300,1.089799
1649352577.222272,22721.000000,1649352577.222102,0.000000,0.000000,1.000000,0.000000,0.000000,0.000000,0.000000,7.275519,32.424256,1.082670
1649352577.322107,22722.000000,1649352577.321985,0.000000,0.000000,1.000000,0.000000,0.000000,0.000000,0.000000,7.274122,32.423435,1.081684
1649352577.422357,22723.000000,1649352577.422170,0.000000,0.000000,1.000000,0.000000,0.000000,0.000000,0.000000,7.272852,32.422682,1.084974
1649352577.522266,22724.000000,1649352577.522167,0.000000,0.000000,1.000000,0.000000,0.000000,0.000000,0.000000,7.272792,32.420904,1.089933
1649352577.622171,22725.000000,1649352577.622062,0.000000,0.000000,1.000000,0.000000,0.000000,0.000000,0.000000,7.271694,32.421432,1.089220
1649352577.722237,22726.000000,1649352577.722044,0.000000,0.000000,1.000000,0.000000,0.000000,0.000000,0.000000,7.269615,32.424137,1.096768
1649352577.822299,22727.000000,1649352577.822191,0.000000,0.000000,1.000000,0.000000,0.000000,0.000000,0.000000,7.267701,32.425620,1.106578
1649352577.922622,22728.000000,1649352577.922484,0.000000,0.000000,1.000000,0.000000,0.000000,0.000000,0.000000,7.265948,32.427031,1.122569
1649352578.022471,22729.000000,1649352578.022325,0.000000,0.000000,1.000000,0.000000,0.000000,0.000000,0.000000,7.265439,32.428370,1.142845
1649352578.122312,22730.000000,1649352578.122155,0.000000,0.000000,1.000000,0.000000,0.000000,0.000000,0.000000,7.266105,32.429637,1.167198
1649352578.222890,22731.000000,1649352578.222458,0.000000,0.000000,1.000000,0.000000,0.000000,0.000000,0.000000,7.265695,32.428649,1.180094
1649352578.322133,22732.000000,1649352578.322020,0.000000,0.000000,1.000000,0.000000,0.000000,0.000000,0.000000,7.265357,32.427715,1.193266
1649352578.422138,22733.000000,1649352578.421997,0.000000,0.000000,1.000000,0.000000,0.000000,0.000000,0.000000,7.265085,32.426834,1.203453
1649352578.522107,22734.000000,1649352578.521999,0.000000,0.000000,1.000000,0.000000,0.000000,0.000000,0.000000,7.264874,32.424916,1.208341
1649352578.622338,22735.000000,1649352578.622226,0.000000,0.000000,1.000000,0.000000,0.000000,0.000000,0.000000,7.265808,32.424203,1.218622
1649352578.722301,22736.000000,1649352578.722159,0.000000,0.000000,1.000000,0.000000,0.000000,0.000000,0.000000,7.267820,32.421361,1.225191
1649352578.822129,22737.000000,1649352578.822019,0.000000,0.000000,1.000000,0.000000,0.000000,0.000000,0.000000,7.269752,32.417604,1.226577
1649352578.922310,22738.000000,1649352578.922199,0.000000,0.000000,1.000000,0.000000,0.000000,0.000000,0.000000,7.271601,32.414083,1.229442
1649352579.022236,22739.000000,1649352579.022101,0.000000,0.000000,1.000000,0.000000,0.000000,0.000000,0.000000,7.274455,32.411885,1.222435
1649352579.122494,22740.000000,1649352579.122342,0.000000,0.000000,1.000000,0.000000,0.000000,0.000000,0.000000,7.276067,32.412033,1.212420
1649352579.222274,22741.000000,1649352579.222169,0.000000,0.000000,1.000000,0.000000,0.000000,0.000000,0.000000,7.276502,32.412214,1.204376
1649352579.322115,22742.000000,1649352579.321996,0.000000,0.000000,1.000000,0.000000,0.000000,0.000000,0.000000,7.276910,32.413515,1.202272
1649352579.422413,22743.000000,1649352579.422297,0.000000,0.000000,1.000000,0.000000,0.000000,0.000000,0.000000,7.277294,32.414778,1.207487
1649352579.522146,22744.000000,1649352579.522008,0.000000,0.000000,1.000000,0.000000,0.000000,0.000000,0.000000,7.276563,32.414909,1.213265
1649352579.622340,22745.000000,1649352579.622206,0.000000,0.000000,1.000000,0.000000,0.000000,0.000000,0.000000,7.275870,32.415057,1.222803
1649352579.722538,22746.000000,1649352579.722397,0.000000,0.000000,1.000000,0.000000,0.000000,0.000000,0.000000,7.274125,32.413040,1.224642
1649352579.822880,22747.000000,1649352579.822509,0.000000,0.000000,1.000000,0.000000,0.000000,0.000000,0.000000,7.274662,32.411160,1.227964
1649352579.922227,22748.000000,1649352579.922112,0.000000,0.000000,1.000000,0.000000,0.000000,0.000000,0.000000,7.274084,32.410506,1.228674
1649352580.022110,22749.000000,1649352580.021999,0.000000,0.000000,1.000000,0.000000,0.000000,0.000000,0.000000,7.271363,32.412100,1.223652
1649352580.122115,22750.000000,1649352580.122003,0.000000,0.000000,1.000000,0.000000,0.000000,0.000000,0.000000,7.269894,32.414724,1.227656
1649352580.222387,22751.000000,1649352580.222278,0.000000,0.000000,1.000000,0.000000,0.000000,0.000000,0.000000,7.266342,32.417221,1.232253
1649352580.322305,22752.000000,1649352580.322193,0.000000,0.000000,1.000000,0.000000,0.000000,0.000000,0.000000,7.265193,32.417408,1.233382
1649352580.422315,22753.000000,1649352580.422158,0.000000,0.000000,1.000000,0.000000,0.000000,0.000000,0.000000,7.263046,32.416500,1.225537
1649352580.522156,22754.000000,1649352580.522023,0.000000,0.000000,1.000000,0.000000,0.000000,0.000000,0.000000,7.262141,32.414560,1.201032
1649352580.622457,22755.000000,1649352580.622253,0.000000,0.000000,1.000000,0.000000,0.000000,0.000000,0.000000,7.262412,32.411650,1.171871
1649352580.722541,22756.000000,1649352580.722354,0.000000,0.000000,1.000000,0.000000,0.000000,0.000000,0.000000,7.263791,32.411102,1.159259
1649352580.822110,22757.000000,1649352580.821996,0.000000,0.000000,1.000000,0.000000,0.000000,0.000000,0.000000,7.264032,32.412787,1.157710
1649352580.922235,22758.000000,1649352580.922140,0.000000,0.000000,1.000000,0.000000,0.000000,0.000000,0.000000,7.265374,32.415487,1.165165
1649352581.022508,22759.000000,1649352581.022412,0.000000,0.000000,1.000000,0.000000,0.000000,0.000000,0.000000,7.266663,32.418047,1.152212
1649352581.122177,22760.000000,1649352581.122076,0.000000,0.000000,1.000000,0.000000,0.000000,0.000000,0.000000,7.268984,32.419376,1.129373
1649352581.222264,22761.000000,1649352581.222134,0.000000,0.000000,1.000000,0.000000,0.000000,0.000000,0.000000,7.271185,32.421717,1.103531
1649352581.322568,22762.000000,1649352581.322453,0.000000,0.000000,1.000000,0.000000,0.000000,0.000000,0.000000,7.272174,32.422827,1.065170
1649352581.422278,22763.000000,1649352581.422136,0.000000,0.000000,1.000000,0.000000,0.000000,0.000000,0.000000,7.273105,32.422771,1.035821
1649352581.522237,22764.000000,1649352581.522142,0.000000,0.000000,1.000000,0.000000,0.000000,0.000000,0.000000,7.273977,32.423794,1.024840
1649352581.622162,22765.000000,1649352581.622023,0.000000,0.000000,1.000000,0.000000,0.000000,0.000000,0.000000,7.275883,32.426926,1.026655
1649352581.722169,22766.000000,1649352581.722060,0.000000,0.000000,1.000000,0.000000,0.000000,0.000000,0.000000,7.276579,32.427680,1.031866
1649352581.822407,22767.000000,1649352581.822240,0.000000,0.000000,1.000000,0.000000,0.000000,0.000000,0.000000,7.277221,32.428367,1.045962
1649352581.922219,22768.000000,1649352581.922112,0.000000,0.000000,1.000000,0.000000,0.000000,0.000000,0.000000,7.277810,32.428989,1.058875
1649352582.022291,22769.000000,1649352582.022135,0.000000,0.000000,1.000000,0.000000,0.000000,0.000000,0.000000,7.277258,32.431730,1.070621
1649352582.122180,22770.000000,1649352582.122046,0.000000,0.000000,1.000000,0.000000,0.000000,0.000000,0.000000,7.278902,32.433197,1.078803
1649352582.222388,22771.000000,1649352582.222136,0.000000,0.000000,1.000000,0.000000,0.000000,0.000000,0.000000,7.280436,32.436728,1.088382
1649352582.322179,22772.000000,1649352582.321974,0.000000,0.000000,1.000000,0.000000,0.000000,0.000000,0.000000,7.280773,32.440020,1.099282
1649352582.422130,22773.000000,1649352582.421995,0.000000,0.000000,1.000000,0.000000,0.000000,0.000000,0.000000,7.281068,32.443079,1.114652
1649352582.522234,22774.000000,1649352582.522111,0.000000,0.000000,1.000000,0.000000,0.000000,0.000000,0.000000,7.281325,32.443730,1.129445
1649352582.622738,22775.000000,1649352582.622570,0.000000,0.000000,1.000000,0.000000,0.000000,0.000000,0.000000,7.282635,32.442106,1.142044
1649352582.722533,22776.000000,1649352582.722409,0.000000,0.000000,1.000000,0.000000,0.000000,0.000000,0.000000,7.282758,32.442701,1.158161
1649352582.822540,22777.000000,1649352582.822349,0.000000,0.000000,1.000000,0.000000,0.000000,0.000000,0.000000,7.283941,32.443213,1.177627
1649352582.922926,22778.000000,1649352582.922753,0.000000,0.000000,1.000000,0.000000,0.000000,0.000000,0.000000,7.282853,32.441469,1.184953
1649352583.022688,22779.000000,1649352583.022465,0.000000,0.000000,1.000000,0.000000,0.000000,0.000000,0.000000,7.281802,32.441961,1.198360
1649352583.122688,22780.000000,1649352583.122569,0.000000,0.000000,1.000000,0.000000,0.000000,0.000000,0.000000,7.281882,32.441296,1.187745
1649352583.222474,22781.000000,1649352583.222376,0.000000,0.000000,1.000000,0.000000,0.000000,0.000000,0.000000,7.281941,32.439543,1.183130
1649352583.322153,22782.000000,1649352583.322037,0.000000,0.000000,1.000000,0.000000,0.000000,0.000000,0.000000,7.280892,32.438948,1.185091
1649352583.422362,22783.000000,1649352583.422252,0.000000,0.000000,1.000000,0.000000,0.000000,0.000000,0.000000,7.278797,32.439452,1.174814
1649352583.522236,22784.000000,1649352583.522136,0.000000,0.000000,1.000000,0.000000,0.000000,0.000000,0.000000,7.276813,32.440994,1.175393
1649352583.622178,22785.000000,1649352583.622064,0.000000,0.000000,1.000000,0.000000,0.000000,0.000000,0.000000,7.276030,32.442426,1.183971
1649352583.722153,22786.000000,1649352583.722026,0.000000,0.000000,1.000000,0.000000,0.000000,0.000000,0.000000,7.274204,32.443749,1.196987
1649352583.822132,22787.000000,1649352583.822028,0.000000,0.000000,1.000000,0.000000,0.000000,0.000000,0.000000,7.271397,32.446057,1.210212
1649352583.922210,22788.000000,1649352583.922097,0.000000,0.000000,1.000000,0.000000,0.000000,0.000000,0.000000,7.268762,32.449292,1.227648
1649352584.022146,22789.000000,1649352584.022005,0.000000,0.000000,1.000000,0.000000,0.000000,0.000000,0.000000,7.267386,32.449033,1.232973
1649352584.122106,22790.000000,1649352584.121965,0.000000,0.000000,1.000000,0.000000,0.000000,0.000000,0.000000,7.267204,32.448746,1.237959
1649352584.222506,22791.000000,1649352584.222367,0.000000,0.000000,1.000000,0.000000,0.000000,0.000000,0.000000,7.268150,32.449525,1.249876
1649352584.322294,22792.000000,1649352584.322192,0.000000,0.000000,1.000000,0.000000,0.000000,0.000000,0.000000,7.269068,32.449132,1.261978
1649352584.422091,22793.000000,1649352584.421994,0.000000,0.000000,1.000000,0.000000,0.000000,0.000000,0.000000,7.268864,32.449814,1.277469
1649352584.522270,22794.000000,1649352584.522115,0.000000,0.000000,1.000000,0.000000,0.000000,0.000000,0.000000,7.268689,32.449334,1.288934
1649352584.622318,22795.000000,1649352584.622193,0.000000,0.000000,1.000000,0.000000,0.000000,0.000000,0.000000,7.269632,32.448846,1.299749
1649352584.722436,22796.000000,1649352584.722265,0.000000,0.000000,1.000000,0.000000,0.000000,0.000000,0.000000,7.270537,32.449447,1.312349
1649352584.822227,22797.000000,1649352584.822059,0.000000,0.000000,1.000000,0.000000,0.000000,0.000000,0.000000,7.270313,32.448895,1.314553
1649352584.922197,22798.000000,1649352584.922052,0.000000,0.000000,1.000000,0.000000,0.000000,0.000000,0.000000,7.271202,32.447257,1.322107
1649352585.022629,22799.000000,1649352585.022437,0.000000,0.000000,1.000000,0.000000,0.000000,0.000000,0.000000,7.273139,32.443508,1.321082
1649352585.122152,22800.000000,1649352585.122034,0.000000,0.000000,1.000000,0.000000,0.000000,0.000000,0.000000,7.273881,32.439958,1.324738
1649352585.222055,22801.000000,1649352585.221966,0.000000,0.000000,1.000000,0.000000,0.000000,0.000000,0.000000,7.273490,32.438786,1.333694
1649352585.322245,22802.000000,1649352585.322157,0.000000,0.000000,1.000000,0.000000,0.000000,0.000000,0.000000,7.273120,32.437687,1.344503
1649352585.422225,22803.000000,1649352585.422113,0.000000,0.000000,1.000000,0.000000,0.000000,0.000000,0.000000,7.273861,32.436660,1.357083
1649352585.522532,22804.000000,1649352585.522368,0.000000,0.000000,1.000000,0.000000,0.000000,0.000000,0.000000,7.274560,32.434612,1.354413
1649352585.622582,22805.000000,1649352585.622403,0.000000,0.000000,1.000000,0.000000,0.000000,0.000000,0.000000,7.274126,32.432695,1.334703
1649352585.722584,22806.000000,1649352585.722403,0.000000,0.000000,1.000000,0.000000,0.000000,0.000000,0.000000,7.272624,32.431998,1.325294
1649352585.822886,22807.000000,1649352585.822736,0.000000,0.000000,1.000000,0.000000,0.000000,0.000000,0.000000,7.272296,32.433546,1.314505
1649352585.922673,22808.000000,1649352585.922537,0.000000,0.000000,1.000000,0.000000,0.000000,0.000000,0.000000,7.270899,32.436118,1.288706
1649352586.022559,22809.000000,1649352586.022424,0.000000,0.000000,1.000000,0.000000,0.000000,0.000000,0.000000,7.270676,32.438560,1.276776
1649352586.122508,22810.000000,1649352586.122339,0.000000,0.000000,1.000000,0.000000,0.000000,0.000000,0.000000,7.270473,32.438690,1.269309
1649352586.223473,22811.000000,1649352586.223052,0.000000,0.000000,1.000000,0.000000,0.000000,0.000000,0.000000,7.270290,32.438815,1.250011
1649352586.322500,22812.000000,1649352586.322374,0.000000,0.000000,1.000000,0.000000,0.000000,0.000000,0.000000,7.270124,32.437842,1.237135
1649352586.422482,22813.000000,1649352586.422301,0.000000,0.000000,1.000000,0.000000,0.000000,0.000000,0.000000,7.269976,32.436927,1.207056
1649352586.522280,22814.000000,1649352586.522125,0.000000,0.000000,1.000000,0.000000,0.000000,0.000000,0.000000,7.270934,32.437158,1.191970
1649352586.622451,22815.000000,1649352586.622270,0.000000,0.000000,1.000000,0.000000,0.000000,0.000000,0.000000,7.248947,32.448285,1.142102
1649352586.722184,22816.000000,1649352586.722082,0.000000,0.000000,1.000000,0.000000,0.000000,0.000000,0.000000,7.233684,32.455505,1.113772
1649352586.822410,22817.000000,1649352586.822257,0.000000,0.000000,1.000000,0.000000,0.000000,0.000000,0.000000,7.223730,32.461191,1.085186
1649352586.922175,22818.000000,1649352586.922072,0.000000,0.000000,1.000000,0.000000,0.000000,0.000000,0.000000,7.217733,32.464320,1.047523
1649352587.022809,22819.000000,1649352587.022448,0.000000,0.000000,1.000000,0.000000,0.000000,0.000000,0.000000,7.212214,32.463935,1.013298
1649352587.122424,22820.000000,1649352587.122276,0.000000,0.000000,1.000000,0.000000,0.000000,0.000000,0.000000,7.209339,32.464595,0.996127
1649352587.222287,22821.000000,1649352587.222119,0.000000,0.000000,1.000000,0.000000,0.000000,0.000000,0.000000,7.207871,32.465154,0.971951
1649352587.322154,22822.000000,1649352587.322054,0.000000,0.000000,1.000000,0.000000,0.000000,0.000000,0.000000,7.209911,32.462348,0.954786
1649352587.422864,22823.000000,1649352587.422621,0.000000,0.000000,1.000000,0.000000,0.000000,0.000000,0.000000,7.213071,32.459645,0.946783
1649352587.522580,22824.000000,1649352587.522412,0.000000,0.000000,1.000000,0.000000,0.000000,0.000000,0.000000,7.216182,32.454870,0.934666
1649352587.622516,22825.000000,1649352587.622399,0.000000,0.000000,1.000000,0.000000,0.000000,0.000000,0.000000,7.221410,32.452513,0.937152
1649352587.722417,22826.000000,1649352587.722258,0.000000,0.000000,1.000000,0.000000,0.000000,0.000000,0.000000,7.227527,32.450272,0.936695
1649352587.823253,22827.000000,1649352587.822912,0.000000,0.000000,1.000000,0.000000,0.000000,0.000000,0.000000,7.232280,32.450328,0.947916
1649352587.922526,22828.000000,1649352587.922402,0.000000,0.000000,1.000000,0.000000,0.000000,0.000000,0.000000,7.235725,32.451467,0.951761
1649352588.022200,22829.000000,1649352588.022113,0.000000,0.000000,1.000000,0.000000,0.000000,0.000000,0.000000,7.239010,32.450354,0.960603
1649352588.122147,22830.000000,1649352588.122011,0.000000,0.000000,1.000000,0.000000,0.000000,0.000000,0.000000,7.243221,32.448207,0.968568
1649352588.222700,22831.000000,1649352588.222471,0.000000,0.000000,1.000000,0.000000,0.000000,0.000000,0.000000,7.248296,32.445089,0.960342
1649352588.322367,22832.000000,1649352588.322245,0.000000,0.000000,1.000000,0.000000,0.000000,0.000000,0.000000,7.250899,32.441063,0.964001
1649352588.422248,22833.000000,1649352588.422134,0.000000,0.000000,1.000000,0.000000,0.000000,0.000000,0.000000,7.253338,32.438371,0.971791
1649352588.522360,22834.000000,1649352588.522240,0.000000,0.000000,1.000000,0.000000,0.000000,0.000000,0.000000,7.255616,32.436947,0.986747
1649352588.622258,22835.000000,1649352588.622121,0.000000,0.000000,1.000000,0.000000,0.000000,0.000000,0.000000,7.255555,32.435635,0.996448
1649352588.722180,22836.000000,1649352588.722051,0.000000,0.000000,1.000000,0.000000,0.000000,0.000000,0.000000,7.254376,32.434430,1.001083
1649352588.822218,22837.000000,1649352588.822100,0.000000,0.000000,1.000000,0.000000,0.000000,0.000000,0.000000,7.254325,32.432239,1.007293
1649352588.922201,22838.000000,1649352588.922030,0.000000,0.000000,1.000000,0.000000,0.000000,0.000000,0.000000,7.253163,32.431299,1.018222
1649352589.022509,22839.000000,1649352589.022378,0.000000,0.000000,1.000000,0.000000,0.000000,0.000000,0.000000,7.253134,32.430454,1.014302
1649352589.122205,22840.000000,1649352589.122105,0.000000,0.000000,1.000000,0.000000,0.000000,0.000000,0.000000,7.254179,32.430789,1.008231
1649352589.222400,22841.000000,1649352589.222199,0.000000,0.000000,1.000000,0.000000,0.000000,0.000000,0.000000,7.255147,32.431145,1.015423
1649352589.322301,22842.000000,1649352589.322127,0.000000,0.000000,1.000000,0.000000,0.000000,0.000000,0.000000,7.254950,32.431518,1.024842
1649352589.423472,22843.000000,1649352589.422266,0.000000,0.000000,1.000000,0.000000,0.000000,0.000000,0.000000,7.254743,32.432994,1.040412
1649352589.522202,22844.000000,1649352589.522046,0.000000,0.000000,1.000000,0.000000,0.000000,0.000000,0.000000,7.254528,32.434416,1.056210
1649352589.622271,22845.000000,1649352589.622161,0.000000,0.000000,1.000000,0.000000,0.000000,0.000000,0.000000,7.254309,32.434691,1.068164
1649352589.722337,22846.000000,1649352589.722185,0.000000,0.000000,1.000000,0.000000,0.000000,0.000000,0.000000,7.254086,32.434969,1.085280
1649352589.822634,22847.000000,1649352589.822493,0.000000,0.000000,1.000000,0.000000,0.000000,0.000000,0.000000,7.256043,32.435249,1.105709
1649352589.922575,22848.000000,1649352589.922452,0.000000,0.000000,1.000000,0.000000,0.000000,0.000000,0.000000,7.256784,32.435528,1.108314
1649352590.022513,22849.000000,1649352590.022367,0.000000,0.000000,1.000000,0.000000,0.000000,0.000000,0.000000,7.259645,32.436895,1.118007
1649352590.122450,22850.000000,1649352590.122343,0.000000,0.000000,1.000000,0.000000,0.000000,0.000000,0.000000,7.260141,32.438195,1.129650
1649352590.223175,22851.000000,1649352590.222578,0.000000,0.000000,1.000000,0.000000,0.000000,0.000000,0.000000,7.261673,32.438338,1.138309
1649352590.322433,22852.000000,1649352590.322277,0.000000,0.000000,1.000000,0.000000,0.000000,0.000000,0.000000,7.261999,32.439566,1.154577
1649352590.422208,22853.000000,1649352590.422065,0.000000,0.000000,1.000000,0.000000,0.000000,0.000000,0.000000,7.263368,32.441816,1.173285
1649352590.522336,22854.000000,1649352590.522216,0.000000,0.000000,1.000000,0.000000,0.000000,0.000000,0.000000,7.264630,32.442845,1.173342
1649352590.622360,22855.000000,1649352590.622189,0.000000,0.000000,1.000000,0.000000,0.000000,0.000000,0.000000,7.266878,32.443806,1.180506
1649352590.722182,22856.000000,1649352590.722034,0.000000,0.000000,1.000000,0.000000,0.000000,0.000000,0.000000,7.267873,32.444702,1.192870
1649352590.822192,22857.000000,1649352590.822030,0.000000,0.000000,1.000000,0.000000,0.000000,0.000000,0.000000,7.269863,32.443353,1.206180
1649352590.922114,22858.000000,1649352590.921987,0.000000,0.000000,1.000000,0.000000,0.000000,0.000000,0.000000,7.272791,32.443157,1.221994
1649352591.022813,22859.000000,1649352591.022516,0.000000,0.000000,1.000000,0.000000,0.000000,0.000000,0.000000,7.275507,32.441872,1.236967
1649352591.122123,22860.000000,1649352591.122024,0.000000,0.000000,1.000000,0.000000,0.000000,0.000000,0.000000,7.278019,32.440652,1.251116
1649352591.222470,22861.000000,1649352591.222343,0.000000,0.000000,1.000000,0.000000,0.000000,0.000000,0.000000,7.281422,32.438409,1.241878
1649352591.322443,22862.000000,1649352591.322292,0.000000,0.000000,1.000000,0.000000,0.000000,0.000000,0.000000,7.285662,32.436294,1.239254
1649352591.422666,22863.000000,1649352591.422525,0.000000,0.000000,1.000000,0.000000,0.000000,0.000000,0.000000,7.289593,32.435397,1.245410
1649352591.522361,22864.000000,1649352591.522247,0.000000,0.000000,1.000000,0.000000,0.000000,0.000000,0.000000,7.291042,32.433474,1.248699
1649352591.622170,22865.000000,1649352591.621994,0.000000,0.000000,1.000000,0.000000,0.000000,0.000000,0.000000,7.291237,32.431676,1.255693
1649352591.722231,22866.000000,1649352591.722090,0.000000,0.000000,1.000000,0.000000,0.000000,0.000000,0.000000,7.292430,32.430000,1.245269
1649352591.823433,22867.000000,1649352591.822867,0.000000,0.000000,1.000000,0.000000,0.000000,0.000000,0.000000,7.292387,32.428444,1.242349
1649352591.922315,22868.000000,1649352591.922186,0.000000,0.000000,1.000000,0.000000,0.000000,0.000000,0.000000,7.292271,32.428095,1.245838
1649352592.022355,22869.000000,1649352592.022215,0.000000,0.000000,1.000000,0.000000,0.000000,0.000000,0.000000,7.291000,32.428887,1.256284
1649352592.122175,22870.000000,1649352592.122030,0.000000,0.000000,1.000000,0.000000,0.000000,0.000000,0.000000,7.290826,32.428571,1.263717
1649352592.222499,22871.000000,1649352592.222365,0.000000,0.000000,1.000000,0.000000,0.000000,0.000000,0.000000,7.289512,32.429390,1.271481
1649352592.322140,22872.000000,1649352592.322047,0.000000,0.000000,1.000000,0.000000,0.000000,0.000000,0.000000,7.290400,32.430186,1.282781
1649352592.422164,22873.000000,1649352592.422061,0.000000,0.000000,1.000000,0.000000,0.000000,0.000000,0.000000,7.290098,32.429866,1.284561
