__time,/dwm1001/id_458E/pose_kf/header/seq,/dwm1001/id_458E/pose_kf/header/stamp,/dwm1001/id_458E/pose_kf/pose/orientation/pitch_deg,/dwm1001/id_458E/pose_kf/pose/orientation/roll_deg,/dwm1001/id_458E/pose_kf/pose/orientation/w,/dwm1001/id_458E/pose_kf/pose/orientation/x,/dwm1001/id_458E/pose_kf/pose/orientation/y,/dwm1001/id_458E/pose_kf/pose/orientation/yaw_deg,/dwm1001/id_458E/pose_kf/pose/orientation/z,/dwm1001/id_458E/pose_kf/pose/position/x,/dwm1001/id_458E/pose_kf/pose/position/y,/dwm1001/id_458E/pose_kf/pose/position/z
1649352331.022325,20603.000000,1649352331.022191,0.000000,0.000000,1.000000,0.000000,0.000000,0.000000,0.000000,4.537339,19.851212,-0.404139
1649352331.122386,20604.000000,1649352331.122265,0.000000,0.000000,1.000000,0.000000,0.000000,0.000000,0.000000,4.531223,19.849759,-0.434253
1649352331.222233,20605.000000,1649352331.222043,0.000000,0.000000,1.000000,0.000000,0.000000,0.000000,0.000000,4.531931,19.850520,-0.425011
1649352331.322168,20606.000000,1649352331.322068,0.000000,0.000000,1.000000,0.000000,0.000000,0.000000,0.000000,4.527098,19.850105,-0.443314
1649352331.422164,20607.000000,1649352331.422061,0.000000,0.000000,1.000000,0.000000,0.000000,0.000000,0.000000,4.524676,19.849672,-0.449286
1649352331.522183,20608.000000,1649352331.522075,0.000000,0.000000,1.000000,0.000000,0.000000,0.000000,0.000000,4.524544,19.851405,-0.422427
1649352331.622133,20609.000000,1649352331.622027,0.000000,0.000000,1.000000,0.000000,0.000000,0.000000,0.000000,4.528759,19.854095,-0.353601
1649352331.722193,20610.000000,1649352331.722093,0.000000,0.000000,1.000000,0.000000,0.000000,0.000000,0.000000,4.537073,19.853319,-0.325241
1649352331.823393,20611.000000,1649352331.822961,0.000000,0.000000,1.000000,0.000000,0.000000,0.000000,0.000000,4.545967,19.852545,-0.311544
1649352331.922347,20612.000000,1649352331.922191,0.000000,0.000000,1.000000,0.000000,0.000000,0.000000,0.000000,4.556474,19.853957,-0.252241
1649352332.022253,20613.000000,1649352332.022133,0.000000,0.000000,1.000000,0.000000,0.000000,0.000000,0.000000,4.557576,19.853072,-0.238759
1649352332.122253,20614.000000,1649352332.122144,0.000000,0.000000,1.000000,0.000000,0.000000,0.000000,0.000000,4.561780,19.851111,-0.240215
1649352332.222279,20615.000000,1649352332.222178,0.000000,0.000000,1.000000,0.000000,0.000000,0.000000,0.000000,4.570003,19.848140,-0.252748
1649352332.322360,20616.000000,1649352332.322174,0.000000,0.000000,1.000000,0.000000,0.000000,0.000000,0.000000,4.574372,19.845317,-0.291992
1649352332.422239,20617.000000,1649352332.422082,0.000000,0.000000,1.000000,0.000000,0.000000,0.000000,0.000000,4.572912,19.842642,-0.352748
1649352332.522237,20618.000000,1649352332.522047,0.000000,0.000000,1.000000,0.000000,0.000000,0.000000,0.000000,4.570313,19.841206,-0.393700
1649352332.623042,20619.000000,1649352332.622787,0.000000,0.000000,1.000000,0.000000,0.000000,0.000000,0.000000,4.569924,19.840947,-0.391367
1649352332.722420,20620.000000,1649352332.722306,0.000000,0.000000,1.000000,0.000000,0.000000,0.000000,0.000000,4.565091,19.841801,-0.395873
1649352332.822327,20621.000000,1649352332.822233,0.000000,0.000000,1.000000,0.000000,0.000000,0.000000,0.000000,4.556077,19.841522,-0.429503
1649352332.922765,20622.000000,1649352332.922617,0.000000,0.000000,1.000000,0.000000,0.000000,0.000000,0.000000,4.540962,19.840175,-0.482949
1649352333.022477,20623.000000,1649352333.022226,0.000000,0.000000,1.000000,0.000000,0.000000,0.000000,0.000000,4.524490,19.837819,-0.546444
1649352333.122212,20624.000000,1649352333.122057,0.000000,0.000000,1.000000,0.000000,0.000000,0.000000,0.000000,4.517691,19.834518,-0.596082
1649352333.222259,20625.000000,1649352333.222155,0.000000,0.000000,1.000000,0.000000,0.000000,0.000000,0.000000,4.513514,19.833604,-0.604112
1649352333.322214,20626.000000,1649352333.322107,0.000000,0.000000,1.000000,0.000000,0.000000,0.000000,0.000000,4.514006,19.832766,-0.637525
1649352333.421597,20627.000000,1649352333.421439,0.000000,0.000000,1.000000,0.000000,0.000000,0.000000,0.000000,4.514545,19.832002,-0.669438
1649352333.522196,20628.000000,1649352333.522082,0.000000,0.000000,1.000000,0.000000,0.000000,0.000000,0.000000,4.517303,19.832400,-0.688573
1649352333.622168,20629.000000,1649352333.622065,0.000000,0.000000,1.000000,0.000000,0.000000,0.000000,0.000000,4.513424,19.831711,-0.722842
1649352333.722155,20630.000000,1649352333.722049,0.000000,0.000000,1.000000,0.000000,0.000000,0.000000,0.000000,4.510910,19.829997,-0.768359
1649352333.822085,20631.000000,1649352333.821985,0.000000,0.000000,1.000000,0.000000,0.000000,0.000000,0.000000,4.503151,19.829497,-0.808477
1649352333.922443,20632.000000,1649352333.922337,0.000000,0.000000,1.000000,0.000000,0.000000,0.000000,0.000000,4.495903,19.829054,-0.828844
1649352334.022361,20633.000000,1649352334.022226,0.000000,0.000000,1.000000,0.000000,0.000000,0.000000,0.000000,4.485885,19.827576,-0.869752
1649352334.122346,20634.000000,1649352334.122209,0.000000,0.000000,1.000000,0.000000,0.000000,0.000000,0.000000,4.484178,19.825120,-0.906936
1649352334.222249,20635.000000,1649352334.222117,0.000000,0.000000,1.000000,0.000000,0.000000,0.000000,0.000000,4.484874,19.823928,-0.899373
1649352334.322524,20636.000000,1649352334.322340,0.000000,0.000000,1.000000,0.000000,0.000000,0.000000,0.000000,4.484562,19.826112,-0.858578
1649352334.422286,20637.000000,1649352334.422155,0.000000,0.000000,1.000000,0.000000,0.000000,0.000000,0.000000,4.488743,19.830389,-0.773882
1649352334.522580,20638.000000,1649352334.522439,0.000000,0.000000,1.000000,0.000000,0.000000,0.000000,0.000000,4.494971,19.834449,-0.708504
1649352334.622203,20639.000000,1649352334.622080,0.000000,0.000000,1.000000,0.000000,0.000000,0.000000,0.000000,4.498748,19.837199,-0.681143
1649352334.722220,20640.000000,1649352334.722106,0.000000,0.000000,1.000000,0.000000,0.000000,0.000000,0.000000,4.503464,19.837612,-0.687896
1649352334.822281,20641.000000,1649352334.822161,0.000000,0.000000,1.000000,0.000000,0.000000,0.000000,0.000000,4.500326,19.837996,-0.719315
1649352334.922199,20642.000000,1649352334.922075,0.000000,0.000000,1.000000,0.000000,0.000000,0.000000,0.000000,4.499582,19.839440,-0.705000
1649352335.022242,20643.000000,1649352335.022103,0.000000,0.000000,1.000000,0.000000,0.000000,0.000000,0.000000,4.498923,19.841884,-0.657308
1649352335.122441,20644.000000,1649352335.122316,0.000000,0.000000,1.000000,0.000000,0.000000,0.000000,0.000000,4.490709,19.843085,-0.645410
1649352335.222434,20645.000000,1649352335.222022,0.000000,0.000000,1.000000,0.000000,0.000000,0.000000,0.000000,4.485190,19.843108,-0.659012
1649352335.322223,20646.000000,1649352335.322091,0.000000,0.000000,1.000000,0.000000,0.000000,0.000000,0.000000,4.483322,19.844199,-0.628514
1649352335.422173,20647.000000,1649352335.422079,0.000000,0.000000,1.000000,0.000000,0.000000,0.000000,0.000000,4.485998,19.843028,-0.615424
1649352335.522233,20648.000000,1649352335.522092,0.000000,0.000000,1.000000,0.000000,0.000000,0.000000,0.000000,4.479874,19.841902,-0.630350
1649352335.622162,20649.000000,1649352335.622043,0.000000,0.000000,1.000000,0.000000,0.000000,0.000000,0.000000,4.478528,19.843004,-0.588263
1649352335.722251,20650.000000,1649352335.722087,0.000000,0.000000,1.000000,0.000000,0.000000,0.000000,0.000000,4.486061,19.840759,-0.566531
1649352335.822201,20651.000000,1649352335.822081,0.000000,0.000000,1.000000,0.000000,0.000000,0.000000,0.000000,4.488876,19.839719,-0.545818
1649352335.922246,20652.000000,1649352335.922096,0.000000,0.000000,1.000000,0.000000,0.000000,0.000000,0.000000,4.486129,19.837641,-0.559176
1649352336.022099,20653.000000,1649352336.021981,0.000000,0.000000,1.000000,0.000000,0.000000,0.000000,0.000000,4.490122,19.835678,-0.592299
1649352336.122118,20654.000000,1649352336.122037,0.000000,0.000000,1.000000,0.000000,0.000000,0.000000,0.000000,4.487388,19.832740,-0.641102
1649352336.222214,20655.000000,1649352336.222116,0.000000,0.000000,1.000000,0.000000,0.000000,0.000000,0.000000,4.479390,19.829980,-0.691158
1649352336.322170,20656.000000,1649352336.322045,0.000000,0.000000,1.000000,0.000000,0.000000,0.000000,0.000000,4.470801,19.828485,-0.740718
1649352336.422214,20657.000000,1649352336.422122,0.000000,0.000000,1.000000,0.000000,0.000000,0.000000,0.000000,4.467127,19.826009,-0.800207
1649352336.522195,20658.000000,1649352336.522098,0.000000,0.000000,1.000000,0.000000,0.000000,0.000000,0.000000,4.470289,19.828064,-0.791710
1649352336.622441,20659.000000,1649352336.622282,0.000000,0.000000,1.000000,0.000000,0.000000,0.000000,0.000000,4.474446,19.828943,-0.784122
1649352336.722511,20660.000000,1649352336.722406,0.000000,0.000000,1.000000,0.000000,0.000000,0.000000,0.000000,4.482797,19.827615,-0.779044
1649352336.822440,20661.000000,1649352336.822267,0.000000,0.000000,1.000000,0.000000,0.000000,0.000000,0.000000,4.483092,19.826383,-0.778810
1649352336.922504,20662.000000,1649352336.922308,0.000000,0.000000,1.000000,0.000000,0.000000,0.000000,0.000000,4.479036,19.826336,-0.798557
1649352337.022432,20663.000000,1649352337.022306,0.000000,0.000000,1.000000,0.000000,0.000000,0.000000,0.000000,4.476330,19.826318,-0.832616
1649352337.122490,20664.000000,1649352337.122315,0.000000,0.000000,1.000000,0.000000,0.000000,0.000000,0.000000,4.478178,19.828505,-0.813424
1649352337.222527,20665.000000,1649352337.222356,0.000000,0.000000,1.000000,0.000000,0.000000,0.000000,0.000000,4.473419,19.829498,-0.816560
1649352337.322513,20666.000000,1649352337.322379,0.000000,0.000000,1.000000,0.000000,0.000000,0.000000,0.000000,4.465698,19.830450,-0.828224
1649352337.422971,20667.000000,1649352337.422743,0.000000,0.000000,1.000000,0.000000,0.000000,0.000000,0.000000,4.460649,19.830267,-0.844029
1649352337.522399,20668.000000,1649352337.522263,0.000000,0.000000,1.000000,0.000000,0.000000,0.000000,0.000000,4.460319,19.832283,-0.817017
1649352337.622170,20669.000000,1649352337.622013,0.000000,0.000000,1.000000,0.000000,0.000000,0.000000,0.000000,4.453544,19.833101,-0.819131
1649352337.722071,20670.000000,1649352337.721992,0.000000,0.000000,1.000000,0.000000,0.000000,0.000000,0.000000,4.452685,19.836054,-0.783879
1649352337.822109,20671.000000,1649352337.821993,0.000000,0.000000,1.000000,0.000000,0.000000,0.000000,0.000000,4.446515,19.837745,-0.779771
1649352337.922784,20672.000000,1649352337.922552,0.000000,0.000000,1.000000,0.000000,0.000000,0.000000,0.000000,4.439696,19.838238,-0.799110
1649352338.022305,20673.000000,1649352338.022197,0.000000,0.000000,1.000000,0.000000,0.000000,0.000000,0.000000,4.443185,19.837598,-0.815117
1649352338.122137,20674.000000,1649352338.122039,0.000000,0.000000,1.000000,0.000000,0.000000,0.000000,0.000000,4.450950,19.839161,-0.791615
1649352338.222773,20675.000000,1649352338.222395,0.000000,0.000000,1.000000,0.000000,0.000000,0.000000,0.000000,4.458366,19.839531,-0.794759
1649352338.322224,20676.000000,1649352338.322071,0.000000,0.000000,1.000000,0.000000,0.000000,0.000000,0.000000,4.467604,19.840955,-0.752505
1649352338.422258,20677.000000,1649352338.422141,0.000000,0.000000,1.000000,0.000000,0.000000,0.000000,0.000000,4.465450,19.842280,-0.744180
1649352338.522275,20678.000000,1649352338.522141,0.000000,0.000000,1.000000,0.000000,0.000000,0.000000,0.000000,4.468885,19.841328,-0.726495
1649352338.622175,20679.000000,1649352338.622005,0.000000,0.000000,1.000000,0.000000,0.000000,0.000000,0.000000,4.474322,19.842590,-0.665988
1649352338.722629,20680.000000,1649352338.722469,0.000000,0.000000,1.000000,0.000000,0.000000,0.000000,0.000000,4.482725,19.842670,-0.645938
1649352338.822515,20681.000000,1649352338.822397,0.000000,0.000000,1.000000,0.000000,0.000000,0.000000,0.000000,4.488455,19.842725,-0.638938
1649352338.922518,20682.000000,1649352338.922397,0.000000,0.000000,1.000000,0.000000,0.000000,0.000000,0.000000,4.492730,19.842756,-0.638822
1649352339.022422,20683.000000,1649352339.022298,0.000000,0.000000,1.000000,0.000000,0.000000,0.000000,0.000000,4.497802,19.844948,-0.601759
1649352339.122647,20684.000000,1649352339.122513,0.000000,0.000000,1.000000,0.000000,0.000000,0.000000,0.000000,4.499252,19.846995,-0.601874
1649352339.222301,20685.000000,1649352339.222193,0.000000,0.000000,1.000000,0.000000,0.000000,0.000000,0.000000,4.500548,19.848901,-0.565080
1649352339.322115,20686.000000,1649352339.322011,0.000000,0.000000,1.000000,0.000000,0.000000,0.000000,0.000000,4.497339,19.850669,-0.543725
1649352339.422256,20687.000000,1649352339.422137,0.000000,0.000000,1.000000,0.000000,0.000000,0.000000,0.000000,4.487701,19.851213,-0.550116
1649352339.522400,20688.000000,1649352339.522275,0.000000,0.000000,1.000000,0.000000,0.000000,0.000000,0.000000,4.482925,19.853870,-0.524242
1649352339.622159,20689.000000,1649352339.622031,0.000000,0.000000,1.000000,0.000000,0.000000,0.000000,0.000000,4.479489,19.855249,-0.528727
1649352339.722341,20690.000000,1649352339.722163,0.000000,0.000000,1.000000,0.000000,0.000000,0.000000,0.000000,4.482785,19.855417,-0.524424
1649352339.822604,20691.000000,1649352339.822424,0.000000,0.000000,1.000000,0.000000,0.000000,0.000000,0.000000,4.485893,19.856623,-0.494749
1649352339.922135,20692.000000,1649352339.922001,0.000000,0.000000,1.000000,0.000000,0.000000,0.000000,0.000000,4.492085,19.859899,-0.424633
1649352340.022162,20693.000000,1649352340.022055,0.000000,0.000000,1.000000,0.000000,0.000000,0.000000,0.000000,4.489180,19.860764,-0.397266
1649352340.122247,20694.000000,1649352340.122101,0.000000,0.000000,1.000000,0.000000,0.000000,0.000000,0.000000,4.483137,19.860439,-0.407727
1649352340.222418,20695.000000,1649352340.222298,0.000000,0.000000,1.000000,0.000000,0.000000,0.000000,0.000000,4.471966,19.861175,-0.433489
1649352340.322435,20696.000000,1649352340.322311,0.000000,0.000000,1.000000,0.000000,0.000000,0.000000,0.000000,4.464706,19.862913,-0.413389
1649352340.422927,20697.000000,1649352340.422790,0.000000,0.000000,1.000000,0.000000,0.000000,0.000000,0.000000,4.467707,19.865597,-0.349297
1649352340.522639,20698.000000,1649352340.522487,0.000000,0.000000,1.000000,0.000000,0.000000,0.000000,0.000000,4.464042,19.865898,-0.329370
1649352340.622519,20699.000000,1649352340.622356,0.000000,0.000000,1.000000,0.000000,0.000000,0.000000,0.000000,4.462805,19.866129,-0.339745
1649352340.722287,20700.000000,1649352340.722182,0.000000,0.000000,1.000000,0.000000,0.000000,0.000000,0.000000,4.463867,19.865206,-0.342874
1649352340.822184,20701.000000,1649352340.822079,0.000000,0.000000,1.000000,0.000000,0.000000,0.000000,0.000000,4.458372,19.862107,-0.372089
1649352340.922137,20702.000000,1649352340.922036,0.000000,0.000000,1.000000,0.000000,0.000000,0.000000,0.000000,4.459777,19.859144,-0.396435
1649352341.022119,20703.000000,1649352341.022007,0.000000,0.000000,1.000000,0.000000,0.000000,0.000000,0.000000,4.465518,19.856321,-0.421696
1649352341.122193,20704.000000,1649352341.122077,0.000000,0.000000,1.000000,0.000000,0.000000,0.000000,0.000000,4.473156,19.855820,-0.394556
1649352341.222335,20705.000000,1649352341.222225,0.000000,0.000000,1.000000,0.000000,0.000000,0.000000,0.000000,4.477111,19.856428,-0.398614
1649352341.322318,20706.000000,1649352341.322200,0.000000,0.000000,1.000000,0.000000,0.000000,0.000000,0.000000,4.487384,19.854811,-0.410822
1649352341.422361,20707.000000,1649352341.422239,0.000000,0.000000,1.000000,0.000000,0.000000,0.000000,0.000000,4.493786,19.854368,-0.375979
1649352341.522465,20708.000000,1649352341.522366,0.000000,0.000000,1.000000,0.000000,0.000000,0.000000,0.000000,4.504142,19.855036,-0.314581
1649352341.622059,20709.000000,1649352341.621942,0.000000,0.000000,1.000000,0.000000,0.000000,0.000000,0.000000,4.516026,19.854572,-0.272953
1649352341.722190,20710.000000,1649352341.722083,0.000000,0.000000,1.000000,0.000000,0.000000,0.000000,0.000000,4.529324,19.853040,-0.248741
1649352341.822104,20711.000000,1649352341.822004,0.000000,0.000000,1.000000,0.000000,0.000000,0.000000,0.000000,4.542834,19.849412,-0.263846
1649352341.922024,20712.000000,1649352341.921922,0.000000,0.000000,1.000000,0.000000,0.000000,0.000000,0.000000,4.554328,19.849265,-0.231963
1649352342.022628,20713.000000,1649352342.022514,0.000000,0.000000,1.000000,0.000000,0.000000,0.000000,0.000000,4.562801,19.848049,-0.218732
1649352342.122164,20714.000000,1649352342.122053,0.000000,0.000000,1.000000,0.000000,0.000000,0.000000,0.000000,4.570585,19.845824,-0.241149
1649352342.222173,20715.000000,1649352342.222073,0.000000,0.000000,1.000000,0.000000,0.000000,0.000000,0.000000,4.577705,19.845923,-0.222719
1649352342.322169,20716.000000,1649352342.322070,0.000000,0.000000,1.000000,0.000000,0.000000,0.000000,0.000000,4.585279,19.844947,-0.240911
1649352342.422047,20717.000000,1649352342.421947,0.000000,0.000000,1.000000,0.000000,0.000000,0.000000,0.000000,4.581279,19.842955,-0.284525
1649352342.522151,20718.000000,1649352342.522046,0.000000,0.000000,1.000000,0.000000,0.000000,0.000000,0.000000,4.581628,19.843280,-0.286317
1649352342.622085,20719.000000,1649352342.621974,0.000000,0.000000,1.000000,0.000000,0.000000,0.000000,0.000000,4.585011,19.844702,-0.239895
1649352342.722528,20720.000000,1649352342.722351,0.000000,0.000000,1.000000,0.000000,0.000000,0.000000,0.000000,4.584723,19.844975,-0.225496
1649352342.822465,20721.000000,1649352342.822333,0.000000,0.000000,1.000000,0.000000,0.000000,0.000000,0.000000,4.580977,19.845250,-0.229745
1649352342.922890,20722.000000,1649352342.922746,0.000000,0.000000,1.000000,0.000000,0.000000,0.000000,0.000000,4.573984,19.846615,-0.204288
1649352343.023360,20723.000000,1649352343.023083,0.000000,0.000000,1.000000,0.000000,0.000000,0.000000,0.000000,4.563954,19.847915,-0.205998
1649352343.122550,20724.000000,1649352343.122391,0.000000,0.000000,1.000000,0.000000,0.000000,0.000000,0.000000,4.553273,19.850241,-0.225698
1649352343.221670,20725.000000,1649352343.221536,0.000000,0.000000,1.000000,0.000000,0.000000,0.000000,0.000000,4.543107,19.852436,-0.244875
1649352343.322395,20726.000000,1649352343.322284,0.000000,0.000000,1.000000,0.000000,0.000000,0.000000,0.000000,4.533463,19.854503,-0.278829
1649352343.422380,20727.000000,1649352343.422268,0.000000,0.000000,1.000000,0.000000,0.000000,0.000000,0.000000,4.516713,19.855352,-0.335767
1649352343.522501,20728.000000,1649352343.522384,0.000000,0.000000,1.000000,0.000000,0.000000,0.000000,0.000000,4.503110,19.857228,-0.346112
1649352343.622547,20729.000000,1649352343.622398,0.000000,0.000000,1.000000,0.000000,0.000000,0.000000,0.000000,4.487070,19.856799,-0.382690
1649352343.722611,20730.000000,1649352343.722478,0.000000,0.000000,1.000000,0.000000,0.000000,0.000000,0.000000,4.478585,19.855283,-0.410508
1649352343.822232,20731.000000,1649352343.822123,0.000000,0.000000,1.000000,0.000000,0.000000,0.000000,0.000000,4.478352,19.852747,-0.449229
1649352343.922315,20732.000000,1649352343.922195,0.000000,0.000000,1.000000,0.000000,0.000000,0.000000,0.000000,4.479371,19.849253,-0.506415
1649352344.022173,20733.000000,1649352344.022030,0.000000,0.000000,1.000000,0.000000,0.000000,0.000000,0.000000,4.479381,19.848137,-0.519940
1649352344.122109,20734.000000,1649352344.122004,0.000000,0.000000,1.000000,0.000000,0.000000,0.000000,0.000000,4.477339,19.847091,-0.544777
1649352344.222230,20735.000000,1649352344.222105,0.000000,0.000000,1.000000,0.000000,0.000000,0.000000,0.000000,4.478808,19.845025,-0.565921
1649352344.322135,20736.000000,1649352344.322018,0.000000,0.000000,1.000000,0.000000,0.000000,0.000000,0.000000,4.483584,19.843089,-0.588335
1649352344.422134,20737.000000,1649352344.422022,0.000000,0.000000,1.000000,0.000000,0.000000,0.000000,0.000000,4.489284,19.841282,-0.628878
1649352344.522252,20738.000000,1649352344.522137,0.000000,0.000000,1.000000,0.000000,0.000000,0.000000,0.000000,4.496926,19.839601,-0.659346
1649352344.622323,20739.000000,1649352344.622189,0.000000,0.000000,1.000000,0.000000,0.000000,0.000000,0.000000,4.503104,19.838043,-0.709139
1649352344.722726,20740.000000,1649352344.722503,0.000000,0.000000,1.000000,0.000000,0.000000,0.000000,0.000000,4.512238,19.837694,-0.705639
1649352344.822455,20741.000000,1649352344.822310,0.000000,0.000000,1.000000,0.000000,0.000000,0.000000,0.000000,4.520865,19.837398,-0.727633
1649352344.922166,20742.000000,1649352344.922064,0.000000,0.000000,1.000000,0.000000,0.000000,0.000000,0.000000,4.530077,19.836061,-0.772461
1649352345.022486,20743.000000,1649352345.022360,0.000000,0.000000,1.000000,0.000000,0.000000,0.000000,0.000000,4.541995,19.838102,-0.757696
1649352345.122620,20744.000000,1649352345.122439,0.000000,0.000000,1.000000,0.000000,0.000000,0.000000,0.000000,4.543354,19.837877,-0.772076
1649352345.222518,20745.000000,1649352345.222411,0.000000,0.000000,1.000000,0.000000,0.000000,0.000000,0.000000,4.553267,19.836600,-0.778940
1649352345.322542,20746.000000,1649352345.322319,0.000000,0.000000,1.000000,0.000000,0.000000,0.000000,0.000000,4.557067,19.835421,-0.803600
1649352345.422574,20747.000000,1649352345.422435,0.000000,0.000000,1.000000,0.000000,0.000000,0.000000,0.000000,4.557263,19.835427,-0.775153
1649352345.522144,20748.000000,1649352345.522020,0.000000,0.000000,1.000000,0.000000,0.000000,0.000000,0.000000,4.559510,19.837641,-0.721618
1649352345.622225,20749.000000,1649352345.622103,0.000000,0.000000,1.000000,0.000000,0.000000,0.000000,0.000000,4.563696,19.837574,-0.710242
1649352345.722221,20750.000000,1649352345.722093,0.000000,0.000000,1.000000,0.000000,0.000000,0.000000,0.000000,4.569708,19.837530,-0.705489
1649352345.822179,20751.000000,1649352345.822050,0.000000,0.000000,1.000000,0.000000,0.000000,0.000000,0.000000,4.568714,19.837506,-0.710337
1649352345.922206,20752.000000,1649352345.922095,0.000000,0.000000,1.000000,0.000000,0.000000,0.000000,0.000000,4.574189,19.835319,-0.742145
1649352346.022241,20753.000000,1649352346.022125,0.000000,0.000000,1.000000,0.000000,0.000000,0.000000,0.000000,4.577049,19.833275,-0.786073
1649352346.122212,20754.000000,1649352346.122072,0.000000,0.000000,1.000000,0.000000,0.000000,0.000000,0.000000,4.570893,19.830279,-0.841571
1649352346.222169,20755.000000,1649352346.222070,0.000000,0.000000,1.000000,0.000000,0.000000,0.000000,0.000000,4.571504,19.830754,-0.834708
1649352346.322737,20756.000000,1649352346.322576,0.000000,0.000000,1.000000,0.000000,0.000000,0.000000,0.000000,4.563253,19.830145,-0.851091
1649352346.422259,20757.000000,1649352346.422133,0.000000,0.000000,1.000000,0.000000,0.000000,0.000000,0.000000,4.556468,19.828511,-0.878483
1649352346.522475,20758.000000,1649352346.522374,0.000000,0.000000,1.000000,0.000000,0.000000,0.000000,0.000000,4.553276,19.827001,-0.916413
1649352346.622144,20759.000000,1649352346.622040,0.000000,0.000000,1.000000,0.000000,0.000000,0.000000,0.000000,4.548042,19.824522,-0.959571
1649352346.722174,20760.000000,1649352346.722069,0.000000,0.000000,1.000000,0.000000,0.000000,0.000000,0.000000,4.546347,19.822222,-0.979468
1649352346.822171,20761.000000,1649352346.822060,0.000000,0.000000,1.000000,0.000000,0.000000,0.000000,0.000000,4.542553,19.822276,-0.963322
1649352346.922401,20762.000000,1649352346.922290,0.000000,0.000000,1.000000,0.000000,0.000000,0.000000,0.000000,4.533517,19.821282,-0.969896
1649352347.022608,20763.000000,1649352347.022479,0.000000,0.000000,1.000000,0.000000,0.000000,0.000000,0.000000,4.527184,19.821480,-0.932960
1649352347.122110,20764.000000,1649352347.121986,0.000000,0.000000,1.000000,0.000000,0.000000,0.000000,0.000000,4.525606,19.823890,-0.851933
1649352347.222072,20765.000000,1649352347.221963,0.000000,0.000000,1.000000,0.000000,0.000000,0.000000,0.000000,4.528526,19.827292,-0.754553
1649352347.322170,20766.000000,1649352347.322062,0.000000,0.000000,1.000000,0.000000,0.000000,0.000000,0.000000,4.530236,19.829438,-0.682786
1649352347.422100,20767.000000,1649352347.421997,0.000000,0.000000,1.000000,0.000000,0.000000,0.000000,0.000000,4.534064,19.830390,-0.654271
1649352347.522123,20768.000000,1649352347.522007,0.000000,0.000000,1.000000,0.000000,0.000000,0.000000,0.000000,4.537701,19.834569,-0.585056
1649352347.622303,20769.000000,1649352347.622160,0.000000,0.000000,1.000000,0.000000,0.000000,0.000000,0.000000,4.538964,19.836335,-0.538990
1649352347.722544,20770.000000,1649352347.722341,0.000000,0.000000,1.000000,0.000000,0.000000,0.000000,0.000000,4.541249,19.836904,-0.500694
1649352347.823124,20771.000000,1649352347.822690,0.000000,0.000000,1.000000,0.000000,0.000000,0.000000,0.000000,4.542313,19.837430,-0.491684
1649352347.923332,20772.000000,1649352347.923205,0.000000,0.000000,1.000000,0.000000,0.000000,0.000000,0.000000,4.547670,19.836825,-0.496263
1649352348.022113,20773.000000,1649352348.022012,0.000000,0.000000,1.000000,0.000000,0.000000,0.000000,0.000000,4.551619,19.836243,-0.468703
1649352348.122011,20774.000000,1649352348.121918,0.000000,0.000000,1.000000,0.000000,0.000000,0.000000,0.000000,4.552045,19.836775,-0.412751
1649352348.222125,20775.000000,1649352348.221997,0.000000,0.000000,1.000000,0.000000,0.000000,0.000000,0.000000,4.553502,19.838360,-0.353020
1649352348.322724,20776.000000,1649352348.322577,0.000000,0.000000,1.000000,0.000000,0.000000,0.000000,0.000000,4.551570,19.838755,-0.323616
1649352348.422525,20777.000000,1649352348.422362,0.000000,0.000000,1.000000,0.000000,0.000000,0.000000,0.000000,4.554075,19.838024,-0.333831
1649352348.522552,20778.000000,1649352348.522393,0.000000,0.000000,1.000000,0.000000,0.000000,0.000000,0.000000,4.549864,19.837323,-0.369125
1649352348.622506,20779.000000,1649352348.622330,0.000000,0.000000,1.000000,0.000000,0.000000,0.000000,0.000000,4.550223,19.835562,-0.408244
1649352348.722338,20780.000000,1649352348.722214,0.000000,0.000000,1.000000,0.000000,0.000000,0.000000,0.000000,4.552723,19.836075,-0.387242
1649352348.822387,20781.000000,1649352348.822244,0.000000,0.000000,1.000000,0.000000,0.000000,0.000000,0.000000,4.548516,19.834377,-0.400499
1649352348.922368,20782.000000,1649352348.922234,0.000000,0.000000,1.000000,0.000000,0.000000,0.000000,0.000000,4.539073,19.832773,-0.422404
1649352349.022202,20783.000000,1649352349.022053,0.000000,0.000000,1.000000,0.000000,0.000000,0.000000,0.000000,4.525801,19.830173,-0.467074
1649352349.122250,20784.000000,1649352349.122125,0.000000,0.000000,1.000000,0.000000,0.000000,0.000000,0.000000,4.513311,19.828820,-0.526247
1649352349.222170,20785.000000,1649352349.222055,0.000000,0.000000,1.000000,0.000000,0.000000,0.000000,0.000000,4.497234,19.826469,-0.591972
1649352349.322158,20786.000000,1649352349.322010,0.000000,0.000000,1.000000,0.000000,0.000000,0.000000,0.000000,4.489804,19.824271,-0.664678
1649352349.422162,20787.000000,1649352349.422039,0.000000,0.000000,1.000000,0.000000,0.000000,0.000000,0.000000,4.488387,19.825493,-0.665735
1649352349.522278,20788.000000,1649352349.522131,0.000000,0.000000,1.000000,0.000000,0.000000,0.000000,0.000000,4.489377,19.827764,-0.634328
1649352349.621458,20789.000000,1649352349.621311,0.000000,0.000000,1.000000,0.000000,0.000000,0.000000,0.000000,4.490453,19.829927,-0.604083
1649352349.722079,20790.000000,1649352349.721954,0.000000,0.000000,1.000000,0.000000,0.000000,0.000000,0.000000,4.494868,19.833072,-0.583881
1649352349.822099,20791.000000,1649352349.821977,0.000000,0.000000,1.000000,0.000000,0.000000,0.000000,0.000000,4.499148,19.837133,-0.536254
1649352349.922212,20792.000000,1649352349.922083,0.000000,0.000000,1.000000,0.000000,0.000000,0.000000,0.000000,4.496740,19.840958,-0.502714
1649352350.022350,20793.000000,1649352350.022224,0.000000,0.000000,1.000000,0.000000,0.000000,0.000000,0.000000,4.491281,19.843458,-0.508552
1649352350.122372,20794.000000,1649352350.122239,0.000000,0.000000,1.000000,0.000000,0.000000,0.000000,0.000000,4.486220,19.844700,-0.525554
1649352350.222664,20795.000000,1649352350.222473,0.000000,0.000000,1.000000,0.000000,0.000000,0.000000,0.000000,4.485907,19.844749,-0.545171
1649352350.322489,20796.000000,1649352350.322382,0.000000,0.000000,1.000000,0.000000,0.000000,0.000000,0.000000,4.487898,19.843672,-0.584198
1649352350.422491,20797.000000,1649352350.422355,0.000000,0.000000,1.000000,0.000000,0.000000,0.000000,0.000000,4.493145,19.841537,-0.636945
1649352350.522491,20798.000000,1649352350.522380,0.000000,0.000000,1.000000,0.000000,0.000000,0.000000,0.000000,4.500359,19.839498,-0.698739
1649352350.622436,20799.000000,1649352350.622295,0.000000,0.000000,1.000000,0.000000,0.000000,0.000000,0.000000,4.512676,19.839740,-0.699761
1649352350.722530,20800.000000,1649352350.722366,0.000000,0.000000,1.000000,0.000000,0.000000,0.000000,0.000000,4.513421,19.838867,-0.723918
1649352350.822573,20801.000000,1649352350.822423,0.000000,0.000000,1.000000,0.000000,0.000000,0.000000,0.000000,4.515217,19.838034,-0.747667
1649352350.922525,20802.000000,1649352350.922409,0.000000,0.000000,1.000000,0.000000,0.000000,0.000000,0.000000,4.520182,19.839421,-0.718573
1649352351.022512,20803.000000,1649352351.022332,0.000000,0.000000,1.000000,0.000000,0.000000,0.000000,0.000000,4.523765,19.838543,-0.719472
1649352351.122588,20804.000000,1649352351.122436,0.000000,0.000000,1.000000,0.000000,0.000000,0.000000,0.000000,4.527123,19.837707,-0.733841
1649352351.222514,20805.000000,1649352351.222354,0.000000,0.000000,1.000000,0.000000,0.000000,0.000000,0.000000,4.533529,19.836914,-0.757089
1649352351.322433,20806.000000,1649352351.322325,0.000000,0.000000,1.000000,0.000000,0.000000,0.000000,0.000000,4.541711,19.839434,-0.722698
1649352351.422372,20807.000000,1649352351.422265,0.000000,0.000000,1.000000,0.000000,0.000000,0.000000,0.000000,4.549367,19.842900,-0.655640
1649352351.522564,20808.000000,1649352351.522413,0.000000,0.000000,1.000000,0.000000,0.000000,0.000000,0.000000,4.554326,19.845068,-0.633162
1649352351.622680,20809.000000,1649352351.622499,0.000000,0.000000,1.000000,0.000000,0.000000,0.000000,0.000000,4.557815,19.846003,-0.635763
1649352351.722327,20810.000000,1649352351.722207,0.000000,0.000000,1.000000,0.000000,0.000000,0.000000,0.000000,4.565362,19.844681,-0.651947
1649352351.822188,20811.000000,1649352351.822075,0.000000,0.000000,1.000000,0.000000,0.000000,0.000000,0.000000,4.571277,19.842320,-0.664203
1649352351.922259,20812.000000,1649352351.922129,0.000000,0.000000,1.000000,0.000000,0.000000,0.000000,0.000000,4.573457,19.842256,-0.635575
1649352352.022238,20813.000000,1649352352.022127,0.000000,0.000000,1.000000,0.000000,0.000000,0.000000,0.000000,4.573196,19.842186,-0.621794
1649352352.122188,20814.000000,1649352352.122074,0.000000,0.000000,1.000000,0.000000,0.000000,0.000000,0.000000,4.568456,19.842109,-0.639220
1649352352.222166,20815.000000,1649352352.222036,0.000000,0.000000,1.000000,0.000000,0.000000,0.000000,0.000000,4.566046,19.844209,-0.619632
1649352352.322276,20816.000000,1649352352.322133,0.000000,0.000000,1.000000,0.000000,0.000000,0.000000,0.000000,4.568033,19.843997,-0.598426
1649352352.422247,20817.000000,1649352352.422088,0.000000,0.000000,1.000000,0.000000,0.000000,0.000000,0.000000,4.570907,19.845965,-0.553927
1649352352.522052,20818.000000,1649352352.521948,0.000000,0.000000,1.000000,0.000000,0.000000,0.000000,0.000000,4.570253,19.848897,-0.483117
1649352352.622145,20819.000000,1649352352.622029,0.000000,0.000000,1.000000,0.000000,0.000000,0.000000,0.000000,4.570634,19.850551,-0.460559
1649352352.722097,20820.000000,1649352352.721997,0.000000,0.000000,1.000000,0.000000,0.000000,0.000000,0.000000,4.570906,19.853175,-0.409334
1649352352.822096,20821.000000,1649352352.821968,0.000000,0.000000,1.000000,0.000000,0.000000,0.000000,0.000000,4.574351,19.853438,-0.363740
1649352352.922403,20822.000000,1649352352.922294,0.000000,0.000000,1.000000,0.000000,0.000000,0.000000,0.000000,4.576428,19.855831,-0.297806
1649352353.022129,20823.000000,1649352353.021985,0.000000,0.000000,1.000000,0.000000,0.000000,0.000000,0.000000,4.579392,19.855872,-0.257607
1649352353.122144,20824.000000,1649352353.122028,0.000000,0.000000,1.000000,0.000000,0.000000,0.000000,0.000000,4.578828,19.858052,-0.204251
1649352353.222123,20825.000000,1649352353.222033,0.000000,0.000000,1.000000,0.000000,0.000000,0.000000,0.000000,4.577117,19.858980,-0.193981
1649352353.322715,20826.000000,1649352353.322560,0.000000,0.000000,1.000000,0.000000,0.000000,0.000000,0.000000,4.567789,19.858722,-0.211342
1649352353.422590,20827.000000,1649352353.422455,0.000000,0.000000,1.000000,0.000000,0.000000,0.000000,0.000000,4.553474,19.858437,-0.230972
1649352353.522218,20828.000000,1649352353.522089,0.000000,0.000000,1.000000,0.000000,0.000000,0.000000,0.000000,4.543213,19.857040,-0.272078
1649352353.622244,20829.000000,1649352353.622113,0.000000,0.000000,1.000000,0.000000,0.000000,0.000000,0.000000,4.537910,19.857869,-0.253865
1649352353.722369,20830.000000,1649352353.722199,0.000000,0.000000,1.000000,0.000000,0.000000,0.000000,0.000000,4.526404,19.859711,-0.196480
1649352353.822452,20831.000000,1649352353.822293,0.000000,0.000000,1.000000,0.000000,0.000000,0.000000,0.000000,4.516699,19.862508,-0.126582
1649352353.922478,20832.000000,1649352353.922324,0.000000,0.000000,1.000000,0.000000,0.000000,0.000000,0.000000,4.509814,19.865109,-0.052030
1649352354.022164,20833.000000,1649352354.022019,0.000000,0.000000,1.000000,0.000000,0.000000,0.000000,0.000000,4.497976,19.866431,-0.031178
1649352354.122329,20834.000000,1649352354.122144,0.000000,0.000000,1.000000,0.000000,0.000000,0.000000,0.000000,4.490210,19.867630,-0.048966
1649352354.222362,20835.000000,1649352354.222157,0.000000,0.000000,1.000000,0.000000,0.000000,0.000000,0.000000,4.480857,19.867624,-0.092485
1649352354.322299,20836.000000,1649352354.322148,0.000000,0.000000,1.000000,0.000000,0.000000,0.000000,0.000000,4.471114,19.867570,-0.151727
1649352354.422111,20837.000000,1649352354.421967,0.000000,0.000000,1.000000,0.000000,0.000000,0.000000,0.000000,4.466472,19.865293,-0.229160
1649352354.522177,20838.000000,1649352354.522086,0.000000,0.000000,1.000000,0.000000,0.000000,0.000000,0.000000,4.464477,19.865287,-0.239225
1649352354.622217,20839.000000,1649352354.622103,0.000000,0.000000,1.000000,0.000000,0.000000,0.000000,0.000000,4.470430,19.863067,-0.262835
1649352354.722156,20840.000000,1649352354.722054,0.000000,0.000000,1.000000,0.000000,0.000000,0.000000,0.000000,4.480596,19.860944,-0.297781
1649352354.822167,20841.000000,1649352354.822047,0.000000,0.000000,1.000000,0.000000,0.000000,0.000000,0.000000,4.482709,19.858921,-0.353215
1649352354.922166,20842.000000,1649352354.922044,0.000000,0.000000,1.000000,0.000000,0.000000,0.000000,0.000000,4.484827,19.858089,-0.417730
1649352355.022243,20843.000000,1649352355.022132,0.000000,0.000000,1.000000,0.000000,0.000000,0.000000,0.000000,4.489115,19.857298,-0.472301
1649352355.122187,20844.000000,1649352355.122091,0.000000,0.000000,1.000000,0.000000,0.000000,0.000000,0.000000,4.495437,19.855456,-0.542238
1649352355.222171,20845.000000,1649352355.222058,0.000000,0.000000,1.000000,0.000000,0.000000,0.000000,0.000000,4.498205,19.854808,-0.564716
1649352355.322218,20846.000000,1649352355.322099,0.000000,0.000000,1.000000,0.000000,0.000000,0.000000,0.000000,4.491058,19.853111,-0.609362
1649352355.422155,20847.000000,1649352355.422043,0.000000,0.000000,1.000000,0.000000,0.000000,0.000000,0.000000,4.486549,19.852606,-0.610704
1649352355.522229,20848.000000,1649352355.522119,0.000000,0.000000,1.000000,0.000000,0.000000,0.000000,0.000000,4.485636,19.851050,-0.627760
1649352355.622306,20849.000000,1649352355.622206,0.000000,0.000000,1.000000,0.000000,0.000000,0.000000,0.000000,4.485941,19.849593,-0.655849
1649352355.722281,20850.000000,1649352355.722073,0.000000,0.000000,1.000000,0.000000,0.000000,0.000000,0.000000,4.476487,19.846055,-0.699335
1649352355.822408,20851.000000,1649352355.822253,0.000000,0.000000,1.000000,0.000000,0.000000,0.000000,0.000000,4.473098,19.842738,-0.741411
1649352355.922142,20852.000000,1649352355.922039,0.000000,0.000000,1.000000,0.000000,0.000000,0.000000,0.000000,4.466724,19.840730,-0.778050
1649352356.022139,20853.000000,1649352356.022002,0.000000,0.000000,1.000000,0.000000,0.000000,0.000000,0.000000,4.464086,19.838874,-0.827978
1649352356.122275,20854.000000,1649352356.122111,0.000000,0.000000,1.000000,0.000000,0.000000,0.000000,0.000000,4.461710,19.837164,-0.826083
1649352356.222152,20855.000000,1649352356.222015,0.000000,0.000000,1.000000,0.000000,0.000000,0.000000,0.000000,4.455220,19.834505,-0.848676
1649352356.322478,20856.000000,1649352356.322365,0.000000,0.000000,1.000000,0.000000,0.000000,0.000000,0.000000,4.444855,19.832045,-0.890725
1649352356.422271,20857.000000,1649352356.422149,0.000000,0.000000,1.000000,0.000000,0.000000,0.000000,0.000000,4.440664,19.829777,-0.922366
1649352356.522276,20858.000000,1649352356.522118,0.000000,0.000000,1.000000,0.000000,0.000000,0.000000,0.000000,4.444495,19.828786,-0.905283
1649352356.622439,20859.000000,1649352356.622251,0.000000,0.000000,1.000000,0.000000,0.000000,0.000000,0.000000,4.448258,19.829000,-0.910046
1649352356.722396,20860.000000,1649352356.722263,0.000000,0.000000,1.000000,0.000000,0.000000,0.000000,0.000000,4.457388,19.830351,-0.873696
1649352356.822081,20861.000000,1649352356.821976,0.000000,0.000000,1.000000,0.000000,0.000000,0.000000,0.000000,4.468287,19.832768,-0.797975
1649352356.922047,20862.000000,1649352356.921952,0.000000,0.000000,1.000000,0.000000,0.000000,0.000000,0.000000,4.479727,19.836184,-0.709622
1649352357.022090,20863.000000,1649352357.021967,0.000000,0.000000,1.000000,0.000000,0.000000,0.000000,0.000000,4.492732,19.837259,-0.644793
1649352357.122114,20864.000000,1649352357.122002,0.000000,0.000000,1.000000,0.000000,0.000000,0.000000,0.000000,4.503903,19.839388,-0.544595
1649352357.222033,20865.000000,1649352357.221924,0.000000,0.000000,1.000000,0.000000,0.000000,0.000000,0.000000,4.515488,19.840324,-0.483207
1649352357.322398,20866.000000,1649352357.322227,0.000000,0.000000,1.000000,0.000000,0.000000,0.000000,0.000000,4.521981,19.839038,-0.464810
1649352357.422981,20867.000000,1649352357.422858,0.000000,0.000000,1.000000,0.000000,0.000000,0.000000,0.000000,4.532366,19.836744,-0.460275
1649352357.522624,20868.000000,1649352357.522518,0.000000,0.000000,1.000000,0.000000,0.000000,0.000000,0.000000,4.535502,19.834596,-0.463398
1649352357.622210,20869.000000,1649352357.622067,0.000000,0.000000,1.000000,0.000000,0.000000,0.000000,0.000000,4.529601,19.831499,-0.487563
1649352357.722285,20870.000000,1649352357.722136,0.000000,0.000000,1.000000,0.000000,0.000000,0.000000,0.000000,4.527177,19.831877,-0.472197
1649352357.822077,20871.000000,1649352357.821948,0.000000,0.000000,1.000000,0.000000,0.000000,0.000000,0.000000,4.525874,19.834444,-0.413267
1649352357.922611,20872.000000,1649352357.922504,0.000000,0.000000,1.000000,0.000000,0.000000,0.000000,0.000000,4.522369,19.835803,-0.396493
1649352358.022436,20873.000000,1649352358.022292,0.000000,0.000000,1.000000,0.000000,0.000000,0.000000,0.000000,4.521161,19.837102,-0.414548
1649352358.122226,20874.000000,1649352358.122134,0.000000,0.000000,1.000000,0.000000,0.000000,0.000000,0.000000,4.526493,19.836160,-0.429695
1649352358.222239,20875.000000,1649352358.222113,0.000000,0.000000,1.000000,0.000000,0.000000,0.000000,0.000000,4.532545,19.834192,-0.442015
1649352358.322352,20876.000000,1649352358.322212,0.000000,0.000000,1.000000,0.000000,0.000000,0.000000,0.000000,4.540354,19.834530,-0.412884
1649352358.422177,20877.000000,1649352358.422067,0.000000,0.000000,1.000000,0.000000,0.000000,0.000000,0.000000,4.548714,19.833775,-0.391595
1649352358.522380,20878.000000,1649352358.522277,0.000000,0.000000,1.000000,0.000000,0.000000,0.000000,0.000000,4.556486,19.834169,-0.348021
1649352358.622044,20879.000000,1649352358.621907,0.000000,0.000000,1.000000,0.000000,0.000000,0.000000,0.000000,4.562593,19.835647,-0.279089
1649352358.722133,20880.000000,1649352358.722006,0.000000,0.000000,1.000000,0.000000,0.000000,0.000000,0.000000,4.569297,19.838145,-0.209315
1649352358.822146,20881.000000,1649352358.822020,0.000000,0.000000,1.000000,0.000000,0.000000,0.000000,0.000000,4.575464,19.840507,-0.160607
1649352358.922136,20882.000000,1649352358.922032,0.000000,0.000000,1.000000,0.000000,0.000000,0.000000,0.000000,4.571299,19.841645,-0.157177
1649352359.022229,20883.000000,1649352359.022039,0.000000,0.000000,1.000000,0.000000,0.000000,0.000000,0.000000,4.571564,19.844892,-0.112504
1649352359.122223,20884.000000,1649352359.122117,0.000000,0.000000,1.000000,0.000000,0.000000,0.000000,0.000000,4.565122,19.846852,-0.112981
1649352359.222157,20885.000000,1649352359.222022,0.000000,0.000000,1.000000,0.000000,0.000000,0.000000,0.000000,4.564361,19.847591,-0.147891
1649352359.322292,20886.000000,1649352359.322118,0.000000,0.000000,1.000000,0.000000,0.000000,0.000000,0.000000,4.566802,19.848265,-0.203665
1649352359.422141,20887.000000,1649352359.421997,0.000000,0.000000,1.000000,0.000000,0.000000,0.000000,0.000000,4.570087,19.847785,-0.276122
1649352359.522284,20888.000000,1649352359.522148,0.000000,0.000000,1.000000,0.000000,0.000000,0.000000,0.000000,4.565443,19.846219,-0.357998
1649352359.622229,20889.000000,1649352359.622117,0.000000,0.000000,1.000000,0.000000,0.000000,0.000000,0.000000,4.560957,19.846902,-0.368925
1649352359.722232,20890.000000,1649352359.722074,0.000000,0.000000,1.000000,0.000000,0.000000,0.000000,0.000000,4.552278,19.846439,-0.398839
1649352359.822356,20891.000000,1649352359.822216,0.000000,0.000000,1.000000,0.000000,0.000000,0.000000,0.000000,4.546208,19.847077,-0.391274
1649352359.922163,20892.000000,1649352359.922059,0.000000,0.000000,1.000000,0.000000,0.000000,0.000000,0.000000,4.533904,19.847664,-0.412269
1649352360.022609,20893.000000,1649352360.022507,0.000000,0.000000,1.000000,0.000000,0.000000,0.000000,0.000000,4.524468,19.848202,-0.413056
1649352360.122263,20894.000000,1649352360.122116,0.000000,0.000000,1.000000,0.000000,0.000000,0.000000,0.000000,4.511231,19.847602,-0.445255
1649352360.222257,20895.000000,1649352360.222166,0.000000,0.000000,1.000000,0.000000,0.000000,0.000000,0.000000,4.495530,19.845929,-0.497061
1649352360.322292,20896.000000,1649352360.322196,0.000000,0.000000,1.000000,0.000000,0.000000,0.000000,0.000000,4.488446,19.845428,-0.504696
1649352360.422239,20897.000000,1649352360.422092,0.000000,0.000000,1.000000,0.000000,0.000000,0.000000,0.000000,4.487345,19.846039,-0.480418
1649352360.522217,20898.000000,1649352360.522096,0.000000,0.000000,1.000000,0.000000,0.000000,0.000000,0.000000,4.488624,19.845517,-0.463462
1649352360.623212,20899.000000,1649352360.622853,0.000000,0.000000,1.000000,0.000000,0.000000,0.000000,0.000000,4.489961,19.845018,-0.473730
1649352360.722346,20900.000000,1649352360.722199,0.000000,0.000000,1.000000,0.000000,0.000000,0.000000,0.000000,4.496793,19.842360,-0.491560
1649352360.822195,20901.000000,1649352360.822067,0.000000,0.000000,1.000000,0.000000,0.000000,0.000000,0.000000,4.503341,19.842033,-0.456138
1649352360.922179,20902.000000,1649352360.922039,0.000000,0.000000,1.000000,0.000000,0.000000,0.000000,0.000000,4.505233,19.841728,-0.445481
1649352361.022086,20903.000000,1649352361.021997,0.000000,0.000000,1.000000,0.000000,0.000000,0.000000,0.000000,4.500532,19.839265,-0.468289
1649352361.122112,20904.000000,1649352361.122007,0.000000,0.000000,1.000000,0.000000,0.000000,0.000000,0.000000,4.489609,19.836949,-0.514304
1649352361.222195,20905.000000,1649352361.222078,0.000000,0.000000,1.000000,0.000000,0.000000,0.000000,0.000000,4.482647,19.835870,-0.518807
1649352361.322309,20906.000000,1649352361.322159,0.000000,0.000000,1.000000,0.000000,0.000000,0.000000,0.000000,4.487080,19.832690,-0.542339
1649352361.422278,20907.000000,1649352361.422157,0.000000,0.000000,1.000000,0.000000,0.000000,0.000000,0.000000,4.494634,19.828624,-0.568778
1649352361.522376,20908.000000,1649352361.522189,0.000000,0.000000,1.000000,0.000000,0.000000,0.000000,0.000000,4.498568,19.825912,-0.589904
1649352361.622512,20909.000000,1649352361.622405,0.000000,0.000000,1.000000,0.000000,0.000000,0.000000,0.000000,4.503423,19.823395,-0.631710
1649352361.722544,20910.000000,1649352361.722440,0.000000,0.000000,1.000000,0.000000,0.000000,0.000000,0.000000,4.511313,19.819978,-0.668304
1649352361.822091,20911.000000,1649352361.821980,0.000000,0.000000,1.000000,0.000000,0.000000,0.000000,0.000000,4.523137,19.817899,-0.723232
1649352361.922214,20912.000000,1649352361.922095,0.000000,0.000000,1.000000,0.000000,0.000000,0.000000,0.000000,4.532100,19.815996,-0.781968
1649352362.022192,20913.000000,1649352362.022076,0.000000,0.000000,1.000000,0.000000,0.000000,0.000000,0.000000,4.539423,19.815353,-0.795890
1649352362.122290,20914.000000,1649352362.122170,0.000000,0.000000,1.000000,0.000000,0.000000,0.000000,0.000000,4.551718,19.813720,-0.816801
1649352362.222521,20915.000000,1649352362.222272,0.000000,0.000000,1.000000,0.000000,0.000000,0.000000,0.000000,4.564317,19.814422,-0.796825
1649352362.322502,20916.000000,1649352362.322376,0.000000,0.000000,1.000000,0.000000,0.000000,0.000000,0.000000,4.573902,19.815145,-0.806215
1649352362.422163,20917.000000,1649352362.422023,0.000000,0.000000,1.000000,0.000000,0.000000,0.000000,0.000000,4.579523,19.815883,-0.838953
1649352362.522311,20918.000000,1649352362.522187,0.000000,0.000000,1.000000,0.000000,0.000000,0.000000,0.000000,4.581389,19.817720,-0.816642
1649352362.622252,20919.000000,1649352362.622125,0.000000,0.000000,1.000000,0.000000,0.000000,0.000000,0.000000,4.578618,19.819496,-0.812527
1649352362.722532,20920.000000,1649352362.722327,0.000000,0.000000,1.000000,0.000000,0.000000,0.000000,0.000000,4.570392,19.822299,-0.827514
1649352362.822558,20921.000000,1649352362.822407,0.000000,0.000000,1.000000,0.000000,0.000000,0.000000,0.000000,4.563584,19.826060,-0.789051
1649352362.922945,20922.000000,1649352362.922794,0.000000,0.000000,1.000000,0.000000,0.000000,0.000000,0.000000,4.563598,19.827444,-0.762279
1649352363.022564,20923.000000,1649352363.022393,0.000000,0.000000,1.000000,0.000000,0.000000,0.000000,0.000000,4.567886,19.828756,-0.737915
1649352363.122853,20924.000000,1649352363.122706,0.000000,0.000000,1.000000,0.000000,0.000000,0.000000,0.000000,4.571846,19.832177,-0.692528
1649352363.222515,20925.000000,1649352363.222308,0.000000,0.000000,1.000000,0.000000,0.000000,0.000000,0.000000,4.576578,19.833219,-0.687536
1649352363.322405,20926.000000,1649352363.322267,0.000000,0.000000,1.000000,0.000000,0.000000,0.000000,0.000000,4.576581,19.833100,-0.685842
1649352363.422383,20927.000000,1649352363.422253,0.000000,0.000000,1.000000,0.000000,0.000000,0.000000,0.000000,4.569936,19.831884,-0.708289
1649352363.522570,20928.000000,1649352363.522392,0.000000,0.000000,1.000000,0.000000,0.000000,0.000000,0.000000,4.566847,19.832906,-0.744194
1649352363.622223,20929.000000,1649352363.622113,0.000000,0.000000,1.000000,0.000000,0.000000,0.000000,0.000000,4.555140,19.831681,-0.790540
1649352363.722260,20930.000000,1649352363.722113,0.000000,0.000000,1.000000,0.000000,0.000000,0.000000,0.000000,4.548410,19.831606,-0.787965
1649352363.822764,20931.000000,1649352363.822407,0.000000,0.000000,1.000000,0.000000,0.000000,0.000000,0.000000,4.546407,19.833710,-0.730394
1649352363.922500,20932.000000,1649352363.922374,0.000000,0.000000,1.000000,0.000000,0.000000,0.000000,0.000000,4.541248,19.835687,-0.704021
1649352364.022411,20933.000000,1649352364.022300,0.000000,0.000000,1.000000,0.000000,0.000000,0.000000,0.000000,4.533121,19.835358,-0.710061
1649352364.122474,20934.000000,1649352364.122321,0.000000,0.000000,1.000000,0.000000,0.000000,0.000000,0.000000,4.527664,19.833941,-0.740749
1649352364.222303,20935.000000,1649352364.222187,0.000000,0.000000,1.000000,0.000000,0.000000,0.000000,0.000000,4.523655,19.833681,-0.728109
1649352364.322451,20936.000000,1649352364.322326,0.000000,0.000000,1.000000,0.000000,0.000000,0.000000,0.000000,4.521025,19.835606,-0.686012
1649352364.422157,20937.000000,1649352364.422045,0.000000,0.000000,1.000000,0.000000,0.000000,0.000000,0.000000,4.520793,19.836322,-0.660883
1649352364.521415,20938.000000,1649352364.521297,0.000000,0.000000,1.000000,0.000000,0.000000,0.000000,0.000000,4.520644,19.836983,-0.636760
1649352364.622848,20939.000000,1649352364.622484,0.000000,0.000000,1.000000,0.000000,0.000000,0.000000,0.000000,4.518390,19.837591,-0.627355
1649352364.722520,20940.000000,1649352364.722374,0.000000,0.000000,1.000000,0.000000,0.000000,0.000000,0.000000,4.516328,19.839239,-0.647410
1649352364.822203,20941.000000,1649352364.822060,0.000000,0.000000,1.000000,0.000000,0.000000,0.000000,0.000000,4.513361,19.840774,-0.684413
1649352364.922312,20942.000000,1649352364.922151,0.000000,0.000000,1.000000,0.000000,0.000000,0.000000,0.000000,4.512815,19.841110,-0.725519
1649352365.022501,20943.000000,1649352365.022356,0.000000,0.000000,1.000000,0.000000,0.000000,0.000000,0.000000,4.513463,19.840311,-0.754367
1649352365.122188,20944.000000,1649352365.122084,0.000000,0.000000,1.000000,0.000000,0.000000,0.000000,0.000000,4.514145,19.841716,-0.731890
1649352365.222195,20945.000000,1649352365.222074,0.000000,0.000000,1.000000,0.000000,0.000000,0.000000,0.000000,4.512672,19.841929,-0.736816
1649352365.322221,20946.000000,1649352365.322085,0.000000,0.000000,1.000000,0.000000,0.000000,0.000000,0.000000,4.504800,19.843197,-0.751907
1649352365.422434,20947.000000,1649352365.422266,0.000000,0.000000,1.000000,0.000000,0.000000,0.000000,0.000000,4.495261,19.844370,-0.772701
1649352365.522191,20948.000000,1649352365.522087,0.000000,0.000000,1.000000,0.000000,0.000000,0.000000,0.000000,4.492893,19.844360,-0.787648
1649352365.622390,20949.000000,1649352365.622268,0.000000,0.000000,1.000000,0.000000,0.000000,0.000000,0.000000,4.492947,19.843233,-0.806643
1649352365.722492,20950.000000,1649352365.722336,0.000000,0.000000,1.000000,0.000000,0.000000,0.000000,0.000000,4.496373,19.844327,-0.766595
1649352365.822725,20951.000000,1649352365.822540,0.000000,0.000000,1.000000,0.000000,0.000000,0.000000,0.000000,4.498609,19.845336,-0.761090
1649352365.922563,20952.000000,1649352365.922408,0.000000,0.000000,1.000000,0.000000,0.000000,0.000000,0.000000,4.495347,19.845175,-0.779074
1649352366.022679,20953.000000,1649352366.022482,0.000000,0.000000,1.000000,0.000000,0.000000,0.000000,0.000000,4.496706,19.842818,-0.791348
1649352366.122599,20954.000000,1649352366.122438,0.000000,0.000000,1.000000,0.000000,0.000000,0.000000,0.000000,4.504606,19.842756,-0.744902
1649352366.222602,20955.000000,1649352366.222419,0.000000,0.000000,1.000000,0.000000,0.000000,0.000000,0.000000,4.513209,19.843773,-0.670414
1649352366.322157,20956.000000,1649352366.322064,0.000000,0.000000,1.000000,0.000000,0.000000,0.000000,0.000000,4.514815,19.842537,-0.640111
1649352366.422167,20957.000000,1649352366.422040,0.000000,0.000000,1.000000,0.000000,0.000000,0.000000,0.000000,4.511980,19.842448,-0.637747
1649352366.522169,20958.000000,1649352366.522023,0.000000,0.000000,1.000000,0.000000,0.000000,0.000000,0.000000,4.510406,19.841263,-0.625903
1649352366.622256,20959.000000,1649352366.622139,0.000000,0.000000,1.000000,0.000000,0.000000,0.000000,0.000000,4.513299,19.842317,-0.566268
1649352366.722567,20960.000000,1649352366.722398,0.000000,0.000000,1.000000,0.000000,0.000000,0.000000,0.000000,4.506232,19.841123,-0.547961
1649352366.822657,20961.000000,1649352366.822443,0.000000,0.000000,1.000000,0.000000,0.000000,0.000000,0.000000,4.503943,19.839990,-0.558048
1649352366.922524,20962.000000,1649352366.922411,0.000000,0.000000,1.000000,0.000000,0.000000,0.000000,0.000000,4.495274,19.837827,-0.588101
1649352367.022323,20963.000000,1649352367.022172,0.000000,0.000000,1.000000,0.000000,0.000000,0.000000,0.000000,4.486049,19.835788,-0.633221
1649352367.122556,20964.000000,1649352367.122406,0.000000,0.000000,1.000000,0.000000,0.000000,0.000000,0.000000,4.482866,19.833872,-0.659654
1649352367.222503,20965.000000,1649352367.222352,0.000000,0.000000,1.000000,0.000000,0.000000,0.000000,0.000000,4.479949,19.833167,-0.647138
1649352367.322628,20966.000000,1649352367.322430,0.000000,0.000000,1.000000,0.000000,0.000000,0.000000,0.000000,4.470745,19.831429,-0.657747
1649352367.422093,20967.000000,1649352367.421989,0.000000,0.000000,1.000000,0.000000,0.000000,0.000000,0.000000,4.457801,19.828719,-0.692143
1649352367.522244,20968.000000,1649352367.522066,0.000000,0.000000,1.000000,0.000000,0.000000,0.000000,0.000000,4.452258,19.828367,-0.681565
1649352367.622223,20969.000000,1649352367.622062,0.000000,0.000000,1.000000,0.000000,0.000000,0.000000,0.000000,4.451541,19.829154,-0.635104
1649352367.722091,20970.000000,1649352367.721907,0.000000,0.000000,1.000000,0.000000,0.000000,0.000000,0.000000,4.457561,19.833194,-0.563156
1649352367.822169,20971.000000,1649352367.822013,0.000000,0.000000,1.000000,0.000000,0.000000,0.000000,0.000000,4.464470,19.838116,-0.488642
1649352367.922626,20972.000000,1649352367.922493,0.000000,0.000000,1.000000,0.000000,0.000000,0.000000,0.000000,4.473282,19.843856,-0.409366
1649352368.022233,20973.000000,1649352368.022058,0.000000,0.000000,1.000000,0.000000,0.000000,0.000000,0.000000,4.474047,19.847079,-0.361125
1649352368.122133,20974.000000,1649352368.122004,0.000000,0.000000,1.000000,0.000000,0.000000,0.000000,0.000000,4.470467,19.849004,-0.356442
1649352368.222157,20975.000000,1649352368.222069,0.000000,0.000000,1.000000,0.000000,0.000000,0.000000,0.000000,4.461696,19.849698,-0.375807
1649352368.322181,20976.000000,1649352368.322086,0.000000,0.000000,1.000000,0.000000,0.000000,0.000000,0.000000,4.456765,19.849229,-0.419005
1649352368.422345,20977.000000,1649352368.422193,0.000000,0.000000,1.000000,0.000000,0.000000,0.000000,0.000000,4.448932,19.847662,-0.479339
1649352368.524063,20978.000000,1649352368.523897,0.000000,0.000000,1.000000,0.000000,0.000000,0.000000,0.000000,4.443825,19.849425,-0.487453
1649352368.622694,20979.000000,1649352368.622475,0.000000,0.000000,1.000000,0.000000,0.000000,0.000000,0.000000,4.443488,19.848883,-0.505107
1649352368.722414,20980.000000,1649352368.722305,0.000000,0.000000,1.000000,0.000000,0.000000,0.000000,0.000000,4.450923,19.847253,-0.523815
1649352368.822143,20981.000000,1649352368.822017,0.000000,0.000000,1.000000,0.000000,0.000000,0.000000,0.000000,4.455865,19.847873,-0.503979
1649352368.921476,20982.000000,1649352368.921371,0.000000,0.000000,1.000000,0.000000,0.000000,0.000000,0.000000,4.460609,19.848439,-0.485086
1649352369.022168,20983.000000,1649352369.022035,0.000000,0.000000,1.000000,0.000000,0.000000,0.000000,0.000000,4.464055,19.847862,-0.420348
1649352369.122711,20984.000000,1649352369.122497,0.000000,0.000000,1.000000,0.000000,0.000000,0.000000,0.000000,4.462991,19.847299,-0.396394
1649352369.222499,20985.000000,1649352369.222346,0.000000,0.000000,1.000000,0.000000,0.000000,0.000000,0.000000,4.465295,19.845661,-0.409996
1649352369.322461,20986.000000,1649352369.322345,0.000000,0.000000,1.000000,0.000000,0.000000,0.000000,0.000000,4.463141,19.841923,-0.449928
1649352369.422624,20987.000000,1649352369.422484,0.000000,0.000000,1.000000,0.000000,0.000000,0.000000,0.000000,4.468773,19.837300,-0.487630
1649352369.522292,20988.000000,1649352369.522179,0.000000,0.000000,1.000000,0.000000,0.000000,0.000000,0.000000,4.475203,19.835128,-0.481185
1649352369.622153,20989.000000,1649352369.622026,0.000000,0.000000,1.000000,0.000000,0.000000,0.000000,0.000000,4.481277,19.834188,-0.455765
1649352369.722204,20990.000000,1649352369.722057,0.000000,0.000000,1.000000,0.000000,0.000000,0.000000,0.000000,4.491357,19.832233,-0.444431
1649352369.822116,20991.000000,1649352369.821998,0.000000,0.000000,1.000000,0.000000,0.000000,0.000000,0.000000,4.501922,19.832596,-0.402274
1649352369.922145,20992.000000,1649352369.922021,0.000000,0.000000,1.000000,0.000000,0.000000,0.000000,0.000000,4.509647,19.836237,-0.338663
1649352370.022189,20993.000000,1649352370.022061,0.000000,0.000000,1.000000,0.000000,0.000000,0.000000,0.000000,4.505942,19.838602,-0.322305
1649352370.122291,20994.000000,1649352370.122113,0.000000,0.000000,1.000000,0.000000,0.000000,0.000000,0.000000,4.507804,19.841935,-0.269856
1649352370.222412,20995.000000,1649352370.222285,0.000000,0.000000,1.000000,0.000000,0.000000,0.000000,0.000000,4.516019,19.846172,-0.184458
1649352370.322291,20996.000000,1649352370.322166,0.000000,0.000000,1.000000,0.000000,0.000000,0.000000,0.000000,4.514955,19.846888,-0.154664
1649352370.422096,20997.000000,1649352370.421983,0.000000,0.000000,1.000000,0.000000,0.000000,0.000000,0.000000,4.516030,19.847546,-0.160518
1649352370.522081,20998.000000,1649352370.521976,0.000000,0.000000,1.000000,0.000000,0.000000,0.000000,0.000000,4.514770,19.847057,-0.177968
1649352370.622306,20999.000000,1649352370.622180,0.000000,0.000000,1.000000,0.000000,0.000000,0.000000,0.000000,4.515672,19.846577,-0.224236
1649352370.722335,21000.000000,1649352370.722215,0.000000,0.000000,1.000000,0.000000,0.000000,0.000000,0.000000,4.518621,19.845017,-0.264191
1649352370.822242,21001.000000,1649352370.822080,0.000000,0.000000,1.000000,0.000000,0.000000,0.000000,0.000000,4.516958,19.843533,-0.308487
1649352370.922169,21002.000000,1649352370.922056,0.000000,0.000000,1.000000,0.000000,0.000000,0.000000,0.000000,4.509855,19.841036,-0.372184
1649352371.022213,21003.000000,1649352371.022084,0.000000,0.000000,1.000000,0.000000,0.000000,0.000000,0.000000,4.509629,19.841949,-0.382609
1649352371.122501,21004.000000,1649352371.122373,0.000000,0.000000,1.000000,0.000000,0.000000,0.000000,0.000000,4.502825,19.839543,-0.416885
1649352371.222450,21005.000000,1649352371.222342,0.000000,0.000000,1.000000,0.000000,0.000000,0.000000,0.000000,4.504000,19.838366,-0.411895
1649352371.322597,21006.000000,1649352371.322440,0.000000,0.000000,1.000000,0.000000,0.000000,0.000000,0.000000,4.513808,19.836174,-0.411163
1649352371.422566,21007.000000,1649352371.422380,0.000000,0.000000,1.000000,0.000000,0.000000,0.000000,0.000000,4.524116,19.833030,-0.406455
1649352371.522260,21008.000000,1649352371.522132,0.000000,0.000000,1.000000,0.000000,0.000000,0.000000,0.000000,4.537049,19.832264,-0.359226
1649352371.622331,21009.000000,1649352371.622197,0.000000,0.000000,1.000000,0.000000,0.000000,0.000000,0.000000,4.552428,19.833748,-0.277722
1649352371.722215,21010.000000,1649352371.722083,0.000000,0.000000,1.000000,0.000000,0.000000,0.000000,0.000000,4.566807,19.836263,-0.182811
1649352371.822301,21011.000000,1649352371.822212,0.000000,0.000000,1.000000,0.000000,0.000000,0.000000,0.000000,4.568210,19.836472,-0.142928
1649352371.922541,21012.000000,1649352371.922423,0.000000,0.000000,1.000000,0.000000,0.000000,0.000000,0.000000,4.563894,19.834500,-0.143003
1649352372.022046,21013.000000,1649352372.021929,0.000000,0.000000,1.000000,0.000000,0.000000,0.000000,0.000000,4.566189,19.834832,-0.099953
1649352372.122378,21014.000000,1649352372.122185,0.000000,0.000000,1.000000,0.000000,0.000000,0.000000,0.000000,4.572556,19.834071,-0.085734
1649352372.222266,21015.000000,1649352372.222136,0.000000,0.000000,1.000000,0.000000,0.000000,0.000000,0.000000,4.581672,19.835547,-0.039510
1649352372.322220,21016.000000,1649352372.322100,0.000000,0.000000,1.000000,0.000000,0.000000,0.000000,0.000000,4.579195,19.839134,-0.036016
1649352372.422166,21017.000000,1649352372.422025,0.000000,0.000000,1.000000,0.000000,0.000000,0.000000,0.000000,4.574497,19.842525,-0.000125
1649352372.522235,21018.000000,1649352372.522117,0.000000,0.000000,1.000000,0.000000,0.000000,0.000000,0.000000,4.556822,19.848989,0.011172
1649352372.622239,21019.000000,1649352372.622109,0.000000,0.000000,1.000000,0.000000,0.000000,0.000000,0.000000,4.535662,19.855070,-0.007579
1649352372.722158,21020.000000,1649352372.722023,0.000000,0.000000,1.000000,0.000000,0.000000,0.000000,0.000000,4.514551,19.860771,0.014241
1649352372.822136,21021.000000,1649352372.822025,0.000000,0.000000,1.000000,0.000000,0.000000,0.000000,0.000000,4.495734,19.866096,-0.004856
1649352372.922457,21022.000000,1649352372.922338,0.000000,0.000000,1.000000,0.000000,0.000000,0.000000,0.000000,4.476961,19.869965,0.013447
1649352373.022492,21023.000000,1649352373.022325,0.000000,0.000000,1.000000,0.000000,0.000000,0.000000,0.000000,4.460463,19.874627,-0.004952
