__time,/dwm1001/id_458E/pose_kf/header/seq,/dwm1001/id_458E/pose_kf/header/stamp,/dwm1001/id_458E/pose_kf/pose/orientation/pitch_deg,/dwm1001/id_458E/pose_kf/pose/orientation/roll_deg,/dwm1001/id_458E/pose_kf/pose/orientation/w,/dwm1001/id_458E/pose_kf/pose/orientation/x,/dwm1001/id_458E/pose_kf/pose/orientation/y,/dwm1001/id_458E/pose_kf/pose/orientation/yaw_deg,/dwm1001/id_458E/pose_kf/pose/orientation/z,/dwm1001/id_458E/pose_kf/pose/position/x,/dwm1001/id_458E/pose_kf/pose/position/y,/dwm1001/id_458E/pose_kf/pose/position/z
1649350182.321896,2.000000,1649350182.321814,0.000000,0.000000,1.000000,0.000000,0.000000,0.000000,0.000000,4.559082,15.140327,0.576031
1649350182.421867,3.000000,1649350182.421779,0.000000,0.000000,1.000000,0.000000,0.000000,0.000000,0.000000,4.549435,15.144463,0.544980
1649350182.521966,4.000000,1649350182.521868,0.000000,0.000000,1.000000,0.000000,0.000000,0.000000,0.000000,4.545604,15.146254,0.540393
1649350182.622009,5.000000,1649350182.621916,0.000000,0.000000,1.000000,0.000000,0.000000,0.000000,0.000000,4.546201,15.145819,0.553170
1649350182.721960,6.000000,1649350182.721858,0.000000,0.000000,1.000000,0.000000,0.000000,0.000000,0.000000,4.549903,15.144367,0.574549
1649350182.822474,7.000000,1649350182.821974,0.000000,0.000000,1.000000,0.000000,0.000000,0.000000,0.000000,4.557626,15.141955,0.606591
1649350182.922464,8.000000,1649350182.922337,0.000000,0.000000,1.000000,0.000000,0.000000,0.000000,0.000000,4.566955,15.138640,0.641577
1649350183.022063,9.000000,1649350183.021909,0.000000,0.000000,1.000000,0.000000,0.000000,0.000000,0.000000,4.567968,15.137751,0.633387
1649350183.122416,10.000000,1649350183.122251,0.000000,0.000000,1.000000,0.000000,0.000000,0.000000,0.000000,4.561124,15.140244,0.588640
1649350183.222179,11.000000,1649350183.222080,0.000000,0.000000,1.000000,0.000000,0.000000,0.000000,0.000000,4.556697,15.141562,0.575846
1649350183.321995,12.000000,1649350183.321871,0.000000,0.000000,1.000000,0.000000,0.000000,0.000000,0.000000,4.556757,15.140671,0.576019
1649350183.422067,13.000000,1649350183.421952,0.000000,0.000000,1.000000,0.000000,0.000000,0.000000,0.000000,4.550163,15.143144,0.540266
1649350183.522231,14.000000,1649350183.522130,0.000000,0.000000,1.000000,0.000000,0.000000,0.000000,0.000000,4.549298,15.142246,0.517696
1649350183.622499,15.000000,1649350183.622373,0.000000,0.000000,1.000000,0.000000,0.000000,0.000000,0.000000,4.544045,15.143612,0.475572
1649350183.722176,16.000000,1649350183.722085,0.000000,0.000000,1.000000,0.000000,0.000000,0.000000,0.000000,4.534663,15.147113,0.429283
1649350183.822003,17.000000,1649350183.821898,0.000000,0.000000,1.000000,0.000000,0.000000,0.000000,0.000000,4.531223,15.148259,0.415374
1649350183.921952,18.000000,1649350183.921830,0.000000,0.000000,1.000000,0.000000,0.000000,0.000000,0.000000,4.532323,15.147173,0.413215
1649350184.021984,19.000000,1649350184.021884,0.000000,0.000000,1.000000,0.000000,0.000000,0.000000,0.000000,4.525719,15.149431,0.390082
1649350184.121940,20.000000,1649350184.121820,0.000000,0.000000,1.000000,0.000000,0.000000,0.000000,0.000000,4.523846,15.150482,0.394444
1649350184.222130,21.000000,1649350184.221992,0.000000,0.000000,1.000000,0.000000,0.000000,0.000000,0.000000,4.516638,15.154749,0.362284
1649350184.321901,22.000000,1649350184.321759,0.000000,0.000000,1.000000,0.000000,0.000000,0.000000,0.000000,4.517492,15.155502,0.360455
1649350184.422194,23.000000,1649350184.422061,0.000000,0.000000,1.000000,0.000000,0.000000,0.000000,0.000000,4.521603,15.155111,0.373220
1649350184.522192,24.000000,1649350184.522077,0.000000,0.000000,1.000000,0.000000,0.000000,0.000000,0.000000,4.528779,15.152549,0.401582
1649350184.622039,25.000000,1649350184.621933,0.000000,0.000000,1.000000,0.000000,0.000000,0.000000,0.000000,4.525744,15.153396,0.406155
1649350184.722005,26.000000,1649350184.721886,0.000000,0.000000,1.000000,0.000000,0.000000,0.000000,0.000000,4.527239,15.153102,0.425797
1649350184.822016,27.000000,1649350184.821886,0.000000,0.000000,1.000000,0.000000,0.000000,0.000000,0.000000,4.531923,15.151730,0.453418
1649350184.921913,28.000000,1649350184.921795,0.000000,0.000000,1.000000,0.000000,0.000000,0.000000,0.000000,4.538516,15.149343,0.489461
1649350185.022043,29.000000,1649350185.021924,0.000000,0.000000,1.000000,0.000000,0.000000,0.000000,0.000000,4.535992,15.149276,0.480305
1649350185.122079,30.000000,1649350185.121974,0.000000,0.000000,1.000000,0.000000,0.000000,0.000000,0.000000,4.529217,15.151401,0.443924
1649350185.222129,31.000000,1649350185.221990,0.000000,0.000000,1.000000,0.000000,0.000000,0.000000,0.000000,4.528261,15.152321,0.437936
1649350185.322326,32.000000,1649350185.322216,0.000000,0.000000,1.000000,0.000000,0.000000,0.000000,0.000000,4.531718,15.149919,0.450648
1649350185.422180,33.000000,1649350185.422070,0.000000,0.000000,1.000000,0.000000,0.000000,0.000000,0.000000,4.527344,15.152014,0.436127
1649350185.522021,34.000000,1649350185.521886,0.000000,0.000000,1.000000,0.000000,0.000000,0.000000,0.000000,4.517760,15.155084,0.408402
1649350185.622156,35.000000,1649350185.622019,0.000000,0.000000,1.000000,0.000000,0.000000,0.000000,0.000000,4.505460,15.159067,0.367249
1649350185.722160,36.000000,1649350185.722061,0.000000,0.000000,1.000000,0.000000,0.000000,0.000000,0.000000,4.501533,15.160629,0.351991
1649350185.822203,37.000000,1649350185.822101,0.000000,0.000000,1.000000,0.000000,0.000000,0.000000,0.000000,4.504442,15.159899,0.338221
1649350185.922209,38.000000,1649350185.922099,0.000000,0.000000,1.000000,0.000000,0.000000,0.000000,0.000000,4.510528,15.157006,0.346061
1649350186.022928,39.000000,1649350186.022715,0.000000,0.000000,1.000000,0.000000,0.000000,0.000000,0.000000,4.509782,15.158620,0.330267
1649350186.122491,40.000000,1649350186.122297,0.000000,0.000000,1.000000,0.000000,0.000000,0.000000,0.000000,4.513481,15.157949,0.334559
1649350186.222220,41.000000,1649350186.222089,0.000000,0.000000,1.000000,0.000000,0.000000,0.000000,0.000000,4.510464,15.159481,0.312954
1649350186.322307,42.000000,1649350186.322205,0.000000,0.000000,1.000000,0.000000,0.000000,0.000000,0.000000,4.503286,15.163094,0.274593
1649350186.422287,43.000000,1649350186.422185,0.000000,0.000000,1.000000,0.000000,0.000000,0.000000,0.000000,4.490012,15.167572,0.216987
1649350186.522387,44.000000,1649350186.522233,0.000000,0.000000,1.000000,0.000000,0.000000,0.000000,0.000000,4.475376,15.172856,0.142613
1649350186.622341,45.000000,1649350186.622221,0.000000,0.000000,1.000000,0.000000,0.000000,0.000000,0.000000,4.469305,15.175618,0.094200
1649350186.722022,46.000000,1649350186.721899,0.000000,0.000000,1.000000,0.000000,0.000000,0.000000,0.000000,4.456080,15.180349,0.025603
1649350186.822227,47.000000,1649350186.822072,0.000000,0.000000,1.000000,0.000000,0.000000,0.000000,0.000000,4.442664,15.185841,-0.029199
1649350186.922133,48.000000,1649350186.921993,0.000000,0.000000,1.000000,0.000000,0.000000,0.000000,0.000000,4.425829,15.193131,-0.103759
1649350187.022075,49.000000,1649350187.021951,0.000000,0.000000,1.000000,0.000000,0.000000,0.000000,0.000000,4.409074,15.199920,-0.169760
1649350187.122056,50.000000,1649350187.121930,0.000000,0.000000,1.000000,0.000000,0.000000,0.000000,0.000000,4.402245,15.202950,-0.195206
1649350187.222036,51.000000,1649350187.221928,0.000000,0.000000,1.000000,0.000000,0.000000,0.000000,0.000000,4.393903,15.206785,-0.234949
1649350187.321955,52.000000,1649350187.321869,0.000000,0.000000,1.000000,0.000000,0.000000,0.000000,0.000000,4.385230,15.210284,-0.281927
1649350187.421966,53.000000,1649350187.421865,0.000000,0.000000,1.000000,0.000000,0.000000,0.000000,0.000000,4.377344,15.214554,-0.331772
1649350187.522038,54.000000,1649350187.521931,0.000000,0.000000,1.000000,0.000000,0.000000,0.000000,0.000000,4.378931,15.215184,-0.342386
1649350187.622268,55.000000,1649350187.622070,0.000000,0.000000,1.000000,0.000000,0.000000,0.000000,0.000000,4.376368,15.216740,-0.371823
1649350187.722163,56.000000,1649350187.722078,0.000000,0.000000,1.000000,0.000000,0.000000,0.000000,0.000000,4.372053,15.219174,-0.409634
1649350187.822118,57.000000,1649350187.822017,0.000000,0.000000,1.000000,0.000000,0.000000,0.000000,0.000000,4.367168,15.221348,-0.443361
1649350187.922367,58.000000,1649350187.922252,0.000000,0.000000,1.000000,0.000000,0.000000,0.000000,0.000000,4.366104,15.223277,-0.491699
1649350188.022050,59.000000,1649350188.021957,0.000000,0.000000,1.000000,0.000000,0.000000,0.000000,0.000000,4.371912,15.221704,-0.501598
1649350188.122044,60.000000,1649350188.121884,0.000000,0.000000,1.000000,0.000000,0.000000,0.000000,0.000000,4.384184,15.216831,-0.480278
1649350188.222244,61.000000,1649350188.222117,0.000000,0.000000,1.000000,0.000000,0.000000,0.000000,0.000000,4.389429,15.214313,-0.480688
1649350188.322032,62.000000,1649350188.321895,0.000000,0.000000,1.000000,0.000000,0.000000,0.000000,0.000000,4.399999,15.208582,-0.452796
1649350188.422037,63.000000,1649350188.421933,0.000000,0.000000,1.000000,0.000000,0.000000,0.000000,0.000000,4.405747,15.206379,-0.448633
1649350188.522546,64.000000,1649350188.522404,0.000000,0.000000,1.000000,0.000000,0.000000,0.000000,0.000000,4.403640,15.206431,-0.472927
1649350188.622119,65.000000,1649350188.622009,0.000000,0.000000,1.000000,0.000000,0.000000,0.000000,0.000000,4.410462,15.203165,-0.460005
1649350188.721976,66.000000,1649350188.721881,0.000000,0.000000,1.000000,0.000000,0.000000,0.000000,0.000000,4.411527,15.202228,-0.463840
1649350188.821954,67.000000,1649350188.821855,0.000000,0.000000,1.000000,0.000000,0.000000,0.000000,0.000000,4.419133,15.198045,-0.438619
1649350188.922022,68.000000,1649350188.921933,0.000000,0.000000,1.000000,0.000000,0.000000,0.000000,0.000000,4.420905,15.196259,-0.433164
1649350189.022089,69.000000,1649350189.021966,0.000000,0.000000,1.000000,0.000000,0.000000,0.000000,0.000000,4.414971,15.198927,-0.452358
1649350189.122033,70.000000,1649350189.121920,0.000000,0.000000,1.000000,0.000000,0.000000,0.000000,0.000000,4.417033,15.198166,-0.445200
1649350189.222264,71.000000,1649350189.222108,0.000000,0.000000,1.000000,0.000000,0.000000,0.000000,0.000000,4.424467,15.194165,-0.415208
1649350189.322220,72.000000,1649350189.322113,0.000000,0.000000,1.000000,0.000000,0.000000,0.000000,0.000000,4.438046,15.188205,-0.367406
1649350189.422197,73.000000,1649350189.422086,0.000000,0.000000,1.000000,0.000000,0.000000,0.000000,0.000000,4.447577,15.184772,-0.346164
1649350189.522028,74.000000,1649350189.521884,0.000000,0.000000,1.000000,0.000000,0.000000,0.000000,0.000000,4.458705,15.180467,-0.301267
1649350189.621943,75.000000,1649350189.621838,0.000000,0.000000,1.000000,0.000000,0.000000,0.000000,0.000000,4.474583,15.175349,-0.238598
1649350189.721975,76.000000,1649350189.721861,0.000000,0.000000,1.000000,0.000000,0.000000,0.000000,0.000000,4.482914,15.172748,-0.207376
1649350189.822041,77.000000,1649350189.821920,0.000000,0.000000,1.000000,0.000000,0.000000,0.000000,0.000000,4.494994,15.169260,-0.157198
1649350189.922201,78.000000,1649350189.922061,0.000000,0.000000,1.000000,0.000000,0.000000,0.000000,0.000000,4.500778,15.168211,-0.127623
1649350190.021927,79.000000,1649350190.021807,0.000000,0.000000,1.000000,0.000000,0.000000,0.000000,0.000000,4.498419,15.169469,-0.106582
1649350190.122281,80.000000,1649350190.122158,0.000000,0.000000,1.000000,0.000000,0.000000,0.000000,0.000000,4.502554,15.167448,-0.071180
1649350190.222284,81.000000,1649350190.222173,0.000000,0.000000,1.000000,0.000000,0.000000,0.000000,0.000000,4.499744,15.166691,-0.070440
1649350190.322025,82.000000,1649350190.321914,0.000000,0.000000,1.000000,0.000000,0.000000,0.000000,0.000000,4.489294,15.169308,-0.094087
1649350190.422052,83.000000,1649350190.421956,0.000000,0.000000,1.000000,0.000000,0.000000,0.000000,0.000000,4.488019,15.168562,-0.091898
1649350190.522091,84.000000,1649350190.521982,0.000000,0.000000,1.000000,0.000000,0.000000,0.000000,0.000000,4.483435,15.170087,-0.108461
1649350190.622019,85.000000,1649350190.621920,0.000000,0.000000,1.000000,0.000000,0.000000,0.000000,0.000000,4.476834,15.171571,-0.139763
1649350190.722030,86.000000,1649350190.721934,0.000000,0.000000,1.000000,0.000000,0.000000,0.000000,0.000000,4.477075,15.170829,-0.141603
1649350190.822088,87.000000,1649350190.821958,0.000000,0.000000,1.000000,0.000000,0.000000,0.000000,0.000000,4.476155,15.171252,-0.165165
1649350190.922415,88.000000,1649350190.922315,0.000000,0.000000,1.000000,0.000000,0.000000,0.000000,0.000000,4.469781,15.173866,-0.199855
1649350191.021996,89.000000,1649350191.021895,0.000000,0.000000,1.000000,0.000000,0.000000,0.000000,0.000000,4.470268,15.173087,-0.196780
1649350191.122188,90.000000,1649350191.122052,0.000000,0.000000,1.000000,0.000000,0.000000,0.000000,0.000000,4.466339,15.174555,-0.210697
1649350191.221978,91.000000,1649350191.221884,0.000000,0.000000,1.000000,0.000000,0.000000,0.000000,0.000000,4.468062,15.172689,-0.197350
1649350191.321896,92.000000,1649350191.321813,0.000000,0.000000,1.000000,0.000000,0.000000,0.000000,0.000000,4.472943,15.168765,-0.163510
1649350191.421921,93.000000,1649350191.421828,0.000000,0.000000,1.000000,0.000000,0.000000,0.000000,0.000000,4.484068,15.163999,-0.116515
1649350191.522006,94.000000,1649350191.521873,0.000000,0.000000,1.000000,0.000000,0.000000,0.000000,0.000000,4.496701,15.157357,-0.071492
1649350191.622461,95.000000,1649350191.622299,0.000000,0.000000,1.000000,0.000000,0.000000,0.000000,0.000000,4.511814,15.151141,-0.020368
1649350191.722068,96.000000,1649350191.721957,0.000000,0.000000,1.000000,0.000000,0.000000,0.000000,0.000000,4.517238,15.148615,0.003464
1649350191.822281,97.000000,1649350191.822180,0.000000,0.000000,1.000000,0.000000,0.000000,0.000000,0.000000,4.514580,15.148492,0.009139
1649350191.922000,98.000000,1649350191.921845,0.000000,0.000000,1.000000,0.000000,0.000000,0.000000,0.000000,4.515203,15.146273,0.034486
1649350192.022014,99.000000,1649350192.021922,0.000000,0.000000,1.000000,0.000000,0.000000,0.000000,0.000000,4.521115,15.143167,0.056907
1649350192.122296,100.000000,1649350192.122099,0.000000,0.000000,1.000000,0.000000,0.000000,0.000000,0.000000,4.523292,15.142497,0.047462
1649350192.221928,101.000000,1649350192.221828,0.000000,0.000000,1.000000,0.000000,0.000000,0.000000,0.000000,4.528482,15.139766,0.057463
1649350192.322016,102.000000,1649350192.321915,0.000000,0.000000,1.000000,0.000000,0.000000,0.000000,0.000000,4.527790,15.139453,0.051446
1649350192.422094,103.000000,1649350192.421969,0.000000,0.000000,1.000000,0.000000,0.000000,0.000000,0.000000,4.519366,15.143602,0.016368
1649350192.522420,104.000000,1649350192.522262,0.000000,0.000000,1.000000,0.000000,0.000000,0.000000,0.000000,4.515660,15.144319,0.009924
1649350192.622233,105.000000,1649350192.622090,0.000000,0.000000,1.000000,0.000000,0.000000,0.000000,0.000000,4.518612,15.143966,0.032591
1649350192.722288,106.000000,1649350192.722142,0.000000,0.000000,1.000000,0.000000,0.000000,0.000000,0.000000,4.514772,15.145871,0.033972
1649350192.822236,107.000000,1649350192.822132,0.000000,0.000000,1.000000,0.000000,0.000000,0.000000,0.000000,4.517612,15.146629,0.070577
1649350192.922606,108.000000,1649350192.922476,0.000000,0.000000,1.000000,0.000000,0.000000,0.000000,0.000000,4.510406,15.149569,0.065932
1649350193.022459,109.000000,1649350193.022311,0.000000,0.000000,1.000000,0.000000,0.000000,0.000000,0.000000,4.500272,15.154562,0.056396
1649350193.122110,110.000000,1649350193.121991,0.000000,0.000000,1.000000,0.000000,0.000000,0.000000,0.000000,4.497217,15.156024,0.067192
1649350193.222116,111.000000,1649350193.221984,0.000000,0.000000,1.000000,0.000000,0.000000,0.000000,0.000000,4.488872,15.159596,0.050717
1649350193.321926,112.000000,1649350193.321805,0.000000,0.000000,1.000000,0.000000,0.000000,0.000000,0.000000,4.486455,15.160789,0.061334
1649350193.421959,113.000000,1649350193.421848,0.000000,0.000000,1.000000,0.000000,0.000000,0.000000,0.000000,4.488560,15.159729,0.090683
1649350193.521982,114.000000,1649350193.521842,0.000000,0.000000,1.000000,0.000000,0.000000,0.000000,0.000000,4.490570,15.157633,0.132321
1649350193.621929,115.000000,1649350193.621795,0.000000,0.000000,1.000000,0.000000,0.000000,0.000000,0.000000,4.485941,15.158926,0.156661
1649350193.721991,116.000000,1649350193.721876,0.000000,0.000000,1.000000,0.000000,0.000000,0.000000,0.000000,4.488133,15.157966,0.188564
1649350193.822032,117.000000,1649350193.821911,0.000000,0.000000,1.000000,0.000000,0.000000,0.000000,0.000000,4.485862,15.158152,0.180912
1649350193.922518,118.000000,1649350193.922358,0.000000,0.000000,1.000000,0.000000,0.000000,0.000000,0.000000,4.479378,15.160510,0.155487
1649350194.022527,119.000000,1649350194.022344,0.000000,0.000000,1.000000,0.000000,0.000000,0.000000,0.000000,4.470018,15.163823,0.126773
1649350194.122399,120.000000,1649350194.122287,0.000000,0.000000,1.000000,0.000000,0.000000,0.000000,0.000000,4.456877,15.169121,0.094158
1649350194.222281,121.000000,1649350194.222135,0.000000,0.000000,1.000000,0.000000,0.000000,0.000000,0.000000,4.442378,15.175189,0.054636
1649350194.322362,122.000000,1649350194.322209,0.000000,0.000000,1.000000,0.000000,0.000000,0.000000,0.000000,4.427726,15.180877,0.017432
1649350194.422304,123.000000,1649350194.422181,0.000000,0.000000,1.000000,0.000000,0.000000,0.000000,0.000000,4.410785,15.188372,-0.024741
1649350194.522296,124.000000,1649350194.522146,0.000000,0.000000,1.000000,0.000000,0.000000,0.000000,0.000000,4.392814,15.195374,-0.073222
1649350194.622265,125.000000,1649350194.622149,0.000000,0.000000,1.000000,0.000000,0.000000,0.000000,0.000000,4.377182,15.201894,-0.116387
1649350194.722284,126.000000,1649350194.722174,0.000000,0.000000,1.000000,0.000000,0.000000,0.000000,0.000000,4.374701,15.203581,-0.120512
1649350194.823357,127.000000,1649350194.823119,0.000000,0.000000,1.000000,0.000000,0.000000,0.000000,0.000000,4.370469,15.205062,-0.124269
1649350194.922226,128.000000,1649350194.922116,0.000000,0.000000,1.000000,0.000000,0.000000,0.000000,0.000000,4.374390,15.204169,-0.103481
1649350195.022084,129.000000,1649350195.021951,0.000000,0.000000,1.000000,0.000000,0.000000,0.000000,0.000000,4.372908,15.205401,-0.114020
1649350195.122005,130.000000,1649350195.121915,0.000000,0.000000,1.000000,0.000000,0.000000,0.000000,0.000000,4.369578,15.206466,-0.144934
1649350195.222064,131.000000,1649350195.221956,0.000000,0.000000,1.000000,0.000000,0.000000,0.000000,0.000000,4.363405,15.209554,-0.182453
1649350195.322136,132.000000,1649350195.321982,0.000000,0.000000,1.000000,0.000000,0.000000,0.000000,0.000000,4.357820,15.212371,-0.223032
1649350195.421962,133.000000,1649350195.421861,0.000000,0.000000,1.000000,0.000000,0.000000,0.000000,0.000000,4.352796,15.216020,-0.271327
1649350195.522032,134.000000,1649350195.521905,0.000000,0.000000,1.000000,0.000000,0.000000,0.000000,0.000000,4.357024,15.214997,-0.281799
1649350195.622031,135.000000,1649350195.621903,0.000000,0.000000,1.000000,0.000000,0.000000,0.000000,0.000000,4.367794,15.211747,-0.266454
1649350195.722060,136.000000,1649350195.721937,0.000000,0.000000,1.000000,0.000000,0.000000,0.000000,0.000000,4.383609,15.205318,-0.240085
1649350195.822079,137.000000,1649350195.821922,0.000000,0.000000,1.000000,0.000000,0.000000,0.000000,0.000000,4.400866,15.198089,-0.198357
1649350195.922263,138.000000,1649350195.922160,0.000000,0.000000,1.000000,0.000000,0.000000,0.000000,0.000000,4.411790,15.194491,-0.184714
1649350196.022262,139.000000,1649350196.022160,0.000000,0.000000,1.000000,0.000000,0.000000,0.000000,0.000000,4.414508,15.192158,-0.184347
1649350196.122262,140.000000,1649350196.122115,0.000000,0.000000,1.000000,0.000000,0.000000,0.000000,0.000000,4.414909,15.192121,-0.196729
1649350196.222153,141.000000,1649350196.222016,0.000000,0.000000,1.000000,0.000000,0.000000,0.000000,0.000000,4.409847,15.194255,-0.233428
1649350196.322302,142.000000,1649350196.322160,0.000000,0.000000,1.000000,0.000000,0.000000,0.000000,0.000000,4.415990,15.192985,-0.237765
1649350196.422377,143.000000,1649350196.422232,0.000000,0.000000,1.000000,0.000000,0.000000,0.000000,0.000000,4.426165,15.189591,-0.216692
1649350196.522243,144.000000,1649350196.522114,0.000000,0.000000,1.000000,0.000000,0.000000,0.000000,0.000000,4.429215,15.189651,-0.216440
1649350196.622139,145.000000,1649350196.622034,0.000000,0.000000,1.000000,0.000000,0.000000,0.000000,0.000000,4.427702,15.190798,-0.223275
1649350196.721920,146.000000,1649350196.721829,0.000000,0.000000,1.000000,0.000000,0.000000,0.000000,0.000000,4.432785,15.188607,-0.204650
1649350196.821905,147.000000,1649350196.821803,0.000000,0.000000,1.000000,0.000000,0.000000,0.000000,0.000000,4.441909,15.184356,-0.160823
1649350196.921989,148.000000,1649350196.921878,0.000000,0.000000,1.000000,0.000000,0.000000,0.000000,0.000000,4.442834,15.183624,-0.131600
1649350197.021905,149.000000,1649350197.021798,0.000000,0.000000,1.000000,0.000000,0.000000,0.000000,0.000000,4.439279,15.184039,-0.119671
1649350197.122590,150.000000,1649350197.122477,0.000000,0.000000,1.000000,0.000000,0.000000,0.000000,0.000000,4.430413,15.186628,-0.123553
1649350197.222214,151.000000,1649350197.222086,0.000000,0.000000,1.000000,0.000000,0.000000,0.000000,0.000000,4.420917,15.190171,-0.133732
1649350197.322449,152.000000,1649350197.322209,0.000000,0.000000,1.000000,0.000000,0.000000,0.000000,0.000000,4.410857,15.193516,-0.160419
1649350197.422533,153.000000,1649350197.422363,0.000000,0.000000,1.000000,0.000000,0.000000,0.000000,0.000000,4.410108,15.193392,-0.157743
1649350197.522249,154.000000,1649350197.522113,0.000000,0.000000,1.000000,0.000000,0.000000,0.000000,0.000000,4.410530,15.193260,-0.180928
1649350197.622338,155.000000,1649350197.622167,0.000000,0.000000,1.000000,0.000000,0.000000,0.000000,0.000000,4.408785,15.195302,-0.206314
1649350197.722587,156.000000,1649350197.722384,0.000000,0.000000,1.000000,0.000000,0.000000,0.000000,0.000000,4.415898,15.192853,-0.207159
1649350197.822496,157.000000,1649350197.822353,0.000000,0.000000,1.000000,0.000000,0.000000,0.000000,0.000000,4.428091,15.188346,-0.193327
1649350197.922594,158.000000,1649350197.922441,0.000000,0.000000,1.000000,0.000000,0.000000,0.000000,0.000000,4.434144,15.186270,-0.187214
1649350198.023082,159.000000,1649350198.022686,0.000000,0.000000,1.000000,0.000000,0.000000,0.000000,0.000000,4.446368,15.182138,-0.152232
1649350198.122062,160.000000,1649350198.121950,0.000000,0.000000,1.000000,0.000000,0.000000,0.000000,0.000000,4.450215,15.181525,-0.140414
1649350198.222691,161.000000,1649350198.222529,0.000000,0.000000,1.000000,0.000000,0.000000,0.000000,0.000000,4.449406,15.182059,-0.145202
1649350198.322199,162.000000,1649350198.322077,0.000000,0.000000,1.000000,0.000000,0.000000,0.000000,0.000000,4.455105,15.180405,-0.128015
1649350198.422271,163.000000,1649350198.422083,0.000000,0.000000,1.000000,0.000000,0.000000,0.000000,0.000000,4.453860,15.182136,-0.146221
1649350198.522227,164.000000,1649350198.522113,0.000000,0.000000,1.000000,0.000000,0.000000,0.000000,0.000000,4.447149,15.185972,-0.160457
1649350198.622080,165.000000,1649350198.621970,0.000000,0.000000,1.000000,0.000000,0.000000,0.000000,0.000000,4.437475,15.190694,-0.180538
1649350198.722110,166.000000,1649350198.721995,0.000000,0.000000,1.000000,0.000000,0.000000,0.000000,0.000000,4.435939,15.190787,-0.178775
1649350198.822123,167.000000,1649350198.822003,0.000000,0.000000,1.000000,0.000000,0.000000,0.000000,0.000000,4.433380,15.191956,-0.196379
1649350198.922288,168.000000,1649350198.922181,0.000000,0.000000,1.000000,0.000000,0.000000,0.000000,0.000000,4.425500,15.194138,-0.212378
1649350199.022059,169.000000,1649350199.021948,0.000000,0.000000,1.000000,0.000000,0.000000,0.000000,0.000000,4.425701,15.192910,-0.196976
1649350199.122092,170.000000,1649350199.121969,0.000000,0.000000,1.000000,0.000000,0.000000,0.000000,0.000000,4.420454,15.196097,-0.207115
1649350199.222016,171.000000,1649350199.221901,0.000000,0.000000,1.000000,0.000000,0.000000,0.000000,0.000000,4.422068,15.195816,-0.189332
1649350199.322274,172.000000,1649350199.322123,0.000000,0.000000,1.000000,0.000000,0.000000,0.000000,0.000000,4.420347,15.196619,-0.189141
1649350199.422190,173.000000,1649350199.422074,0.000000,0.000000,1.000000,0.000000,0.000000,0.000000,0.000000,4.414387,15.198446,-0.195352
1649350199.522264,174.000000,1649350199.522153,0.000000,0.000000,1.000000,0.000000,0.000000,0.000000,0.000000,4.405527,15.200147,-0.212537
1649350199.622345,175.000000,1649350199.622198,0.000000,0.000000,1.000000,0.000000,0.000000,0.000000,0.000000,4.405943,15.198453,-0.201519
1649350199.722336,176.000000,1649350199.722179,0.000000,0.000000,1.000000,0.000000,0.000000,0.000000,0.000000,4.400950,15.199008,-0.198134
1649350199.822478,177.000000,1649350199.822322,0.000000,0.000000,1.000000,0.000000,0.000000,0.000000,0.000000,4.397398,15.199509,-0.210148
1649350199.922078,178.000000,1649350199.921962,0.000000,0.000000,1.000000,0.000000,0.000000,0.000000,0.000000,4.389762,15.201049,-0.249018
1649350200.022082,179.000000,1649350200.021962,0.000000,0.000000,1.000000,0.000000,0.000000,0.000000,0.000000,4.379374,15.204658,-0.305536
1649350200.122221,180.000000,1649350200.122075,0.000000,0.000000,1.000000,0.000000,0.000000,0.000000,0.000000,4.368592,15.208033,-0.354706
1649350200.222352,181.000000,1649350200.222231,0.000000,0.000000,1.000000,0.000000,0.000000,0.000000,0.000000,4.368367,15.207907,-0.363687
1649350200.322522,182.000000,1649350200.322326,0.000000,0.000000,1.000000,0.000000,0.000000,0.000000,0.000000,4.366123,15.208836,-0.379256
1649350200.422397,183.000000,1649350200.422240,0.000000,0.000000,1.000000,0.000000,0.000000,0.000000,0.000000,4.370689,15.206399,-0.358394
1649350200.522449,184.000000,1649350200.522287,0.000000,0.000000,1.000000,0.000000,0.000000,0.000000,0.000000,4.382764,15.200791,-0.322778
1649350200.622378,185.000000,1649350200.622254,0.000000,0.000000,1.000000,0.000000,0.000000,0.000000,0.000000,4.397531,15.194384,-0.274688
1649350200.722395,186.000000,1649350200.722164,0.000000,0.000000,1.000000,0.000000,0.000000,0.000000,0.000000,4.406070,15.190515,-0.236491
1649350200.822098,187.000000,1649350200.821935,0.000000,0.000000,1.000000,0.000000,0.000000,0.000000,0.000000,4.420685,15.184694,-0.180438
1649350200.922367,188.000000,1649350200.922246,0.000000,0.000000,1.000000,0.000000,0.000000,0.000000,0.000000,4.424643,15.183589,-0.168637
1649350201.022256,189.000000,1649350201.022137,0.000000,0.000000,1.000000,0.000000,0.000000,0.000000,0.000000,4.421788,15.184762,-0.177546
1649350201.122173,190.000000,1649350201.122063,0.000000,0.000000,1.000000,0.000000,0.000000,0.000000,0.000000,4.427767,15.182632,-0.167603
1649350201.222238,191.000000,1649350201.222126,0.000000,0.000000,1.000000,0.000000,0.000000,0.000000,0.000000,4.439901,15.178474,-0.137970
1649350201.322457,192.000000,1649350201.322318,0.000000,0.000000,1.000000,0.000000,0.000000,0.000000,0.000000,4.460003,15.172410,-0.094326
1649350201.422218,193.000000,1649350201.422089,0.000000,0.000000,1.000000,0.000000,0.000000,0.000000,0.000000,4.471224,15.168920,-0.088112
1649350201.522162,194.000000,1649350201.522043,0.000000,0.000000,1.000000,0.000000,0.000000,0.000000,0.000000,4.474022,15.168963,-0.096047
1649350201.622648,195.000000,1649350201.622419,0.000000,0.000000,1.000000,0.000000,0.000000,0.000000,0.000000,4.473218,15.170162,-0.118347
1649350201.723506,196.000000,1649350201.723167,0.000000,0.000000,1.000000,0.000000,0.000000,0.000000,0.000000,4.467931,15.172445,-0.148742
1649350201.822923,197.000000,1649350201.822699,0.000000,0.000000,1.000000,0.000000,0.000000,0.000000,0.000000,4.471517,15.171381,-0.150558
1649350201.922979,198.000000,1649350201.922828,0.000000,0.000000,1.000000,0.000000,0.000000,0.000000,0.000000,4.469313,15.172605,-0.167685
1649350202.022595,199.000000,1649350202.022413,0.000000,0.000000,1.000000,0.000000,0.000000,0.000000,0.000000,4.474734,15.171625,-0.155117
1649350202.122178,200.000000,1649350202.122055,0.000000,0.000000,1.000000,0.000000,0.000000,0.000000,0.000000,4.475362,15.171831,-0.172138
1649350202.222143,201.000000,1649350202.222038,0.000000,0.000000,1.000000,0.000000,0.000000,0.000000,0.000000,4.484548,15.169886,-0.165909
1649350202.322038,202.000000,1649350202.321946,0.000000,0.000000,1.000000,0.000000,0.000000,0.000000,0.000000,4.496352,15.167000,-0.139799
1649350202.422130,203.000000,1649350202.422040,0.000000,0.000000,1.000000,0.000000,0.000000,0.000000,0.000000,4.497519,15.167593,-0.146263
1649350202.521960,204.000000,1649350202.521833,0.000000,0.000000,1.000000,0.000000,0.000000,0.000000,0.000000,4.503900,15.166019,-0.124298
1649350202.622066,205.000000,1649350202.621952,0.000000,0.000000,1.000000,0.000000,0.000000,0.000000,0.000000,4.513022,15.162397,-0.086374
1649350202.722144,206.000000,1649350202.722036,0.000000,0.000000,1.000000,0.000000,0.000000,0.000000,0.000000,4.510540,15.163392,-0.090454
1649350202.822034,207.000000,1649350202.821910,0.000000,0.000000,1.000000,0.000000,0.000000,0.000000,0.000000,4.514553,15.162201,-0.073540
1649350202.922728,208.000000,1649350202.922587,0.000000,0.000000,1.000000,0.000000,0.000000,0.000000,0.000000,4.513801,15.162217,-0.071180
1649350203.022339,209.000000,1649350203.022191,0.000000,0.000000,1.000000,0.000000,0.000000,0.000000,0.000000,4.506377,15.164461,-0.077945
1649350203.122384,210.000000,1649350203.122235,0.000000,0.000000,1.000000,0.000000,0.000000,0.000000,0.000000,4.494856,15.167711,-0.083772
1649350203.222275,211.000000,1649350203.222148,0.000000,0.000000,1.000000,0.000000,0.000000,0.000000,0.000000,4.482779,15.171901,-0.092715
1649350203.322414,212.000000,1649350203.322254,0.000000,0.000000,1.000000,0.000000,0.000000,0.000000,0.000000,4.469128,15.176963,-0.115918
1649350203.422401,213.000000,1649350203.422245,0.000000,0.000000,1.000000,0.000000,0.000000,0.000000,0.000000,4.463849,15.178474,-0.108408
1649350203.522440,214.000000,1649350203.522304,0.000000,0.000000,1.000000,0.000000,0.000000,0.000000,0.000000,4.455598,15.180982,-0.117401
1649350203.622531,215.000000,1649350203.622334,0.000000,0.000000,1.000000,0.000000,0.000000,0.000000,0.000000,4.444563,15.184427,-0.135761
1649350203.722350,216.000000,1649350203.722225,0.000000,0.000000,1.000000,0.000000,0.000000,0.000000,0.000000,4.441832,15.184387,-0.121143
1649350203.822180,217.000000,1649350203.822030,0.000000,0.000000,1.000000,0.000000,0.000000,0.000000,0.000000,4.446957,15.183232,-0.094255
1649350203.922254,218.000000,1649350203.922096,0.000000,0.000000,1.000000,0.000000,0.000000,0.000000,0.000000,4.455128,15.179940,-0.049988
1649350204.022568,219.000000,1649350204.022421,0.000000,0.000000,1.000000,0.000000,0.000000,0.000000,0.000000,4.458518,15.178999,-0.043149
1649350204.122482,220.000000,1649350204.122332,0.000000,0.000000,1.000000,0.000000,0.000000,0.000000,0.000000,4.456284,15.180285,-0.056103
1649350204.222117,221.000000,1649350204.222002,0.000000,0.000000,1.000000,0.000000,0.000000,0.000000,0.000000,4.452010,15.181491,-0.075929
1649350204.322125,222.000000,1649350204.321999,0.000000,0.000000,1.000000,0.000000,0.000000,0.000000,0.000000,4.443640,15.183710,-0.103921
1649350204.422186,223.000000,1649350204.422072,0.000000,0.000000,1.000000,0.000000,0.000000,0.000000,0.000000,4.433601,15.186880,-0.146959
1649350204.522085,224.000000,1649350204.521934,0.000000,0.000000,1.000000,0.000000,0.000000,0.000000,0.000000,4.419832,15.189850,-0.187424
1649350204.622055,225.000000,1649350204.621943,0.000000,0.000000,1.000000,0.000000,0.000000,0.000000,0.000000,4.414569,15.190442,-0.193902
1649350204.722213,226.000000,1649350204.722109,0.000000,0.000000,1.000000,0.000000,0.000000,0.000000,0.000000,4.417357,15.188786,-0.167756
1649350204.822299,227.000000,1649350204.822201,0.000000,0.000000,1.000000,0.000000,0.000000,0.000000,0.000000,4.426653,15.183921,-0.126479
1649350204.922459,228.000000,1649350204.922342,0.000000,0.000000,1.000000,0.000000,0.000000,0.000000,0.000000,4.438793,15.178220,-0.077203
1649350205.022862,229.000000,1649350205.022514,0.000000,0.000000,1.000000,0.000000,0.000000,0.000000,0.000000,4.441586,15.177198,-0.063884
1649350205.122407,230.000000,1649350205.122241,0.000000,0.000000,1.000000,0.000000,0.000000,0.000000,0.000000,4.435531,15.180604,-0.085896
1649350205.222473,231.000000,1649350205.222306,0.000000,0.000000,1.000000,0.000000,0.000000,0.000000,0.000000,4.438572,15.180553,-0.080483
1649350205.322324,232.000000,1649350205.322167,0.000000,0.000000,1.000000,0.000000,0.000000,0.000000,0.000000,4.448022,15.177232,-0.057628
1649350205.421976,233.000000,1649350205.421845,0.000000,0.000000,1.000000,0.000000,0.000000,0.000000,0.000000,4.459138,15.171922,-0.016455
1649350205.521906,234.000000,1649350205.521801,0.000000,0.000000,1.000000,0.000000,0.000000,0.000000,0.000000,4.460890,15.171288,-0.005349
1649350205.622183,235.000000,1649350205.622085,0.000000,0.000000,1.000000,0.000000,0.000000,0.000000,0.000000,4.467961,15.168535,0.015601
1649350205.722140,236.000000,1649350205.722020,0.000000,0.000000,1.000000,0.000000,0.000000,0.000000,0.000000,4.469137,15.168145,0.013712
1649350205.822124,237.000000,1649350205.822018,0.000000,0.000000,1.000000,0.000000,0.000000,0.000000,0.000000,4.462556,15.171082,-0.016534
1649350205.922234,238.000000,1649350205.922070,0.000000,0.000000,1.000000,0.000000,0.000000,0.000000,0.000000,4.463933,15.170608,-0.013451
1649350206.022539,239.000000,1649350206.022359,0.000000,0.000000,1.000000,0.000000,0.000000,0.000000,0.000000,4.460836,15.171273,-0.021929
1649350206.122412,240.000000,1649350206.122304,0.000000,0.000000,1.000000,0.000000,0.000000,0.000000,0.000000,4.454611,15.171921,-0.052771
1649350206.222372,241.000000,1649350206.222240,0.000000,0.000000,1.000000,0.000000,0.000000,0.000000,0.000000,4.443270,15.174729,-0.096150
1649350206.322363,242.000000,1649350206.322186,0.000000,0.000000,1.000000,0.000000,0.000000,0.000000,0.000000,4.431488,15.178481,-0.138578
1649350206.422451,243.000000,1649350206.422296,0.000000,0.000000,1.000000,0.000000,0.000000,0.000000,0.000000,4.426957,15.178750,-0.149377
1649350206.522358,244.000000,1649350206.522221,0.000000,0.000000,1.000000,0.000000,0.000000,0.000000,0.000000,4.431474,15.176818,-0.133034
1649350206.622370,245.000000,1649350206.622273,0.000000,0.000000,1.000000,0.000000,0.000000,0.000000,0.000000,4.429261,15.178261,-0.145513
1649350206.722418,246.000000,1649350206.722287,0.000000,0.000000,1.000000,0.000000,0.000000,0.000000,0.000000,4.423960,15.180711,-0.160633
1649350206.822539,247.000000,1649350206.822335,0.000000,0.000000,1.000000,0.000000,0.000000,0.000000,0.000000,4.420114,15.184106,-0.184717
1649350206.922416,248.000000,1649350206.922317,0.000000,0.000000,1.000000,0.000000,0.000000,0.000000,0.000000,4.415470,15.188384,-0.209304
1649350207.022084,249.000000,1649350207.021968,0.000000,0.000000,1.000000,0.000000,0.000000,0.000000,0.000000,4.410082,15.192395,-0.251272
1649350207.122068,250.000000,1649350207.121991,0.000000,0.000000,1.000000,0.000000,0.000000,0.000000,0.000000,4.402912,15.197232,-0.287277
1649350207.222930,251.000000,1649350207.222837,0.000000,0.000000,1.000000,0.000000,0.000000,0.000000,0.000000,4.394072,15.202839,-0.335250
1649350207.322137,252.000000,1649350207.322033,0.000000,0.000000,1.000000,0.000000,0.000000,0.000000,0.000000,4.381495,15.209158,-0.394639
1649350207.422074,253.000000,1649350207.421974,0.000000,0.000000,1.000000,0.000000,0.000000,0.000000,0.000000,4.368685,15.215045,-0.447963
1649350207.522311,254.000000,1649350207.522150,0.000000,0.000000,1.000000,0.000000,0.000000,0.000000,0.000000,4.358958,15.219420,-0.498621
1649350207.622096,255.000000,1649350207.621987,0.000000,0.000000,1.000000,0.000000,0.000000,0.000000,0.000000,4.351074,15.223448,-0.544237
1649350207.722125,256.000000,1649350207.722007,0.000000,0.000000,1.000000,0.000000,0.000000,0.000000,0.000000,4.353668,15.222779,-0.545445
1649350207.822070,257.000000,1649350207.821949,0.000000,0.000000,1.000000,0.000000,0.000000,0.000000,0.000000,4.360695,15.219858,-0.520187
1649350207.922269,258.000000,1649350207.922153,0.000000,0.000000,1.000000,0.000000,0.000000,0.000000,0.000000,4.372969,15.214825,-0.474439
1649350208.022200,259.000000,1649350208.022035,0.000000,0.000000,1.000000,0.000000,0.000000,0.000000,0.000000,4.379253,15.212176,-0.459932
1649350208.122124,260.000000,1649350208.121964,0.000000,0.000000,1.000000,0.000000,0.000000,0.000000,0.000000,4.383115,15.209614,-0.460936
1649350208.222151,261.000000,1649350208.221969,0.000000,0.000000,1.000000,0.000000,0.000000,0.000000,0.000000,4.393394,15.204963,-0.434096
1649350208.322116,262.000000,1649350208.321975,0.000000,0.000000,1.000000,0.000000,0.000000,0.000000,0.000000,4.397708,15.203808,-0.420921
1649350208.422219,263.000000,1649350208.421996,0.000000,0.000000,1.000000,0.000000,0.000000,0.000000,0.000000,4.408361,15.199421,-0.383798
1649350208.521985,264.000000,1649350208.521847,0.000000,0.000000,1.000000,0.000000,0.000000,0.000000,0.000000,4.423880,15.193084,-0.329412
1649350208.622026,265.000000,1649350208.621897,0.000000,0.000000,1.000000,0.000000,0.000000,0.000000,0.000000,4.441772,15.186013,-0.267432
1649350208.722198,266.000000,1649350208.721955,0.000000,0.000000,1.000000,0.000000,0.000000,0.000000,0.000000,4.459673,15.179361,-0.199079
1649350208.822063,267.000000,1649350208.821945,0.000000,0.000000,1.000000,0.000000,0.000000,0.000000,0.000000,4.469900,15.174213,-0.167469
1649350208.922194,268.000000,1649350208.922038,0.000000,0.000000,1.000000,0.000000,0.000000,0.000000,0.000000,4.475029,15.171593,-0.159071
1649350209.022435,269.000000,1649350209.022204,0.000000,0.000000,1.000000,0.000000,0.000000,0.000000,0.000000,4.472059,15.172456,-0.176992
1649350209.123353,270.000000,1649350209.123146,0.000000,0.000000,1.000000,0.000000,0.000000,0.000000,0.000000,4.466906,15.174426,-0.198357
1649350209.222520,271.000000,1649350209.222385,0.000000,0.000000,1.000000,0.000000,0.000000,0.000000,0.000000,4.457531,15.178523,-0.229438
1649350209.322654,272.000000,1649350209.322469,0.000000,0.000000,1.000000,0.000000,0.000000,0.000000,0.000000,4.447475,15.183525,-0.259302
1649350209.422406,273.000000,1649350209.422260,0.000000,0.000000,1.000000,0.000000,0.000000,0.000000,0.000000,4.435721,15.189364,-0.290366
1649350209.522166,274.000000,1649350209.522068,0.000000,0.000000,1.000000,0.000000,0.000000,0.000000,0.000000,4.419132,15.197066,-0.334627
1649350209.622144,275.000000,1649350209.622017,0.000000,0.000000,1.000000,0.000000,0.000000,0.000000,0.000000,4.414379,15.198872,-0.339060
1649350209.722280,276.000000,1649350209.722124,0.000000,0.000000,1.000000,0.000000,0.000000,0.000000,0.000000,4.418652,15.197280,-0.321398
1649350209.822073,277.000000,1649350209.821908,0.000000,0.000000,1.000000,0.000000,0.000000,0.000000,0.000000,4.429261,15.193572,-0.288213
1649350209.922456,278.000000,1649350209.922246,0.000000,0.000000,1.000000,0.000000,0.000000,0.000000,0.000000,4.430562,15.192238,-0.271644
1649350210.022332,279.000000,1649350210.022160,0.000000,0.000000,1.000000,0.000000,0.000000,0.000000,0.000000,4.439412,15.188792,-0.237178
1649350210.123997,280.000000,1649350210.123485,0.000000,0.000000,1.000000,0.000000,0.000000,0.000000,0.000000,4.437929,15.189901,-0.234791
1649350210.222381,281.000000,1649350210.222236,0.000000,0.000000,1.000000,0.000000,0.000000,0.000000,0.000000,4.441946,15.187682,-0.208353
1649350210.322117,282.000000,1649350210.322023,0.000000,0.000000,1.000000,0.000000,0.000000,0.000000,0.000000,4.453334,15.184504,-0.171778
1649350210.422443,283.000000,1649350210.422087,0.000000,0.000000,1.000000,0.000000,0.000000,0.000000,0.000000,4.467297,15.179337,-0.119890
1649350210.522040,284.000000,1649350210.521787,0.000000,0.000000,1.000000,0.000000,0.000000,0.000000,0.000000,4.480384,15.173396,-0.060645
1649350210.622276,285.000000,1649350210.622175,0.000000,0.000000,1.000000,0.000000,0.000000,0.000000,0.000000,4.498060,15.165648,0.017667
1649350210.722432,286.000000,1649350210.722286,0.000000,0.000000,1.000000,0.000000,0.000000,0.000000,0.000000,4.504762,15.161666,0.047222
1649350210.822466,287.000000,1649350210.822275,0.000000,0.000000,1.000000,0.000000,0.000000,0.000000,0.000000,4.503260,15.160163,0.066243
1649350210.925542,288.000000,1649350210.924120,0.000000,0.000000,1.000000,0.000000,0.000000,0.000000,0.000000,4.497288,15.161004,0.067886
1649350211.022361,289.000000,1649350211.022119,0.000000,0.000000,1.000000,0.000000,0.000000,0.000000,0.000000,4.499113,15.159691,0.092383
1649350211.123985,290.000000,1649350211.123588,0.000000,0.000000,1.000000,0.000000,0.000000,0.000000,0.000000,4.494139,15.160705,0.091212
1649350211.222576,291.000000,1649350211.222307,0.000000,0.000000,1.000000,0.000000,0.000000,0.000000,0.000000,4.482762,15.165000,0.058977
1649350211.322298,292.000000,1649350211.322177,0.000000,0.000000,1.000000,0.000000,0.000000,0.000000,0.000000,4.470826,15.170201,0.015554
1649350211.422290,293.000000,1649350211.422133,0.000000,0.000000,1.000000,0.000000,0.000000,0.000000,0.000000,4.455132,15.176238,-0.049002
1649350211.522328,294.000000,1649350211.522165,0.000000,0.000000,1.000000,0.000000,0.000000,0.000000,0.000000,4.446841,15.178685,-0.074037
1649350211.622165,295.000000,1649350211.622014,0.000000,0.000000,1.000000,0.000000,0.000000,0.000000,0.000000,4.447757,15.177727,-0.070773
1649350211.722027,296.000000,1649350211.721881,0.000000,0.000000,1.000000,0.000000,0.000000,0.000000,0.000000,4.455192,15.174645,-0.047608
1649350211.822145,297.000000,1649350211.822030,0.000000,0.000000,1.000000,0.000000,0.000000,0.000000,0.000000,4.465496,15.169562,-0.007797
1649350211.922055,298.000000,1649350211.921886,0.000000,0.000000,1.000000,0.000000,0.000000,0.000000,0.000000,4.477388,15.163695,0.047121
1649350212.022115,299.000000,1649350212.021957,0.000000,0.000000,1.000000,0.000000,0.000000,0.000000,0.000000,4.491838,15.157102,0.122905
1649350212.122131,300.000000,1649350212.121984,0.000000,0.000000,1.000000,0.000000,0.000000,0.000000,0.000000,4.494489,15.156383,0.146018
1649350212.222476,301.000000,1649350212.222235,0.000000,0.000000,1.000000,0.000000,0.000000,0.000000,0.000000,4.502338,15.153585,0.177433
1649350212.322345,302.000000,1649350212.322121,0.000000,0.000000,1.000000,0.000000,0.000000,0.000000,0.000000,4.512901,15.149916,0.225651
1649350212.422092,303.000000,1649350212.421926,0.000000,0.000000,1.000000,0.000000,0.000000,0.000000,0.000000,4.523826,15.145431,0.277837
1649350212.522029,304.000000,1649350212.521888,0.000000,0.000000,1.000000,0.000000,0.000000,0.000000,0.000000,4.535066,15.141276,0.332959
1649350212.622178,305.000000,1649350212.622000,0.000000,0.000000,1.000000,0.000000,0.000000,0.000000,0.000000,4.547670,15.136349,0.398087
1649350212.722062,306.000000,1649350212.721884,0.000000,0.000000,1.000000,0.000000,0.000000,0.000000,0.000000,4.547361,15.136155,0.404996
1649350212.821978,307.000000,1649350212.821879,0.000000,0.000000,1.000000,0.000000,0.000000,0.000000,0.000000,4.541398,15.138250,0.390728
1649350212.922369,308.000000,1649350212.922246,0.000000,0.000000,1.000000,0.000000,0.000000,0.000000,0.000000,4.531211,15.142497,0.356999
1649350213.022473,309.000000,1649350213.022258,0.000000,0.000000,1.000000,0.000000,0.000000,0.000000,0.000000,4.527978,15.144400,0.360325
1649350213.122169,310.000000,1649350213.122042,0.000000,0.000000,1.000000,0.000000,0.000000,0.000000,0.000000,4.517163,15.148436,0.324231
1649350213.222347,311.000000,1649350213.222232,0.000000,0.000000,1.000000,0.000000,0.000000,0.000000,0.000000,4.513395,15.150114,0.314908
1649350213.326797,312.000000,1649350213.326046,0.000000,0.000000,1.000000,0.000000,0.000000,0.000000,0.000000,4.505403,15.152824,0.285345
1649350213.422524,313.000000,1649350213.422358,0.000000,0.000000,1.000000,0.000000,0.000000,0.000000,0.000000,4.495628,15.157590,0.242072
1649350213.522329,314.000000,1649350213.522221,0.000000,0.000000,1.000000,0.000000,0.000000,0.000000,0.000000,4.482018,15.163194,0.192991
1649350213.623061,315.000000,1649350213.622860,0.000000,0.000000,1.000000,0.000000,0.000000,0.000000,0.000000,4.476820,15.165210,0.175526
1649350213.722132,316.000000,1649350213.721992,0.000000,0.000000,1.000000,0.000000,0.000000,0.000000,0.000000,4.466505,15.168190,0.139249
1649350213.822080,317.000000,1649350213.821980,0.000000,0.000000,1.000000,0.000000,0.000000,0.000000,0.000000,4.466646,15.168801,0.118050
1649350213.922329,318.000000,1649350213.922069,0.000000,0.000000,1.000000,0.000000,0.000000,0.000000,0.000000,4.472308,15.167173,0.121039
1649350214.022335,319.000000,1649350214.022178,0.000000,0.000000,1.000000,0.000000,0.000000,0.000000,0.000000,4.470084,15.167794,0.098852
1649350214.122349,320.000000,1649350214.122242,0.000000,0.000000,1.000000,0.000000,0.000000,0.000000,0.000000,4.462586,15.169453,0.059800
1649350214.222169,321.000000,1649350214.222066,0.000000,0.000000,1.000000,0.000000,0.000000,0.000000,0.000000,4.463208,15.168816,0.051405
1649350214.322118,322.000000,1649350214.321993,0.000000,0.000000,1.000000,0.000000,0.000000,0.000000,0.000000,4.469319,15.166012,0.058734
1649350214.423928,323.000000,1649350214.423341,0.000000,0.000000,1.000000,0.000000,0.000000,0.000000,0.000000,4.479508,15.162260,0.083557
1649350214.522129,324.000000,1649350214.521985,0.000000,0.000000,1.000000,0.000000,0.000000,0.000000,0.000000,4.481522,15.163075,0.063835
1649350214.622043,325.000000,1649350214.621951,0.000000,0.000000,1.000000,0.000000,0.000000,0.000000,0.000000,4.475800,15.167117,0.019944
1649350214.722339,326.000000,1649350214.722191,0.000000,0.000000,1.000000,0.000000,0.000000,0.000000,0.000000,4.474776,15.167653,0.003739
1649350214.823492,327.000000,1649350214.822517,0.000000,0.000000,1.000000,0.000000,0.000000,0.000000,0.000000,4.477104,15.165965,0.008480
1649350214.922169,328.000000,1649350214.922063,0.000000,0.000000,1.000000,0.000000,0.000000,0.000000,0.000000,4.472780,15.167632,-0.007012
1649350215.022185,329.000000,1649350215.022044,0.000000,0.000000,1.000000,0.000000,0.000000,0.000000,0.000000,4.464360,15.170285,-0.028191
1649350215.122140,330.000000,1649350215.121977,0.000000,0.000000,1.000000,0.000000,0.000000,0.000000,0.000000,4.455363,15.174954,-0.058830
1649350215.222250,331.000000,1649350215.222116,0.000000,0.000000,1.000000,0.000000,0.000000,0.000000,0.000000,4.455658,15.176063,-0.061406
1649350215.322566,332.000000,1649350215.322357,0.000000,0.000000,1.000000,0.000000,0.000000,0.000000,0.000000,4.450560,15.178166,-0.073345
1649350215.423274,333.000000,1649350215.422950,0.000000,0.000000,1.000000,0.000000,0.000000,0.000000,0.000000,4.438192,15.182295,-0.103936
1649350215.522659,334.000000,1649350215.522224,0.000000,0.000000,1.000000,0.000000,0.000000,0.000000,0.000000,4.434251,15.183968,-0.099965
1649350215.622559,335.000000,1649350215.622289,0.000000,0.000000,1.000000,0.000000,0.000000,0.000000,0.000000,4.437192,15.182225,-0.077360
1649350215.723962,336.000000,1649350215.723199,0.000000,0.000000,1.000000,0.000000,0.000000,0.000000,0.000000,4.446624,15.178351,-0.039338
1649350215.822497,337.000000,1649350215.822290,0.000000,0.000000,1.000000,0.000000,0.000000,0.000000,0.000000,4.459977,15.173568,0.006953
1649350215.926506,338.000000,1649350215.925835,0.000000,0.000000,1.000000,0.000000,0.000000,0.000000,0.000000,4.462815,15.172304,0.019162
1649350216.023546,339.000000,1649350216.023107,0.000000,0.000000,1.000000,0.000000,0.000000,0.000000,0.000000,4.469877,15.168919,0.049446
1649350216.126113,340.000000,1649350216.123882,0.000000,0.000000,1.000000,0.000000,0.000000,0.000000,0.000000,4.478728,15.164631,0.085734
1649350216.226008,341.000000,1649350216.224813,0.000000,0.000000,1.000000,0.000000,0.000000,0.000000,0.000000,4.490333,15.159502,0.130144
1649350216.322987,342.000000,1649350216.322728,0.000000,0.000000,1.000000,0.000000,0.000000,0.000000,0.000000,4.504509,15.154684,0.178244
1649350216.427742,343.000000,1649350216.426603,0.000000,0.000000,1.000000,0.000000,0.000000,0.000000,0.000000,4.517802,15.149082,0.226585
1649350216.523744,344.000000,1649350216.523328,0.000000,0.000000,1.000000,0.000000,0.000000,0.000000,0.000000,4.529136,15.143846,0.285570
1649350216.622054,345.000000,1649350216.621950,0.000000,0.000000,1.000000,0.000000,0.000000,0.000000,0.000000,4.540770,15.137877,0.347425
1649350216.722617,346.000000,1649350216.722366,0.000000,0.000000,1.000000,0.000000,0.000000,0.000000,0.000000,4.540668,15.136682,0.359525
1649350216.822396,347.000000,1649350216.822256,0.000000,0.000000,1.000000,0.000000,0.000000,0.000000,0.000000,4.529480,15.140000,0.335168
1649350216.926458,348.000000,1649350216.926139,0.000000,0.000000,1.000000,0.000000,0.000000,0.000000,0.000000,4.513308,15.145388,0.279109
1649350217.022487,349.000000,1649350217.022277,0.000000,0.000000,1.000000,0.000000,0.000000,0.000000,0.000000,4.507748,15.147262,0.254836
1649350217.124928,350.000000,1649350217.123968,0.000000,0.000000,1.000000,0.000000,0.000000,0.000000,0.000000,4.498069,15.150164,0.228865
1649350217.222278,351.000000,1649350217.222097,0.000000,0.000000,1.000000,0.000000,0.000000,0.000000,0.000000,4.483440,15.157300,0.179544
1649350217.324130,352.000000,1649350217.323548,0.000000,0.000000,1.000000,0.000000,0.000000,0.000000,0.000000,4.466358,15.164052,0.131294
1649350217.422242,353.000000,1649350217.422073,0.000000,0.000000,1.000000,0.000000,0.000000,0.000000,0.000000,4.450280,15.171510,0.077706
1649350217.523636,354.000000,1649350217.523216,0.000000,0.000000,1.000000,0.000000,0.000000,0.000000,0.000000,4.434108,15.178523,0.029572
1649350217.622560,355.000000,1649350217.622400,0.000000,0.000000,1.000000,0.000000,0.000000,0.000000,0.000000,4.426615,15.181824,0.012557
1649350217.722558,356.000000,1649350217.722395,0.000000,0.000000,1.000000,0.000000,0.000000,0.000000,0.000000,4.413165,15.187060,-0.032636
1649350217.822410,357.000000,1649350217.822252,0.000000,0.000000,1.000000,0.000000,0.000000,0.000000,0.000000,4.410472,15.188662,-0.042703
1649350217.926726,358.000000,1649350217.925785,0.000000,0.000000,1.000000,0.000000,0.000000,0.000000,0.000000,4.416856,15.187916,-0.031958
1649350218.023410,359.000000,1649350218.022895,0.000000,0.000000,1.000000,0.000000,0.000000,0.000000,0.000000,4.416525,15.189320,-0.038364
1649350218.122397,360.000000,1649350218.122215,0.000000,0.000000,1.000000,0.000000,0.000000,0.000000,0.000000,4.422920,15.188394,-0.020906
1649350218.222365,361.000000,1649350218.222162,0.000000,0.000000,1.000000,0.000000,0.000000,0.000000,0.000000,4.423651,15.188544,-0.018488
1649350218.324394,362.000000,1649350218.323960,0.000000,0.000000,1.000000,0.000000,0.000000,0.000000,0.000000,4.420106,15.189714,-0.035353
1649350218.422518,363.000000,1649350218.422187,0.000000,0.000000,1.000000,0.000000,0.000000,0.000000,0.000000,4.412522,15.192939,-0.071510
1649350218.522497,364.000000,1649350218.522366,0.000000,0.000000,1.000000,0.000000,0.000000,0.000000,0.000000,4.403318,15.198101,-0.119676
1649350218.622308,365.000000,1649350218.622160,0.000000,0.000000,1.000000,0.000000,0.000000,0.000000,0.000000,4.401323,15.199629,-0.132521
1649350218.722316,366.000000,1649350218.722148,0.000000,0.000000,1.000000,0.000000,0.000000,0.000000,0.000000,4.391968,15.203174,-0.171945
1649350218.823668,367.000000,1649350218.823077,0.000000,0.000000,1.000000,0.000000,0.000000,0.000000,0.000000,4.381126,15.206438,-0.207790
1649350218.923730,368.000000,1649350218.923041,0.000000,0.000000,1.000000,0.000000,0.000000,0.000000,0.000000,4.379804,15.207251,-0.206285
1649350219.023078,369.000000,1649350219.022727,0.000000,0.000000,1.000000,0.000000,0.000000,0.000000,0.000000,4.377662,15.207930,-0.224601
1649350219.122675,370.000000,1649350219.122456,0.000000,0.000000,1.000000,0.000000,0.000000,0.000000,0.000000,4.373652,15.210665,-0.252247
1649350219.224285,371.000000,1649350219.223877,0.000000,0.000000,1.000000,0.000000,0.000000,0.000000,0.000000,4.362423,15.215342,-0.299301
1649350219.324581,372.000000,1649350219.324087,0.000000,0.000000,1.000000,0.000000,0.000000,0.000000,0.000000,4.361838,15.215302,-0.314921
1649350219.422567,373.000000,1649350219.422387,0.000000,0.000000,1.000000,0.000000,0.000000,0.000000,0.000000,4.369128,15.212990,-0.304400
1649350219.524612,374.000000,1649350219.523944,0.000000,0.000000,1.000000,0.000000,0.000000,0.000000,0.000000,4.370742,15.211812,-0.313186
1649350219.622244,375.000000,1649350219.622028,0.000000,0.000000,1.000000,0.000000,0.000000,0.000000,0.000000,4.381151,15.208445,-0.299377
1649350219.727012,376.000000,1649350219.725726,0.000000,0.000000,1.000000,0.000000,0.000000,0.000000,0.000000,4.384567,15.207384,-0.296990
1649350219.823473,377.000000,1649350219.823004,0.000000,0.000000,1.000000,0.000000,0.000000,0.000000,0.000000,4.385716,15.208510,-0.307201
1649350219.923743,378.000000,1649350219.923426,0.000000,0.000000,1.000000,0.000000,0.000000,0.000000,0.000000,4.392345,15.206251,-0.291598
1649350220.022491,379.000000,1649350220.022226,0.000000,0.000000,1.000000,0.000000,0.000000,0.000000,0.000000,4.404128,15.200803,-0.253685
1649350220.125818,380.000000,1649350220.125247,0.000000,0.000000,1.000000,0.000000,0.000000,0.000000,0.000000,4.410931,15.197809,-0.237987
1649350220.223918,381.000000,1649350220.223296,0.000000,0.000000,1.000000,0.000000,0.000000,0.000000,0.000000,4.422816,15.191696,-0.211390
1649350220.324479,382.000000,1649350220.323951,0.000000,0.000000,1.000000,0.000000,0.000000,0.000000,0.000000,4.423113,15.190286,-0.213905
1649350220.426199,383.000000,1649350220.425521,0.000000,0.000000,1.000000,0.000000,0.000000,0.000000,0.000000,4.420087,15.191145,-0.228234
1649350220.525765,384.000000,1649350220.524481,0.000000,0.000000,1.000000,0.000000,0.000000,0.000000,0.000000,4.415020,15.193057,-0.242592
1649350220.622415,385.000000,1649350220.622193,0.000000,0.000000,1.000000,0.000000,0.000000,0.000000,0.000000,4.406952,15.195957,-0.256962
1649350220.722334,386.000000,1649350220.722202,0.000000,0.000000,1.000000,0.000000,0.000000,0.000000,0.000000,4.401523,15.197602,-0.288265
1649350220.822499,387.000000,1649350220.822315,0.000000,0.000000,1.000000,0.000000,0.000000,0.000000,0.000000,4.395334,15.200236,-0.307549
1649350220.924494,388.000000,1649350220.923904,0.000000,0.000000,1.000000,0.000000,0.000000,0.000000,0.000000,4.397167,15.199436,-0.295115
1649350221.022361,389.000000,1649350221.022201,0.000000,0.000000,1.000000,0.000000,0.000000,0.000000,0.000000,4.396763,15.200845,-0.293404
1649350221.125350,390.000000,1649350221.124897,0.000000,0.000000,1.000000,0.000000,0.000000,0.000000,0.000000,4.407328,15.197796,-0.263289
1649350221.222332,391.000000,1649350221.222156,0.000000,0.000000,1.000000,0.000000,0.000000,0.000000,0.000000,4.421685,15.192724,-0.230976
1649350221.323820,392.000000,1649350221.323484,0.000000,0.000000,1.000000,0.000000,0.000000,0.000000,0.000000,4.438493,15.185755,-0.182906
1649350221.423669,393.000000,1649350221.423316,0.000000,0.000000,1.000000,0.000000,0.000000,0.000000,0.000000,4.446662,15.182467,-0.162543
1649350221.523936,394.000000,1649350221.523625,0.000000,0.000000,1.000000,0.000000,0.000000,0.000000,0.000000,4.443373,15.183757,-0.171226
1649350221.623524,395.000000,1649350221.623283,0.000000,0.000000,1.000000,0.000000,0.000000,0.000000,0.000000,4.435808,15.187190,-0.199705
1649350221.726023,396.000000,1649350221.725440,0.000000,0.000000,1.000000,0.000000,0.000000,0.000000,0.000000,4.424229,15.191545,-0.220522
1649350221.824054,397.000000,1649350221.823518,0.000000,0.000000,1.000000,0.000000,0.000000,0.000000,0.000000,4.413257,15.195667,-0.257339
1649350221.926881,398.000000,1649350221.926293,0.000000,0.000000,1.000000,0.000000,0.000000,0.000000,0.000000,4.410527,15.196285,-0.261873
1649350222.023073,399.000000,1649350222.022631,0.000000,0.000000,1.000000,0.000000,0.000000,0.000000,0.000000,4.407966,15.196858,-0.279779
1649350222.122274,400.000000,1649350222.122120,0.000000,0.000000,1.000000,0.000000,0.000000,0.000000,0.000000,4.401209,15.198480,-0.305655
1649350222.223772,401.000000,1649350222.223172,0.000000,0.000000,1.000000,0.000000,0.000000,0.000000,0.000000,4.391595,15.202177,-0.332691
1649350222.324062,402.000000,1649350222.323765,0.000000,0.000000,1.000000,0.000000,0.000000,0.000000,0.000000,4.381489,15.206737,-0.372096
1649350222.422253,403.000000,1649350222.422036,0.000000,0.000000,1.000000,0.000000,0.000000,0.000000,0.000000,4.381849,15.206648,-0.378152
1649350222.524820,404.000000,1649350222.523971,0.000000,0.000000,1.000000,0.000000,0.000000,0.000000,0.000000,4.377922,15.208707,-0.394141
1649350222.622984,405.000000,1649350222.622627,0.000000,0.000000,1.000000,0.000000,0.000000,0.000000,0.000000,4.374310,15.210613,-0.409973
1649350222.724169,406.000000,1649350222.723540,0.000000,0.000000,1.000000,0.000000,0.000000,0.000000,0.000000,4.369912,15.211280,-0.436930
1649350222.822252,407.000000,1649350222.822086,0.000000,0.000000,1.000000,0.000000,0.000000,0.000000,0.000000,4.375681,15.208594,-0.414049
1649350222.923756,408.000000,1649350222.923079,0.000000,0.000000,1.000000,0.000000,0.000000,0.000000,0.000000,4.386679,15.203841,-0.373229
1649350223.022139,409.000000,1649350223.021961,0.000000,0.000000,1.000000,0.000000,0.000000,0.000000,0.000000,4.401488,15.197150,-0.320117
1649350223.123370,410.000000,1649350223.123187,0.000000,0.000000,1.000000,0.000000,0.000000,0.000000,0.000000,4.410040,15.194099,-0.279500
1649350223.222218,411.000000,1649350223.222013,0.000000,0.000000,1.000000,0.000000,0.000000,0.000000,0.000000,4.423551,15.190140,-0.224336
1649350223.323812,412.000000,1649350223.322895,0.000000,0.000000,1.000000,0.000000,0.000000,0.000000,0.000000,4.428626,15.189693,-0.187566
1649350223.422601,413.000000,1649350223.422295,0.000000,0.000000,1.000000,0.000000,0.000000,0.000000,0.000000,4.427894,15.191478,-0.173348
1649350223.526296,414.000000,1649350223.524092,0.000000,0.000000,1.000000,0.000000,0.000000,0.000000,0.000000,4.432580,15.189914,-0.133210
1649350223.622499,415.000000,1649350223.622320,0.000000,0.000000,1.000000,0.000000,0.000000,0.000000,0.000000,4.434748,15.189548,-0.123102
1649350223.723940,416.000000,1649350223.723427,0.000000,0.000000,1.000000,0.000000,0.000000,0.000000,0.000000,4.434531,15.190315,-0.124884
1649350223.822217,417.000000,1649350223.822088,0.000000,0.000000,1.000000,0.000000,0.000000,0.000000,0.000000,4.426614,15.194331,-0.156617
1649350223.923979,418.000000,1649350223.923179,0.000000,0.000000,1.000000,0.000000,0.000000,0.000000,0.000000,4.420168,15.198133,-0.198482
1649350224.022371,419.000000,1649350224.022207,0.000000,0.000000,1.000000,0.000000,0.000000,0.000000,0.000000,4.411866,15.201721,-0.240318
1649350224.122663,420.000000,1649350224.122317,0.000000,0.000000,1.000000,0.000000,0.000000,0.000000,0.000000,4.402926,15.204006,-0.278827
1649350224.225050,421.000000,1649350224.224397,0.000000,0.000000,1.000000,0.000000,0.000000,0.000000,0.000000,4.390141,15.208323,-0.325369
1649350224.324538,422.000000,1649350224.323919,0.000000,0.000000,1.000000,0.000000,0.000000,0.000000,0.000000,4.381391,15.210188,-0.384385
1649350224.425586,423.000000,1649350224.424666,0.000000,0.000000,1.000000,0.000000,0.000000,0.000000,0.000000,4.375389,15.211911,-0.437537
1649350224.523933,424.000000,1649350224.523542,0.000000,0.000000,1.000000,0.000000,0.000000,0.000000,0.000000,4.366548,15.214587,-0.477723
1649350224.622249,425.000000,1649350224.622078,0.000000,0.000000,1.000000,0.000000,0.000000,0.000000,0.000000,4.368129,15.213798,-0.469122
1649350224.723486,426.000000,1649350224.723064,0.000000,0.000000,1.000000,0.000000,0.000000,0.000000,0.000000,4.363195,15.215189,-0.485506
1649350224.822537,427.000000,1649350224.822343,0.000000,0.000000,1.000000,0.000000,0.000000,0.000000,0.000000,4.353202,15.219729,-0.525049
1649350224.922429,428.000000,1649350224.922182,0.000000,0.000000,1.000000,0.000000,0.000000,0.000000,0.000000,4.344990,15.223965,-0.569024
1649350225.022207,429.000000,1649350225.022038,0.000000,0.000000,1.000000,0.000000,0.000000,0.000000,0.000000,4.348295,15.223541,-0.557518
1649350225.124654,430.000000,1649350225.124279,0.000000,0.000000,1.000000,0.000000,0.000000,0.000000,0.000000,4.350475,15.223078,-0.558936
