__time,/dwm1001/id_458E/pose_kf/header/seq,/dwm1001/id_458E/pose_kf/header/stamp,/dwm1001/id_458E/pose_kf/pose/orientation/pitch_deg,/dwm1001/id_458E/pose_kf/pose/orientation/roll_deg,/dwm1001/id_458E/pose_kf/pose/orientation/w,/dwm1001/id_458E/pose_kf/pose/orientation/x,/dwm1001/id_458E/pose_kf/pose/orientation/y,/dwm1001/id_458E/pose_kf/pose/orientation/yaw_deg,/dwm1001/id_458E/pose_kf/pose/orientation/z,/dwm1001/id_458E/pose_kf/pose/position/x,/dwm1001/id_458E/pose_kf/pose/position/y,/dwm1001/id_458E/pose_kf/pose/position/z
1649344542.239692,5099.000000,1649344542.237280,0.000000,0.000000,1.000000,0.000000,0.000000,0.000000,0.000000,7.830939,2.457257,-0.603382
1649344542.337918,5100.000000,1649344542.337174,0.000000,0.000000,1.000000,0.000000,0.000000,0.000000,0.000000,7.830160,2.458797,-0.616231
1649344542.432816,5101.000000,1649344542.432495,0.000000,0.000000,1.000000,0.000000,0.000000,0.000000,0.000000,7.830555,2.460178,-0.618685
1649344542.534037,5102.000000,1649344542.533521,0.000000,0.000000,1.000000,0.000000,0.000000,0.000000,0.000000,7.830966,2.460316,-0.620843
1649344542.638750,5103.000000,1649344542.637567,0.000000,0.000000,1.000000,0.000000,0.000000,0.000000,0.000000,7.831390,2.460374,-0.634014
1649344542.734228,5104.000000,1649344542.733666,0.000000,0.000000,1.000000,0.000000,0.000000,0.000000,0.000000,7.832912,2.460360,-0.643221
1649344542.835209,5105.000000,1649344542.834399,0.000000,0.000000,1.000000,0.000000,0.000000,0.000000,0.000000,7.834375,2.460283,-0.648619
1649344542.932878,5106.000000,1649344542.932552,0.000000,0.000000,1.000000,0.000000,0.000000,0.000000,0.000000,7.835777,2.460150,-0.664877
1649344543.035801,5107.000000,1649344543.035140,0.000000,0.000000,1.000000,0.000000,0.000000,0.000000,0.000000,7.836025,2.458877,-0.675409
1649344543.132514,5108.000000,1649344543.132308,0.000000,0.000000,1.000000,0.000000,0.000000,0.000000,0.000000,7.835181,2.458714,-0.674793
1649344543.233321,5109.000000,1649344543.232947,0.000000,0.000000,1.000000,0.000000,0.000000,0.000000,0.000000,7.835487,2.458514,-0.685263
1649344543.334061,5110.000000,1649344543.333653,0.000000,0.000000,1.000000,0.000000,0.000000,0.000000,0.000000,7.834697,2.457192,-0.704752
1649344543.434048,5111.000000,1649344543.433347,0.000000,0.000000,1.000000,0.000000,0.000000,0.000000,0.000000,7.835055,2.456996,-0.718357
1649344543.533892,5112.000000,1649344543.533338,0.000000,0.000000,1.000000,0.000000,0.000000,0.000000,0.000000,7.835404,2.457868,-0.725496
1649344543.635969,5113.000000,1649344543.635398,0.000000,0.000000,1.000000,0.000000,0.000000,0.000000,0.000000,7.841196,2.451026,-0.696591
1649344543.734843,5114.000000,1649344543.734407,0.000000,0.000000,1.000000,0.000000,0.000000,0.000000,0.000000,7.845574,2.445636,-0.687187
1649344543.834954,5115.000000,1649344543.834382,0.000000,0.000000,1.000000,0.000000,0.000000,0.000000,0.000000,7.848600,2.442728,-0.674748
1649344543.933124,5116.000000,1649344543.932775,0.000000,0.000000,1.000000,0.000000,0.000000,0.000000,0.000000,7.849250,2.439993,-0.676363
1649344544.033082,5117.000000,1649344544.032827,0.000000,0.000000,1.000000,0.000000,0.000000,0.000000,0.000000,7.849834,2.438521,-0.689048
1649344544.133952,5118.000000,1649344544.133359,0.000000,0.000000,1.000000,0.000000,0.000000,0.000000,0.000000,7.850356,2.436066,-0.707504
1649344544.235216,5119.000000,1649344544.234502,0.000000,0.000000,1.000000,0.000000,0.000000,0.000000,0.000000,7.849728,2.435958,-0.729861
1649344544.333008,5120.000000,1649344544.332759,0.000000,0.000000,1.000000,0.000000,0.000000,0.000000,0.000000,7.849107,2.435888,-0.743029
1649344544.436337,5121.000000,1649344544.435467,0.000000,0.000000,1.000000,0.000000,0.000000,0.000000,0.000000,7.848497,2.434760,-0.761076
1649344544.539981,5122.000000,1649344544.537982,0.000000,0.000000,1.000000,0.000000,0.000000,0.000000,0.000000,7.847899,2.433726,-0.767654
1649344544.634296,5123.000000,1649344544.633739,0.000000,0.000000,1.000000,0.000000,0.000000,0.000000,0.000000,7.846227,2.434961,-0.760806
1649344544.734447,5124.000000,1649344544.733908,0.000000,0.000000,1.000000,0.000000,0.000000,0.000000,0.000000,7.844635,2.435066,-0.764483
1649344544.832698,5125.000000,1649344544.832397,0.000000,0.000000,1.000000,0.000000,0.000000,0.000000,0.000000,7.844215,2.434101,-0.776651
1649344544.935161,5126.000000,1649344544.934471,0.000000,0.000000,1.000000,0.000000,0.000000,0.000000,0.000000,7.849266,2.425582,-0.746151
1649344545.035207,5127.000000,1649344545.034397,0.000000,0.000000,1.000000,0.000000,0.000000,0.000000,0.000000,7.852932,2.420850,-0.719120
1649344545.133197,5128.000000,1649344545.132779,0.000000,0.000000,1.000000,0.000000,0.000000,0.000000,0.000000,7.854188,2.418621,-0.696277
1649344545.233744,5129.000000,1649344545.233375,0.000000,0.000000,1.000000,0.000000,0.000000,0.000000,0.000000,7.855344,2.416581,-0.680723
1649344545.332854,5130.000000,1649344545.332630,0.000000,0.000000,1.000000,0.000000,0.000000,0.000000,0.000000,7.855312,2.414722,-0.679453
1649344545.433171,5131.000000,1649344545.432791,0.000000,0.000000,1.000000,0.000000,0.000000,0.000000,0.000000,7.855251,2.413036,-0.677379
1649344545.533462,5132.000000,1649344545.532829,0.000000,0.000000,1.000000,0.000000,0.000000,0.000000,0.000000,7.854073,2.412605,-0.684217
1649344545.632468,5133.000000,1649344545.632249,0.000000,0.000000,1.000000,0.000000,0.000000,0.000000,0.000000,7.860567,2.403545,-0.650403
1649344545.733896,5134.000000,1649344545.733149,0.000000,0.000000,1.000000,0.000000,0.000000,0.000000,0.000000,7.865574,2.397253,-0.637314
1649344545.832937,5135.000000,1649344545.832699,0.000000,0.000000,1.000000,0.000000,0.000000,0.000000,0.000000,7.875704,2.384870,-0.590103
1649344545.934231,5136.000000,1649344545.933745,0.000000,0.000000,1.000000,0.000000,0.000000,0.000000,0.000000,7.883015,2.377666,-0.559420
1649344546.034646,5137.000000,1649344546.034122,0.000000,0.000000,1.000000,0.000000,0.000000,0.000000,0.000000,7.886554,2.373190,-0.530127
1649344546.134578,5138.000000,1649344546.133722,0.000000,0.000000,1.000000,0.000000,0.000000,0.000000,0.000000,7.888702,2.371301,-0.507052
1649344546.233769,5139.000000,1649344546.233130,0.000000,0.000000,1.000000,0.000000,0.000000,0.000000,0.000000,7.888442,2.369672,-0.502879
1649344546.332382,5140.000000,1649344546.332153,0.000000,0.000000,1.000000,0.000000,0.000000,0.000000,0.000000,7.885915,2.369376,-0.499906
1649344546.432906,5141.000000,1649344546.432626,0.000000,0.000000,1.000000,0.000000,0.000000,0.000000,0.000000,7.883436,2.370332,-0.510178
1649344546.532868,5142.000000,1649344546.532568,0.000000,0.000000,1.000000,0.000000,0.000000,0.000000,0.000000,7.885379,2.365919,-0.485554
1649344546.632846,5143.000000,1649344546.632616,0.000000,0.000000,1.000000,0.000000,0.000000,0.000000,0.000000,7.884959,2.365159,-0.466990
1649344546.736886,5144.000000,1649344546.735998,0.000000,0.000000,1.000000,0.000000,0.000000,0.000000,0.000000,7.884490,2.365665,-0.466360
1649344546.834834,5145.000000,1649344546.833967,0.000000,0.000000,1.000000,0.000000,0.000000,0.000000,0.000000,7.882891,2.367359,-0.470029
1649344546.932438,5146.000000,1649344546.932210,0.000000,0.000000,1.000000,0.000000,0.000000,0.000000,0.000000,7.881322,2.370164,-0.471356
1649344547.037492,5147.000000,1649344547.036693,0.000000,0.000000,1.000000,0.000000,0.000000,0.000000,0.000000,7.879790,2.374005,-0.472035
1649344547.132813,5148.000000,1649344547.132555,0.000000,0.000000,1.000000,0.000000,0.000000,0.000000,0.000000,7.877210,2.378806,-0.484181
1649344547.232416,5149.000000,1649344547.232244,0.000000,0.000000,1.000000,0.000000,0.000000,0.000000,0.000000,7.873650,2.383406,-0.490366
1649344547.333883,5150.000000,1649344547.333334,0.000000,0.000000,1.000000,0.000000,0.000000,0.000000,0.000000,7.870266,2.387798,-0.508554
1649344547.433459,5151.000000,1649344547.433125,0.000000,0.000000,1.000000,0.000000,0.000000,0.000000,0.000000,7.865971,2.391977,-0.515645
1649344547.534933,5152.000000,1649344547.534359,0.000000,0.000000,1.000000,0.000000,0.000000,0.000000,0.000000,7.861917,2.397029,-0.529809
1649344547.635651,5153.000000,1649344547.635106,0.000000,0.000000,1.000000,0.000000,0.000000,0.000000,0.000000,7.858105,2.401801,-0.537023
1649344547.734478,5154.000000,1649344547.733858,0.000000,0.000000,1.000000,0.000000,0.000000,0.000000,0.000000,7.854531,2.407383,-0.535135
1649344547.834993,5155.000000,1649344547.833766,0.000000,0.000000,1.000000,0.000000,0.000000,0.000000,0.000000,7.851193,2.412625,-0.537413
1649344547.935964,5156.000000,1649344547.935248,0.000000,0.000000,1.000000,0.000000,0.000000,0.000000,0.000000,7.848085,2.417531,-0.539652
1649344548.033564,5157.000000,1649344548.033165,0.000000,0.000000,1.000000,0.000000,0.000000,0.000000,0.000000,7.845203,2.421015,-0.553944
1649344548.133315,5158.000000,1649344548.132860,0.000000,0.000000,1.000000,0.000000,0.000000,0.000000,0.000000,7.842539,2.424239,-0.576551
1649344548.233403,5159.000000,1649344548.232892,0.000000,0.000000,1.000000,0.000000,0.000000,0.000000,0.000000,7.840086,2.427211,-0.588551
1649344548.333627,5160.000000,1649344548.333063,0.000000,0.000000,1.000000,0.000000,0.000000,0.000000,0.000000,7.837838,2.428849,-0.608899
1649344548.432849,5161.000000,1649344548.432594,0.000000,0.000000,1.000000,0.000000,0.000000,0.000000,0.000000,7.835785,2.430315,-0.622711
1649344548.535779,5162.000000,1649344548.534642,0.000000,0.000000,1.000000,0.000000,0.000000,0.000000,0.000000,7.833920,2.431620,-0.632649
1649344548.632457,5163.000000,1649344548.632273,0.000000,0.000000,1.000000,0.000000,0.000000,0.000000,0.000000,7.838776,2.426230,-0.604178
1649344548.734284,5164.000000,1649344548.733468,0.000000,0.000000,1.000000,0.000000,0.000000,0.000000,0.000000,7.842334,2.424344,-0.582447
1649344548.833570,5165.000000,1649344548.833183,0.000000,0.000000,1.000000,0.000000,0.000000,0.000000,0.000000,7.844651,2.423602,-0.567225
1649344548.934067,5166.000000,1649344548.933682,0.000000,0.000000,1.000000,0.000000,0.000000,0.000000,0.000000,7.845785,2.423945,-0.553436
1649344549.033934,5167.000000,1649344549.033484,0.000000,0.000000,1.000000,0.000000,0.000000,0.000000,0.000000,7.845794,2.425317,-0.533787
1649344549.133612,5168.000000,1649344549.133100,0.000000,0.000000,1.000000,0.000000,0.000000,0.000000,0.000000,7.845828,2.427659,-0.519836
1649344549.233494,5169.000000,1649344549.233114,0.000000,0.000000,1.000000,0.000000,0.000000,0.000000,0.000000,7.845885,2.429823,-0.508956
1649344549.335036,5170.000000,1649344549.334534,0.000000,0.000000,1.000000,0.000000,0.000000,0.000000,0.000000,7.850323,2.425273,-0.468780
1649344549.432549,5171.000000,1649344549.432353,0.000000,0.000000,1.000000,0.000000,0.000000,0.000000,0.000000,7.852346,2.423114,-0.440873
1649344549.532620,5172.000000,1649344549.532370,0.000000,0.000000,1.000000,0.000000,0.000000,0.000000,0.000000,7.853169,2.422137,-0.415912
1649344549.633193,5173.000000,1649344549.632724,0.000000,0.000000,1.000000,0.000000,0.000000,0.000000,0.000000,7.852855,2.422279,-0.397037
1649344549.735385,5174.000000,1649344549.734377,0.000000,0.000000,1.000000,0.000000,0.000000,0.000000,0.000000,7.850377,2.422392,-0.382411
1649344549.833075,5175.000000,1649344549.832895,0.000000,0.000000,1.000000,0.000000,0.000000,0.000000,0.000000,7.848041,2.424659,-0.369458
1649344549.933142,5176.000000,1649344549.932904,0.000000,0.000000,1.000000,0.000000,0.000000,0.000000,0.000000,7.845845,2.426774,-0.364572
1649344550.032326,5177.000000,1649344550.032161,0.000000,0.000000,1.000000,0.000000,0.000000,0.000000,0.000000,7.843790,2.428742,-0.360973
1649344550.132991,5178.000000,1649344550.132567,0.000000,0.000000,1.000000,0.000000,0.000000,0.000000,0.000000,7.841872,2.429476,-0.364248
1649344550.234096,5179.000000,1649344550.233273,0.000000,0.000000,1.000000,0.000000,0.000000,0.000000,0.000000,7.840088,2.431224,-0.366038
1649344550.335015,5180.000000,1649344550.334520,0.000000,0.000000,1.000000,0.000000,0.000000,0.000000,0.000000,7.839526,2.432837,-0.367196
1649344550.434804,5181.000000,1649344550.434161,0.000000,0.000000,1.000000,0.000000,0.000000,0.000000,0.000000,7.837937,2.434318,-0.365316
1649344550.539960,5182.000000,1649344550.535837,0.000000,0.000000,1.000000,0.000000,0.000000,0.000000,0.000000,7.836472,2.434584,-0.364545
1649344550.633183,5183.000000,1649344550.632791,0.000000,0.000000,1.000000,0.000000,0.000000,0.000000,0.000000,7.835126,2.434791,-0.368863
1649344550.734715,5184.000000,1649344550.734092,0.000000,0.000000,1.000000,0.000000,0.000000,0.000000,0.000000,7.833894,2.434946,-0.371597
1649344550.835783,5185.000000,1649344550.833820,0.000000,0.000000,1.000000,0.000000,0.000000,0.000000,0.000000,7.832772,2.437234,-0.378442
1649344550.933907,5186.000000,1649344550.933253,0.000000,0.000000,1.000000,0.000000,0.000000,0.000000,0.000000,7.831756,2.438262,-0.397278
1649344551.033598,5187.000000,1649344551.033154,0.000000,0.000000,1.000000,0.000000,0.000000,0.000000,0.000000,7.830838,2.440279,-0.410647
1649344551.132613,5188.000000,1649344551.132445,0.000000,0.000000,1.000000,0.000000,0.000000,0.000000,0.000000,7.830016,2.439957,-0.434063
1649344551.234583,5189.000000,1649344551.233630,0.000000,0.000000,1.000000,0.000000,0.000000,0.000000,0.000000,7.828193,2.439607,-0.450949
1649344551.332990,5190.000000,1649344551.332799,0.000000,0.000000,1.000000,0.000000,0.000000,0.000000,0.000000,7.827607,2.442506,-0.459924
1649344551.434988,5191.000000,1649344551.434509,0.000000,0.000000,1.000000,0.000000,0.000000,0.000000,0.000000,7.827101,2.446290,-0.459677
1649344551.532753,5192.000000,1649344551.532435,0.000000,0.000000,1.000000,0.000000,0.000000,0.000000,0.000000,7.826667,2.449810,-0.457032
1649344551.633380,5193.000000,1649344551.632900,0.000000,0.000000,1.000000,0.000000,0.000000,0.000000,0.000000,7.826302,2.451983,-0.458541
1649344551.736478,5194.000000,1649344551.735960,0.000000,0.000000,1.000000,0.000000,0.000000,0.000000,0.000000,7.826001,2.452879,-0.460001
1649344551.835615,5195.000000,1649344551.834764,0.000000,0.000000,1.000000,0.000000,0.000000,0.000000,0.000000,7.831209,2.447117,-0.431572
1649344551.937346,5196.000000,1649344551.936393,0.000000,0.000000,1.000000,0.000000,0.000000,0.000000,0.000000,7.833975,2.443805,-0.414023
1649344552.035203,5197.000000,1649344552.034409,0.000000,0.000000,1.000000,0.000000,0.000000,0.000000,0.000000,7.835513,2.441731,-0.416621
1649344552.133501,5198.000000,1649344552.133247,0.000000,0.000000,1.000000,0.000000,0.000000,0.000000,0.000000,7.835885,2.440837,-0.424028
1649344552.233212,5199.000000,1649344552.232716,0.000000,0.000000,1.000000,0.000000,0.000000,0.000000,0.000000,7.836241,2.438882,-0.443295
1649344552.334479,5200.000000,1649344552.333667,0.000000,0.000000,1.000000,0.000000,0.000000,0.000000,0.000000,7.836583,2.439202,-0.450519
1649344552.432367,5201.000000,1649344552.432201,0.000000,0.000000,1.000000,0.000000,0.000000,0.000000,0.000000,7.835818,2.440583,-0.451013
1649344552.536916,5202.000000,1649344552.535650,0.000000,0.000000,1.000000,0.000000,0.000000,0.000000,0.000000,7.834010,2.441872,-0.449078
1649344552.637614,5203.000000,1649344552.636954,0.000000,0.000000,1.000000,0.000000,0.000000,0.000000,0.000000,7.832311,2.441982,-0.460138
1649344552.734771,5204.000000,1649344552.734070,0.000000,0.000000,1.000000,0.000000,0.000000,0.000000,0.000000,7.831809,2.443157,-0.480423
1649344552.832908,5205.000000,1649344552.832644,0.000000,0.000000,1.000000,0.000000,0.000000,0.000000,0.000000,7.831352,2.443157,-0.509528
1649344552.934712,5206.000000,1649344552.934176,0.000000,0.000000,1.000000,0.000000,0.000000,0.000000,0.000000,7.836387,2.436595,-0.497050
1649344553.032606,5207.000000,1649344553.032337,0.000000,0.000000,1.000000,0.000000,0.000000,0.000000,0.000000,7.840058,2.432573,-0.488237
1649344553.132451,5208.000000,1649344553.132176,0.000000,0.000000,1.000000,0.000000,0.000000,0.000000,0.000000,7.842426,2.430966,-0.477315
1649344553.233281,5209.000000,1649344553.232798,0.000000,0.000000,1.000000,0.000000,0.000000,0.000000,0.000000,7.843556,2.429464,-0.469228
1649344553.334115,5210.000000,1649344553.333537,0.000000,0.000000,1.000000,0.000000,0.000000,0.000000,0.000000,7.843513,2.429157,-0.470328
1649344553.434114,5211.000000,1649344553.433619,0.000000,0.000000,1.000000,0.000000,0.000000,0.000000,0.000000,7.844544,2.428889,-0.485081
1649344553.534900,5212.000000,1649344553.534309,0.000000,0.000000,1.000000,0.000000,0.000000,0.000000,0.000000,7.849857,2.421025,-0.466139
1649344553.633421,5213.000000,1649344553.633000,0.000000,0.000000,1.000000,0.000000,0.000000,0.000000,0.000000,7.860296,2.410363,-0.421345
1649344553.734469,5214.000000,1649344553.733937,0.000000,0.000000,1.000000,0.000000,0.000000,0.000000,0.000000,7.867917,2.402538,-0.404236
1649344553.832531,5215.000000,1649344553.832326,0.000000,0.000000,1.000000,0.000000,0.000000,0.000000,0.000000,7.871764,2.398507,-0.388723
1649344553.934061,5216.000000,1649344553.933471,0.000000,0.000000,1.000000,0.000000,0.000000,0.000000,0.000000,7.879668,2.390438,-0.357022
1649344554.034343,5217.000000,1649344554.033979,0.000000,0.000000,1.000000,0.000000,0.000000,0.000000,0.000000,7.883756,2.386202,-0.329994
1649344554.133872,5218.000000,1649344554.133473,0.000000,0.000000,1.000000,0.000000,0.000000,0.000000,0.000000,7.885319,2.384507,-0.312329
1649344554.235183,5219.000000,1649344554.234290,0.000000,0.000000,1.000000,0.000000,0.000000,0.000000,0.000000,7.885588,2.384122,-0.315768
1649344554.332621,5220.000000,1649344554.332441,0.000000,0.000000,1.000000,0.000000,0.000000,0.000000,0.000000,7.885730,2.386060,-0.318476
1649344554.432540,5221.000000,1649344554.432379,0.000000,0.000000,1.000000,0.000000,0.000000,0.000000,0.000000,7.884666,2.389090,-0.333372
1649344554.537211,5222.000000,1649344554.535656,0.000000,0.000000,1.000000,0.000000,0.000000,0.000000,0.000000,7.883564,2.392047,-0.360739
1649344554.634889,5223.000000,1649344554.634324,0.000000,0.000000,1.000000,0.000000,0.000000,0.000000,0.000000,7.881343,2.396011,-0.375020
1649344554.734251,5224.000000,1649344554.733733,0.000000,0.000000,1.000000,0.000000,0.000000,0.000000,0.000000,7.878076,2.399819,-0.392036
1649344554.833126,5225.000000,1649344554.832793,0.000000,0.000000,1.000000,0.000000,0.000000,0.000000,0.000000,7.874926,2.403466,-0.419710
1649344554.934705,5226.000000,1649344554.933919,0.000000,0.000000,1.000000,0.000000,0.000000,0.000000,0.000000,7.871900,2.409125,-0.437400
1649344555.033289,5227.000000,1649344555.032834,0.000000,0.000000,1.000000,0.000000,0.000000,0.000000,0.000000,7.869003,2.413397,-0.457576
1649344555.135868,5228.000000,1649344555.134932,0.000000,0.000000,1.000000,0.000000,0.000000,0.000000,0.000000,7.865149,2.418523,-0.468814
1649344555.234517,5229.000000,1649344555.233610,0.000000,0.000000,1.000000,0.000000,0.000000,0.000000,0.000000,7.862585,2.423352,-0.490813
1649344555.332861,5230.000000,1649344555.332596,0.000000,0.000000,1.000000,0.000000,0.000000,0.000000,0.000000,7.865610,2.420252,-0.477138
1649344555.433119,5231.000000,1649344555.432643,0.000000,0.000000,1.000000,0.000000,0.000000,0.000000,0.000000,7.871729,2.411848,-0.434899
1649344555.533131,5232.000000,1649344555.532867,0.000000,0.000000,1.000000,0.000000,0.000000,0.000000,0.000000,7.875305,2.406089,-0.410483
1649344555.633263,5233.000000,1649344555.632796,0.000000,0.000000,1.000000,0.000000,0.000000,0.000000,0.000000,7.876465,2.403939,-0.391118
1649344555.732923,5234.000000,1649344555.732662,0.000000,0.000000,1.000000,0.000000,0.000000,0.000000,0.000000,7.876430,2.404117,-0.375825
1649344555.833102,5235.000000,1649344555.832792,0.000000,0.000000,1.000000,0.000000,0.000000,0.000000,0.000000,7.875269,2.406493,-0.378173
1649344555.933075,5236.000000,1649344555.932718,0.000000,0.000000,1.000000,0.000000,0.000000,0.000000,0.000000,7.873048,2.408758,-0.381313
1649344556.033543,5237.000000,1649344556.033156,0.000000,0.000000,1.000000,0.000000,0.000000,0.000000,0.000000,7.869833,2.411999,-0.378754
1649344556.133635,5238.000000,1649344556.133071,0.000000,0.000000,1.000000,0.000000,0.000000,0.000000,0.000000,7.866781,2.415064,-0.393307
1649344556.234315,5239.000000,1649344556.233813,0.000000,0.000000,1.000000,0.000000,0.000000,0.000000,0.000000,7.862803,2.417951,-0.401674
1649344556.332587,5240.000000,1649344556.332397,0.000000,0.000000,1.000000,0.000000,0.000000,0.000000,0.000000,7.864505,2.414120,-0.375056
1649344556.435403,5241.000000,1649344556.433155,0.000000,0.000000,1.000000,0.000000,0.000000,0.000000,0.000000,7.865027,2.412673,-0.361682
1649344556.538664,5242.000000,1649344556.537541,0.000000,0.000000,1.000000,0.000000,0.000000,0.000000,0.000000,7.863344,2.412394,-0.352971
1649344556.632958,5243.000000,1649344556.632643,0.000000,0.000000,1.000000,0.000000,0.000000,0.000000,0.000000,7.860670,2.414312,-0.347942
1649344556.734593,5244.000000,1649344556.734092,0.000000,0.000000,1.000000,0.000000,0.000000,0.000000,0.000000,7.858157,2.417209,-0.348062
1649344556.833645,5245.000000,1649344556.833395,0.000000,0.000000,1.000000,0.000000,0.000000,0.000000,0.000000,7.855804,2.419934,-0.363604
1649344556.932857,5246.000000,1649344556.932596,0.000000,0.000000,1.000000,0.000000,0.000000,0.000000,0.000000,7.852517,2.421397,-0.379398
1649344557.035167,5247.000000,1649344557.034380,0.000000,0.000000,1.000000,0.000000,0.000000,0.000000,0.000000,7.848357,2.423846,-0.387340
1649344557.133282,5248.000000,1649344557.132838,0.000000,0.000000,1.000000,0.000000,0.000000,0.000000,0.000000,7.844472,2.427220,-0.395797
1649344557.232303,5249.000000,1649344557.232114,0.000000,0.000000,1.000000,0.000000,0.000000,0.000000,0.000000,7.840857,2.431459,-0.401505
1649344557.334063,5250.000000,1649344557.332935,0.000000,0.000000,1.000000,0.000000,0.000000,0.000000,0.000000,7.837505,2.435416,-0.406985
1649344557.432765,5251.000000,1649344557.432541,0.000000,0.000000,1.000000,0.000000,0.000000,0.000000,0.000000,7.835498,2.439096,-0.409818
1649344557.533975,5252.000000,1649344557.533369,0.000000,0.000000,1.000000,0.000000,0.000000,0.000000,0.000000,7.833676,2.441416,-0.425427
1649344557.633257,5253.000000,1649344557.632999,0.000000,0.000000,1.000000,0.000000,0.000000,0.000000,0.000000,7.830939,2.444627,-0.433112
1649344557.733279,5254.000000,1649344557.732909,0.000000,0.000000,1.000000,0.000000,0.000000,0.000000,0.000000,7.834973,2.441043,-0.409792
1649344557.833134,5255.000000,1649344557.832889,0.000000,0.000000,1.000000,0.000000,0.000000,0.000000,0.000000,7.836671,2.438682,-0.395469
1649344557.932496,5256.000000,1649344557.932194,0.000000,0.000000,1.000000,0.000000,0.000000,0.000000,0.000000,7.837239,2.436397,-0.387385
1649344558.032442,5257.000000,1649344558.032202,0.000000,0.000000,1.000000,0.000000,0.000000,0.000000,0.000000,7.836736,2.437467,-0.381270
1649344558.133600,5258.000000,1649344558.133284,0.000000,0.000000,1.000000,0.000000,0.000000,0.000000,0.000000,7.836308,2.438436,-0.380279
1649344558.236351,5259.000000,1649344558.235748,0.000000,0.000000,1.000000,0.000000,0.000000,0.000000,0.000000,7.837040,2.440399,-0.374528
1649344558.335948,5260.000000,1649344558.335336,0.000000,0.000000,1.000000,0.000000,0.000000,0.000000,0.000000,7.835594,2.442209,-0.369862
1649344558.437435,5261.000000,1649344558.436560,0.000000,0.000000,1.000000,0.000000,0.000000,0.000000,0.000000,7.834269,2.443871,-0.366245
1649344558.537100,5262.000000,1649344558.536361,0.000000,0.000000,1.000000,0.000000,0.000000,0.000000,0.000000,7.831972,2.444300,-0.379765
1649344558.635157,5263.000000,1649344558.634001,0.000000,0.000000,1.000000,0.000000,0.000000,0.000000,0.000000,7.830941,2.444654,-0.389547
1649344558.733654,5264.000000,1649344558.733290,0.000000,0.000000,1.000000,0.000000,0.000000,0.000000,0.000000,7.828925,2.444941,-0.400560
1649344558.835380,5265.000000,1649344558.834743,0.000000,0.000000,1.000000,0.000000,0.000000,0.000000,0.000000,7.828164,2.445166,-0.422415
1649344558.933817,5266.000000,1649344558.933506,0.000000,0.000000,1.000000,0.000000,0.000000,0.000000,0.000000,7.827497,2.446423,-0.436089
1649344559.034712,5267.000000,1649344559.034413,0.000000,0.000000,1.000000,0.000000,0.000000,0.000000,0.000000,7.825829,2.447567,-0.460438
1649344559.135785,5268.000000,1649344559.135124,0.000000,0.000000,1.000000,0.000000,0.000000,0.000000,0.000000,7.825395,2.449691,-0.482090
1649344559.233038,5269.000000,1649344559.232760,0.000000,0.000000,1.000000,0.000000,0.000000,0.000000,0.000000,7.825039,2.451648,-0.508380
1649344559.334964,5270.000000,1649344559.334251,0.000000,0.000000,1.000000,0.000000,0.000000,0.000000,0.000000,7.824752,2.453445,-0.526985
1649344559.434266,5271.000000,1649344559.433856,0.000000,0.000000,1.000000,0.000000,0.000000,0.000000,0.000000,7.824529,2.455087,-0.555127
1649344559.532413,5272.000000,1649344559.532234,0.000000,0.000000,1.000000,0.000000,0.000000,0.000000,0.000000,7.822185,2.456581,-0.573025
1649344559.633038,5273.000000,1649344559.632744,0.000000,0.000000,1.000000,0.000000,0.000000,0.000000,0.000000,7.820019,2.456843,-0.588332
1649344559.733720,5274.000000,1649344559.733232,0.000000,0.000000,1.000000,0.000000,0.000000,0.000000,0.000000,7.819117,2.458124,-0.597910
1649344559.833406,5275.000000,1649344559.833103,0.000000,0.000000,1.000000,0.000000,0.000000,0.000000,0.000000,7.818319,2.459277,-0.607631
1649344559.933136,5276.000000,1649344559.932770,0.000000,0.000000,1.000000,0.000000,0.000000,0.000000,0.000000,7.817618,2.460309,-0.610226
1649344560.034032,5277.000000,1649344560.033319,0.000000,0.000000,1.000000,0.000000,0.000000,0.000000,0.000000,7.817009,2.461226,-0.609216
1649344560.133784,5278.000000,1649344560.133295,0.000000,0.000000,1.000000,0.000000,0.000000,0.000000,0.000000,7.817576,2.463126,-0.607179
1649344560.234236,5279.000000,1649344560.233508,0.000000,0.000000,1.000000,0.000000,0.000000,0.000000,0.000000,7.817068,2.464862,-0.595298
1649344560.335187,5280.000000,1649344560.334124,0.000000,0.000000,1.000000,0.000000,0.000000,0.000000,0.000000,7.816634,2.468622,-0.578842
1649344560.434739,5281.000000,1649344560.434171,0.000000,0.000000,1.000000,0.000000,0.000000,0.000000,0.000000,7.816269,2.472106,-0.565288
1649344560.537468,5282.000000,1649344560.536890,0.000000,0.000000,1.000000,0.000000,0.000000,0.000000,0.000000,7.822509,2.467691,-0.522292
1649344560.635515,5283.000000,1649344560.634876,0.000000,0.000000,1.000000,0.000000,0.000000,0.000000,0.000000,7.826250,2.464547,-0.489831
1649344560.734645,5284.000000,1649344560.734269,0.000000,0.000000,1.000000,0.000000,0.000000,0.000000,0.000000,7.828705,2.461528,-0.466730
1649344560.833945,5285.000000,1649344560.833315,0.000000,0.000000,1.000000,0.000000,0.000000,0.000000,0.000000,7.831027,2.459731,-0.445394
1649344560.934206,5286.000000,1649344560.933650,0.000000,0.000000,1.000000,0.000000,0.000000,0.000000,0.000000,7.832124,2.459096,-0.428207
1649344561.033569,5287.000000,1649344561.033203,0.000000,0.000000,1.000000,0.000000,0.000000,0.000000,0.000000,7.833151,2.460654,-0.418254
1649344561.133366,5288.000000,1649344561.133103,0.000000,0.000000,1.000000,0.000000,0.000000,0.000000,0.000000,7.833019,2.462100,-0.411223
1649344561.234204,5289.000000,1649344561.233713,0.000000,0.000000,1.000000,0.000000,0.000000,0.000000,0.000000,7.833972,2.461258,-0.421522
1649344561.334297,5290.000000,1649344561.333636,0.000000,0.000000,1.000000,0.000000,0.000000,0.000000,0.000000,7.833770,2.460437,-0.431493
1649344561.434881,5291.000000,1649344561.434062,0.000000,0.000000,1.000000,0.000000,0.000000,0.000000,0.000000,7.833565,2.459640,-0.433871
1649344561.533825,5292.000000,1649344561.533370,0.000000,0.000000,1.000000,0.000000,0.000000,0.000000,0.000000,7.833361,2.459959,-0.434601
1649344561.633167,5293.000000,1649344561.632836,0.000000,0.000000,1.000000,0.000000,0.000000,0.000000,0.000000,7.832067,2.460244,-0.447456
1649344561.732237,5294.000000,1649344561.732101,0.000000,0.000000,1.000000,0.000000,0.000000,0.000000,0.000000,7.830838,2.458315,-0.471115
1649344561.833865,5295.000000,1649344561.833399,0.000000,0.000000,1.000000,0.000000,0.000000,0.000000,0.000000,7.829675,2.456482,-0.489779
1649344561.935669,5296.000000,1649344561.935028,0.000000,0.000000,1.000000,0.000000,0.000000,0.000000,0.000000,7.835121,2.450383,-0.469747
1649344562.033910,5297.000000,1649344562.033422,0.000000,0.000000,1.000000,0.000000,0.000000,0.000000,0.000000,7.838074,2.446813,-0.458582
1649344562.132959,5298.000000,1649344562.132584,0.000000,0.000000,1.000000,0.000000,0.000000,0.000000,0.000000,7.839753,2.444553,-0.450302
1649344562.234712,5299.000000,1649344562.233903,0.000000,0.000000,1.000000,0.000000,0.000000,0.000000,0.000000,7.840223,2.444630,-0.437544
1649344562.333727,5300.000000,1649344562.333507,0.000000,0.000000,1.000000,0.000000,0.000000,0.000000,0.000000,7.839550,2.443641,-0.426962
1649344562.434643,5301.000000,1649344562.433725,0.000000,0.000000,1.000000,0.000000,0.000000,0.000000,0.000000,7.838890,2.443828,-0.417677
1649344562.536735,5302.000000,1649344562.534977,0.000000,0.000000,1.000000,0.000000,0.000000,0.000000,0.000000,7.838246,2.444033,-0.416101
1649344562.633775,5303.000000,1649344562.632980,0.000000,0.000000,1.000000,0.000000,0.000000,0.000000,0.000000,7.846343,2.434440,-0.382408
1649344562.733315,5304.000000,1649344562.732850,0.000000,0.000000,1.000000,0.000000,0.000000,0.000000,0.000000,7.852868,2.427605,-0.362300
1649344562.833825,5305.000000,1649344562.833466,0.000000,0.000000,1.000000,0.000000,0.000000,0.000000,0.000000,7.855707,2.422307,-0.350420
1649344562.934775,5306.000000,1649344562.934263,0.000000,0.000000,1.000000,0.000000,0.000000,0.000000,0.000000,7.858326,2.418473,-0.356127
1649344563.034396,5307.000000,1649344563.034072,0.000000,0.000000,1.000000,0.000000,0.000000,0.000000,0.000000,7.860733,2.416031,-0.364986
1649344563.132904,5308.000000,1649344563.132619,0.000000,0.000000,1.000000,0.000000,0.000000,0.000000,0.000000,7.860755,2.414908,-0.384912
1649344563.233922,5309.000000,1649344563.233183,0.000000,0.000000,1.000000,0.000000,0.000000,0.000000,0.000000,7.860707,2.415030,-0.400904
1649344563.334417,5310.000000,1649344563.333990,0.000000,0.000000,1.000000,0.000000,0.000000,0.000000,0.000000,7.864959,2.409781,-0.380025
1649344563.432896,5311.000000,1649344563.432527,0.000000,0.000000,1.000000,0.000000,0.000000,0.000000,0.000000,7.867814,2.407097,-0.359277
1649344563.535495,5312.000000,1649344563.534714,0.000000,0.000000,1.000000,0.000000,0.000000,0.000000,0.000000,7.869344,2.404662,-0.360461
1649344563.634000,5313.000000,1649344563.633373,0.000000,0.000000,1.000000,0.000000,0.000000,0.000000,0.000000,7.869621,2.404643,-0.362524
1649344563.733971,5314.000000,1649344563.733316,0.000000,0.000000,1.000000,0.000000,0.000000,0.000000,0.000000,7.868717,2.404724,-0.362196
1649344563.833742,5315.000000,1649344563.833309,0.000000,0.000000,1.000000,0.000000,0.000000,0.000000,0.000000,7.866703,2.404891,-0.378118
1649344563.933412,5316.000000,1649344563.933052,0.000000,0.000000,1.000000,0.000000,0.000000,0.000000,0.000000,7.864741,2.406226,-0.404764
1649344564.033906,5317.000000,1649344564.033257,0.000000,0.000000,1.000000,0.000000,0.000000,0.000000,0.000000,7.862837,2.408655,-0.425525
1649344564.133927,5318.000000,1649344564.133475,0.000000,0.000000,1.000000,0.000000,0.000000,0.000000,0.000000,7.859906,2.411017,-0.441409
1649344564.233737,5319.000000,1649344564.233404,0.000000,0.000000,1.000000,0.000000,0.000000,0.000000,0.000000,7.857107,2.412213,-0.467907
1649344564.337811,5320.000000,1649344564.336799,0.000000,0.000000,1.000000,0.000000,0.000000,0.000000,0.000000,7.855533,2.414481,-0.502130
1649344564.434176,5321.000000,1649344564.433475,0.000000,0.000000,1.000000,0.000000,0.000000,0.000000,0.000000,7.854033,2.417752,-0.529194
1649344564.538786,5322.000000,1649344564.537630,0.000000,0.000000,1.000000,0.000000,0.000000,0.000000,0.000000,7.852608,2.421961,-0.546929
1649344564.636631,5323.000000,1649344564.635855,0.000000,0.000000,1.000000,0.000000,0.000000,0.000000,0.000000,7.851259,2.424859,-0.571818
1649344564.733741,5324.000000,1649344564.733351,0.000000,0.000000,1.000000,0.000000,0.000000,0.000000,0.000000,7.849987,2.427599,-0.599505
1649344564.832589,5325.000000,1649344564.832397,0.000000,0.000000,1.000000,0.000000,0.000000,0.000000,0.000000,7.848790,2.432363,-0.614518
1649344564.935905,5326.000000,1649344564.933073,0.000000,0.000000,1.000000,0.000000,0.000000,0.000000,0.000000,7.847668,2.433573,-0.638322
1649344565.032979,5327.000000,1649344565.032814,0.000000,0.000000,1.000000,0.000000,0.000000,0.000000,0.000000,7.845530,2.433600,-0.668114
1649344565.134314,5328.000000,1649344565.133694,0.000000,0.000000,1.000000,0.000000,0.000000,0.000000,0.000000,7.842437,2.434693,-0.685066
1649344565.232638,5329.000000,1649344565.232362,0.000000,0.000000,1.000000,0.000000,0.000000,0.000000,0.000000,7.839541,2.435700,-0.690490
1649344565.335100,5330.000000,1649344565.334376,0.000000,0.000000,1.000000,0.000000,0.000000,0.000000,0.000000,7.836837,2.436624,-0.690500
1649344565.433289,5331.000000,1649344565.432965,0.000000,0.000000,1.000000,0.000000,0.000000,0.000000,0.000000,7.834322,2.437469,-0.686136
1649344565.532869,5332.000000,1649344565.532560,0.000000,0.000000,1.000000,0.000000,0.000000,0.000000,0.000000,7.831991,2.437147,-0.683242
1649344565.635704,5333.000000,1649344565.635201,0.000000,0.000000,1.000000,0.000000,0.000000,0.000000,0.000000,7.830929,2.438995,-0.679357
1649344565.736574,5334.000000,1649344565.735812,0.000000,0.000000,1.000000,0.000000,0.000000,0.000000,0.000000,7.833248,2.435260,-0.643088
1649344565.834485,5335.000000,1649344565.833823,0.000000,0.000000,1.000000,0.000000,0.000000,0.000000,0.000000,7.834392,2.432801,-0.616138
1649344565.932287,5336.000000,1649344565.932138,0.000000,0.000000,1.000000,0.000000,0.000000,0.000000,0.000000,7.834420,2.431556,-0.597378
1649344566.033343,5337.000000,1649344566.032917,0.000000,0.000000,1.000000,0.000000,0.000000,0.000000,0.000000,7.834479,2.431465,-0.595387
1649344566.137101,5338.000000,1649344566.136189,0.000000,0.000000,1.000000,0.000000,0.000000,0.000000,0.000000,7.833477,2.431375,-0.589337
1649344566.233833,5339.000000,1649344566.233248,0.000000,0.000000,1.000000,0.000000,0.000000,0.000000,0.000000,7.832561,2.432376,-0.581825
1649344566.332823,5340.000000,1649344566.332565,0.000000,0.000000,1.000000,0.000000,0.000000,0.000000,0.000000,7.831730,2.433316,-0.574539
1649344566.433014,5341.000000,1649344566.432774,0.000000,0.000000,1.000000,0.000000,0.000000,0.000000,0.000000,7.832069,2.436376,-0.571520
1649344566.535085,5342.000000,1649344566.534590,0.000000,0.000000,1.000000,0.000000,0.000000,0.000000,0.000000,7.833511,2.437071,-0.582278
1649344566.632513,5343.000000,1649344566.632343,0.000000,0.000000,1.000000,0.000000,0.000000,0.000000,0.000000,7.832718,2.437708,-0.585277
1649344566.732391,5344.000000,1649344566.732209,0.000000,0.000000,1.000000,0.000000,0.000000,0.000000,0.000000,7.831995,2.438290,-0.585664
1649344566.834812,5345.000000,1649344566.833693,0.000000,0.000000,1.000000,0.000000,0.000000,0.000000,0.000000,7.831339,2.439910,-0.589192
1649344566.933826,5346.000000,1649344566.933146,0.000000,0.000000,1.000000,0.000000,0.000000,0.000000,0.000000,7.830745,2.440326,-0.590087
1649344567.033379,5347.000000,1649344567.032870,0.000000,0.000000,1.000000,0.000000,0.000000,0.000000,0.000000,7.830212,2.442876,-0.584424
1649344567.133342,5348.000000,1649344567.132978,0.000000,0.000000,1.000000,0.000000,0.000000,0.000000,0.000000,7.828645,2.445255,-0.581351
1649344567.232637,5349.000000,1649344567.232402,0.000000,0.000000,1.000000,0.000000,0.000000,0.000000,0.000000,7.828285,2.448559,-0.577545
1649344567.335852,5350.000000,1649344567.334438,0.000000,0.000000,1.000000,0.000000,0.000000,0.000000,0.000000,7.826884,2.449456,-0.586755
1649344567.432822,5351.000000,1649344567.432586,0.000000,0.000000,1.000000,0.000000,0.000000,0.000000,0.000000,7.825593,2.450258,-0.590699
1649344567.535095,5352.000000,1649344567.534543,0.000000,0.000000,1.000000,0.000000,0.000000,0.000000,0.000000,7.824408,2.452062,-0.585553
1649344567.633736,5353.000000,1649344567.633276,0.000000,0.000000,1.000000,0.000000,0.000000,0.000000,0.000000,7.823324,2.452629,-0.582179
1649344567.733422,5354.000000,1649344567.732983,0.000000,0.000000,1.000000,0.000000,0.000000,0.000000,0.000000,7.821246,2.454208,-0.570029
1649344567.836679,5355.000000,1649344567.835815,0.000000,0.000000,1.000000,0.000000,0.000000,0.000000,0.000000,7.820415,2.455651,-0.555125
1649344567.933400,5356.000000,1649344567.933033,0.000000,0.000000,1.000000,0.000000,0.000000,0.000000,0.000000,7.818582,2.456964,-0.540829
1649344568.033427,5357.000000,1649344568.033089,0.000000,0.000000,1.000000,0.000000,0.000000,0.000000,0.000000,7.817985,2.458153,-0.541657
1649344568.133435,5358.000000,1649344568.132757,0.000000,0.000000,1.000000,0.000000,0.000000,0.000000,0.000000,7.817466,2.457044,-0.533609
1649344568.233441,5359.000000,1649344568.232920,0.000000,0.000000,1.000000,0.000000,0.000000,0.000000,0.000000,7.817019,2.455948,-0.540443
1649344568.332762,5360.000000,1649344568.332560,0.000000,0.000000,1.000000,0.000000,0.000000,0.000000,0.000000,7.817730,2.454871,-0.544610
1649344568.433013,5361.000000,1649344568.432713,0.000000,0.000000,1.000000,0.000000,0.000000,0.000000,0.000000,7.818441,2.453818,-0.560726
1649344568.538970,5362.000000,1649344568.538119,0.000000,0.000000,1.000000,0.000000,0.000000,0.000000,0.000000,7.818057,2.453883,-0.564087
1649344568.633135,5363.000000,1649344568.632887,0.000000,0.000000,1.000000,0.000000,0.000000,0.000000,0.000000,7.818817,2.453917,-0.578589
1649344568.734150,5364.000000,1649344568.733487,0.000000,0.000000,1.000000,0.000000,0.000000,0.000000,0.000000,7.819564,2.453922,-0.599726
1649344568.833086,5365.000000,1649344568.832589,0.000000,0.000000,1.000000,0.000000,0.000000,0.000000,0.000000,7.821387,2.453902,-0.615101
1649344568.935021,5366.000000,1649344568.934525,0.000000,0.000000,1.000000,0.000000,0.000000,0.000000,0.000000,7.823127,2.453860,-0.627342
1649344569.032526,5367.000000,1649344569.032369,0.000000,0.000000,1.000000,0.000000,0.000000,0.000000,0.000000,7.824784,2.452708,-0.636558
1649344569.132598,5368.000000,1649344569.132375,0.000000,0.000000,1.000000,0.000000,0.000000,0.000000,0.000000,7.825266,2.452691,-0.642054
1649344569.234428,5369.000000,1649344569.233887,0.000000,0.000000,1.000000,0.000000,0.000000,0.000000,0.000000,7.824634,2.452660,-0.657686
1649344569.333712,5370.000000,1649344569.333470,0.000000,0.000000,1.000000,0.000000,0.000000,0.000000,0.000000,7.824043,2.453706,-0.666087
1649344569.433444,5371.000000,1649344569.433034,0.000000,0.000000,1.000000,0.000000,0.000000,0.000000,0.000000,7.822400,2.454677,-0.667542
1649344569.532615,5372.000000,1649344569.532396,0.000000,0.000000,1.000000,0.000000,0.000000,0.000000,0.000000,7.821948,2.453395,-0.678464
1649344569.632976,5373.000000,1649344569.632632,0.000000,0.000000,1.000000,0.000000,0.000000,0.000000,0.000000,7.821534,2.453259,-0.683943
1649344569.732384,5374.000000,1649344569.732180,0.000000,0.000000,1.000000,0.000000,0.000000,0.000000,0.000000,7.820064,2.453117,-0.680970
1649344569.834235,5375.000000,1649344569.833747,0.000000,0.000000,1.000000,0.000000,0.000000,0.000000,0.000000,7.819782,2.454062,-0.676349
1649344569.935935,5376.000000,1649344569.934999,0.000000,0.000000,1.000000,0.000000,0.000000,0.000000,0.000000,7.820622,2.453850,-0.682258
1649344570.033338,5377.000000,1649344570.032845,0.000000,0.000000,1.000000,0.000000,0.000000,0.000000,0.000000,7.821430,2.452547,-0.695850
1649344570.132775,5378.000000,1649344570.132623,0.000000,0.000000,1.000000,0.000000,0.000000,0.000000,0.000000,7.822204,2.451307,-0.703893
1649344570.235740,5379.000000,1649344570.234876,0.000000,0.000000,1.000000,0.000000,0.000000,0.000000,0.000000,7.822942,2.450131,-0.701766
1649344570.333486,5380.000000,1649344570.333147,0.000000,0.000000,1.000000,0.000000,0.000000,0.000000,0.000000,7.822554,2.449020,-0.696342
1649344570.435592,5381.000000,1649344570.434732,0.000000,0.000000,1.000000,0.000000,0.000000,0.000000,0.000000,7.822192,2.449063,-0.683737
1649344570.532768,5382.000000,1649344570.532450,0.000000,0.000000,1.000000,0.000000,0.000000,0.000000,0.000000,7.821856,2.450198,-0.668300
1649344570.634587,5383.000000,1649344570.633465,0.000000,0.000000,1.000000,0.000000,0.000000,0.000000,0.000000,7.821545,2.452361,-0.652595
1649344570.733176,5384.000000,1649344570.732924,0.000000,0.000000,1.000000,0.000000,0.000000,0.000000,0.000000,7.822348,2.453309,-0.631018
1649344570.834199,5385.000000,1649344570.833614,0.000000,0.000000,1.000000,0.000000,0.000000,0.000000,0.000000,7.823112,2.454196,-0.609490
1649344570.933265,5386.000000,1649344570.932791,0.000000,0.000000,1.000000,0.000000,0.000000,0.000000,0.000000,7.829288,2.447390,-0.556594
1649344571.033237,5387.000000,1649344571.032976,0.000000,0.000000,1.000000,0.000000,0.000000,0.000000,0.000000,7.834019,2.440965,-0.530135
1649344571.133042,5388.000000,1649344571.132704,0.000000,0.000000,1.000000,0.000000,0.000000,0.000000,0.000000,7.837370,2.437100,-0.504894
1649344571.232527,5389.000000,1649344571.232280,0.000000,0.000000,1.000000,0.000000,0.000000,0.000000,0.000000,7.839408,2.433487,-0.500214
1649344571.336681,5390.000000,1649344571.334442,0.000000,0.000000,1.000000,0.000000,0.000000,0.000000,0.000000,7.840200,2.431210,-0.493490
1649344571.433203,5391.000000,1649344571.432817,0.000000,0.000000,1.000000,0.000000,0.000000,0.000000,0.000000,7.840905,2.429110,-0.491262
1649344571.533398,5392.000000,1649344571.532919,0.000000,0.000000,1.000000,0.000000,0.000000,0.000000,0.000000,7.841527,2.427183,-0.483666
1649344571.633657,5393.000000,1649344571.633038,0.000000,0.000000,1.000000,0.000000,0.000000,0.000000,0.000000,7.842071,2.427601,-0.472536
1649344571.735360,5394.000000,1649344571.734391,0.000000,0.000000,1.000000,0.000000,0.000000,0.000000,0.000000,7.841453,2.426961,-0.478186
1649344571.833158,5395.000000,1649344571.832810,0.000000,0.000000,1.000000,0.000000,0.000000,0.000000,0.000000,7.840830,2.426410,-0.495891
1649344571.934968,5396.000000,1649344571.934398,0.000000,0.000000,1.000000,0.000000,0.000000,0.000000,0.000000,7.840207,2.425941,-0.507384
1649344572.032935,5397.000000,1649344572.032671,0.000000,0.000000,1.000000,0.000000,0.000000,0.000000,0.000000,7.839587,2.426640,-0.508051
1649344572.133723,5398.000000,1649344572.133061,0.000000,0.000000,1.000000,0.000000,0.000000,0.000000,0.000000,7.838975,2.428437,-0.508807
1649344572.233418,5399.000000,1649344572.233010,0.000000,0.000000,1.000000,0.000000,0.000000,0.000000,0.000000,7.839463,2.430174,-0.510448
1649344572.333063,5400.000000,1649344572.332857,0.000000,0.000000,1.000000,0.000000,0.000000,0.000000,0.000000,7.845354,2.424213,-0.481480
1649344572.438742,5401.000000,1649344572.436121,0.000000,0.000000,1.000000,0.000000,0.000000,0.000000,0.000000,7.849792,2.420805,-0.457051
1649344572.537627,5402.000000,1649344572.536723,0.000000,0.000000,1.000000,0.000000,0.000000,0.000000,0.000000,7.852847,2.418728,-0.452337
1649344572.635841,5403.000000,1649344572.635090,0.000000,0.000000,1.000000,0.000000,0.000000,0.000000,0.000000,7.854586,2.416823,-0.462512
1649344572.732431,5404.000000,1649344572.732212,0.000000,0.000000,1.000000,0.000000,0.000000,0.000000,0.000000,7.855079,2.417263,-0.461950
1649344572.834501,5405.000000,1649344572.833798,0.000000,0.000000,1.000000,0.000000,0.000000,0.000000,0.000000,7.854396,2.416645,-0.475272
1649344572.934775,5406.000000,1649344572.934055,0.000000,0.000000,1.000000,0.000000,0.000000,0.000000,0.000000,7.852606,2.416115,-0.498664
1649344573.032377,5407.000000,1649344573.032144,0.000000,0.000000,1.000000,0.000000,0.000000,0.000000,0.000000,7.851960,2.417848,-0.513126
1649344573.134017,5408.000000,1649344573.133422,0.000000,0.000000,1.000000,0.000000,0.000000,0.000000,0.000000,7.860032,2.410809,-0.490765
1649344573.233288,5409.000000,1649344573.232747,0.000000,0.000000,1.000000,0.000000,0.000000,0.000000,0.000000,7.863240,2.406398,-0.469391
1649344573.336271,5410.000000,1649344573.335652,0.000000,0.000000,1.000000,0.000000,0.000000,0.000000,0.000000,7.865113,2.405574,-0.450610
1649344573.432455,5411.000000,1649344573.432249,0.000000,0.000000,1.000000,0.000000,0.000000,0.000000,0.000000,7.865722,2.407047,-0.448861
1649344573.534086,5412.000000,1649344573.533371,0.000000,0.000000,1.000000,0.000000,0.000000,0.000000,0.000000,7.870590,2.403053,-0.415066
1649344573.638019,5413.000000,1649344573.637312,0.000000,0.000000,1.000000,0.000000,0.000000,0.000000,0.000000,7.872932,2.401530,-0.390084
1649344573.733874,5414.000000,1649344573.733486,0.000000,0.000000,1.000000,0.000000,0.000000,0.000000,0.000000,7.875062,2.401254,-0.374402
1649344573.834123,5415.000000,1649344573.833595,0.000000,0.000000,1.000000,0.000000,0.000000,0.000000,0.000000,7.881354,2.394520,-0.340242
1649344573.933320,5416.000000,1649344573.932846,0.000000,0.000000,1.000000,0.000000,0.000000,0.000000,0.000000,7.885021,2.391512,-0.315816
1649344574.033206,5417.000000,1649344574.032826,0.000000,0.000000,1.000000,0.000000,0.000000,0.000000,0.000000,7.886202,2.389850,-0.304792
1649344574.135693,5418.000000,1649344574.134976,0.000000,0.000000,1.000000,0.000000,0.000000,0.000000,0.000000,7.886125,2.390550,-0.292927
1649344574.232715,5419.000000,1649344574.232497,0.000000,0.000000,1.000000,0.000000,0.000000,0.000000,0.000000,7.884865,2.392387,-0.287518
1649344574.333279,5420.000000,1649344574.333106,0.000000,0.000000,1.000000,0.000000,0.000000,0.000000,0.000000,7.882495,2.395288,-0.286688
1649344574.432543,5421.000000,1649344574.432243,0.000000,0.000000,1.000000,0.000000,0.000000,0.000000,0.000000,7.880179,2.397001,-0.303143
1649344574.533134,5422.000000,1649344574.532965,0.000000,0.000000,1.000000,0.000000,0.000000,0.000000,0.000000,7.876835,2.399762,-0.315177
1649344574.634189,5423.000000,1649344574.633619,0.000000,0.000000,1.000000,0.000000,0.000000,0.000000,0.000000,7.874715,2.403503,-0.329388
1649344574.733009,5424.000000,1649344574.732731,0.000000,0.000000,1.000000,0.000000,0.000000,0.000000,0.000000,7.871579,2.405975,-0.355332
1649344574.834585,5425.000000,1649344574.834131,0.000000,0.000000,1.000000,0.000000,0.000000,0.000000,0.000000,7.868587,2.408328,-0.377160
1649344574.934290,5426.000000,1649344574.933791,0.000000,0.000000,1.000000,0.000000,0.000000,0.000000,0.000000,7.865741,2.410562,-0.407091
1649344575.035100,5427.000000,1649344575.034611,0.000000,0.000000,1.000000,0.000000,0.000000,0.000000,0.000000,7.863044,2.413764,-0.430227
1649344575.134282,5428.000000,1649344575.133437,0.000000,0.000000,1.000000,0.000000,0.000000,0.000000,0.000000,7.859405,2.416783,-0.449221
1649344575.233418,5429.000000,1649344575.232994,0.000000,0.000000,1.000000,0.000000,0.000000,0.000000,0.000000,7.855978,2.418528,-0.477108
1649344575.334198,5430.000000,1649344575.333394,0.000000,0.000000,1.000000,0.000000,0.000000,0.000000,0.000000,7.852762,2.420155,-0.495743
1649344575.433300,5431.000000,1649344575.432889,0.000000,0.000000,1.000000,0.000000,0.000000,0.000000,0.000000,7.849752,2.422757,-0.507081
1649344575.534277,5432.000000,1649344575.533597,0.000000,0.000000,1.000000,0.000000,0.000000,0.000000,0.000000,7.848037,2.425183,-0.517854
1649344575.632814,5433.000000,1649344575.632620,0.000000,0.000000,1.000000,0.000000,0.000000,0.000000,0.000000,7.845368,2.428529,-0.526458
1649344575.734213,5434.000000,1649344575.733277,0.000000,0.000000,1.000000,0.000000,0.000000,0.000000,0.000000,7.843984,2.428374,-0.546680
1649344575.832756,5435.000000,1649344575.832428,0.000000,0.000000,1.000000,0.000000,0.000000,0.000000,0.000000,7.841635,2.429273,-0.554637
1649344575.933429,5436.000000,1649344575.932901,0.000000,0.000000,1.000000,0.000000,0.000000,0.000000,0.000000,7.840560,2.431170,-0.574202
1649344576.032186,5437.000000,1649344576.032046,0.000000,0.000000,1.000000,0.000000,0.000000,0.000000,0.000000,7.839598,2.432915,-0.591172
1649344576.134953,5438.000000,1649344576.134264,0.000000,0.000000,1.000000,0.000000,0.000000,0.000000,0.000000,7.837653,2.434514,-0.597567
1649344576.232858,5439.000000,1649344576.232501,0.000000,0.000000,1.000000,0.000000,0.000000,0.000000,0.000000,7.835872,2.435974,-0.597844
1649344576.333103,5440.000000,1649344576.332615,0.000000,0.000000,1.000000,0.000000,0.000000,0.000000,0.000000,7.833158,2.438390,-0.589031
1649344576.432604,5441.000000,1649344576.432335,0.000000,0.000000,1.000000,0.000000,0.000000,0.000000,0.000000,7.830657,2.441706,-0.580389
1649344576.533805,5442.000000,1649344576.533355,0.000000,0.000000,1.000000,0.000000,0.000000,0.000000,0.000000,7.828362,2.444776,-0.571128
1649344576.634532,5443.000000,1649344576.634016,0.000000,0.000000,1.000000,0.000000,0.000000,0.000000,0.000000,7.832807,2.439974,-0.530650
1649344576.732516,5444.000000,1649344576.732343,0.000000,0.000000,1.000000,0.000000,0.000000,0.000000,0.000000,7.837064,2.436471,-0.514320
1649344576.833291,5445.000000,1649344576.832901,0.000000,0.000000,1.000000,0.000000,0.000000,0.000000,0.000000,7.840036,2.434212,-0.505066
1649344576.933224,5446.000000,1649344576.932891,0.000000,0.000000,1.000000,0.000000,0.000000,0.000000,0.000000,7.841783,2.434227,-0.490523
1649344577.033860,5447.000000,1649344577.033210,0.000000,0.000000,1.000000,0.000000,0.000000,0.000000,0.000000,7.842364,2.435304,-0.476574
1649344577.136121,5448.000000,1649344577.135182,0.000000,0.000000,1.000000,0.000000,0.000000,0.000000,0.000000,7.841838,2.436294,-0.462414
1649344577.235073,5449.000000,1649344577.234124,0.000000,0.000000,1.000000,0.000000,0.000000,0.000000,0.000000,7.840269,2.438289,-0.445652
1649344577.336520,5450.000000,1649344577.335717,0.000000,0.000000,1.000000,0.000000,0.000000,0.000000,0.000000,7.837715,2.440140,-0.432873
1649344577.436736,5451.000000,1649344577.435932,0.000000,0.000000,1.000000,0.000000,0.000000,0.000000,0.000000,7.835328,2.442942,-0.415869
1649344577.534240,5452.000000,1649344577.533280,0.000000,0.000000,1.000000,0.000000,0.000000,0.000000,0.000000,7.833105,2.444455,-0.419029
1649344577.632745,5453.000000,1649344577.632521,0.000000,0.000000,1.000000,0.000000,0.000000,0.000000,0.000000,7.832133,2.445839,-0.418143
1649344577.736145,5454.000000,1649344577.735556,0.000000,0.000000,1.000000,0.000000,0.000000,0.000000,0.000000,7.831253,2.447097,-0.423047
1649344577.833582,5455.000000,1649344577.833022,0.000000,0.000000,1.000000,0.000000,0.000000,0.000000,0.000000,7.830461,2.447146,-0.441561
1649344577.934318,5456.000000,1649344577.933888,0.000000,0.000000,1.000000,0.000000,0.000000,0.000000,0.000000,7.829752,2.447145,-0.468260
1649344578.033363,5457.000000,1649344578.033011,0.000000,0.000000,1.000000,0.000000,0.000000,0.000000,0.000000,7.830213,2.448190,-0.488252
1649344578.132752,5458.000000,1649344578.132478,0.000000,0.000000,1.000000,0.000000,0.000000,0.000000,0.000000,7.830685,2.448041,-0.516288
1649344578.236560,5459.000000,1649344578.235602,0.000000,0.000000,1.000000,0.000000,0.000000,0.000000,0.000000,7.831164,2.448949,-0.531837
1649344578.332870,5460.000000,1649344578.332447,0.000000,0.000000,1.000000,0.000000,0.000000,0.000000,0.000000,7.829466,2.449764,-0.536990
1649344578.433127,5461.000000,1649344578.432668,0.000000,0.000000,1.000000,0.000000,0.000000,0.000000,0.000000,7.834436,2.442859,-0.511194
1649344578.533723,5462.000000,1649344578.533146,0.000000,0.000000,1.000000,0.000000,0.000000,0.000000,0.000000,7.836970,2.437402,-0.492035
1649344578.635723,5463.000000,1649344578.634625,0.000000,0.000000,1.000000,0.000000,0.000000,0.000000,0.000000,7.838282,2.433332,-0.481699
1649344578.732604,5464.000000,1649344578.732373,0.000000,0.000000,1.000000,0.000000,0.000000,0.000000,0.000000,7.839524,2.431677,-0.468558
1649344578.832980,5465.000000,1649344578.832736,0.000000,0.000000,1.000000,0.000000,0.000000,0.000000,0.000000,7.839607,2.430128,-0.461618
1649344578.933318,5466.000000,1649344578.933022,0.000000,0.000000,1.000000,0.000000,0.000000,0.000000,0.000000,7.839683,2.429776,-0.459834
1649344579.035638,5467.000000,1649344579.035026,0.000000,0.000000,1.000000,0.000000,0.000000,0.000000,0.000000,7.838663,2.430553,-0.454129
1649344579.134808,5468.000000,1649344579.134239,0.000000,0.000000,1.000000,0.000000,0.000000,0.000000,0.000000,7.836609,2.432396,-0.443861
1649344579.234107,5469.000000,1649344579.233581,0.000000,0.000000,1.000000,0.000000,0.000000,0.000000,0.000000,7.834674,2.434148,-0.441327
1649344579.332981,5470.000000,1649344579.332794,0.000000,0.000000,1.000000,0.000000,0.000000,0.000000,0.000000,7.832858,2.435809,-0.440572
1649344579.435750,5471.000000,1649344579.434660,0.000000,0.000000,1.000000,0.000000,0.000000,0.000000,0.000000,7.831159,2.437379,-0.439104
1649344579.533025,5472.000000,1649344579.532796,0.000000,0.000000,1.000000,0.000000,0.000000,0.000000,0.000000,7.829575,2.437766,-0.453079
1649344579.636037,5473.000000,1649344579.634409,0.000000,0.000000,1.000000,0.000000,0.000000,0.000000,0.000000,7.828104,2.439215,-0.464108
1649344579.732755,5474.000000,1649344579.732423,0.000000,0.000000,1.000000,0.000000,0.000000,0.000000,0.000000,7.826742,2.440574,-0.468257
1649344579.832601,5475.000000,1649344579.832402,0.000000,0.000000,1.000000,0.000000,0.000000,0.000000,0.000000,7.825486,2.441845,-0.485149
1649344579.933505,5476.000000,1649344579.933012,0.000000,0.000000,1.000000,0.000000,0.000000,0.000000,0.000000,7.825423,2.444118,-0.494889
1649344580.035996,5477.000000,1649344580.034076,0.000000,0.000000,1.000000,0.000000,0.000000,0.000000,0.000000,7.824305,2.446244,-0.500167
1649344580.132969,5478.000000,1649344580.132622,0.000000,0.000000,1.000000,0.000000,0.000000,0.000000,0.000000,7.824372,2.447134,-0.506801
1649344580.234077,5479.000000,1649344580.233394,0.000000,0.000000,1.000000,0.000000,0.000000,0.000000,0.000000,7.823377,2.447945,-0.511501
1649344580.335066,5480.000000,1649344580.334338,0.000000,0.000000,1.000000,0.000000,0.000000,0.000000,0.000000,7.822470,2.448680,-0.511921
1649344580.432881,5481.000000,1649344580.432601,0.000000,0.000000,1.000000,0.000000,0.000000,0.000000,0.000000,7.822736,2.449344,-0.513072
1649344580.541201,5482.000000,1649344580.539570,0.000000,0.000000,1.000000,0.000000,0.000000,0.000000,0.000000,7.821928,2.449939,-0.508476
1649344580.636192,5483.000000,1649344580.633927,0.000000,0.000000,1.000000,0.000000,0.000000,0.000000,0.000000,7.821196,2.451560,-0.504824
1649344580.734817,5484.000000,1649344580.734106,0.000000,0.000000,1.000000,0.000000,0.000000,0.000000,0.000000,7.820537,2.453058,-0.502894
1649344580.834010,5485.000000,1649344580.833576,0.000000,0.000000,1.000000,0.000000,0.000000,0.000000,0.000000,7.819946,2.454436,-0.497782
1649344580.936396,5486.000000,1649344580.935509,0.000000,0.000000,1.000000,0.000000,0.000000,0.000000,0.000000,7.819420,2.455699,-0.508982
1649344581.034697,5487.000000,1649344581.034092,0.000000,0.000000,1.000000,0.000000,0.000000,0.000000,0.000000,7.818955,2.455760,-0.521301
1649344581.135960,5488.000000,1649344581.135481,0.000000,0.000000,1.000000,0.000000,0.000000,0.000000,0.000000,7.825089,2.449237,-0.502419
1649344581.232800,5489.000000,1649344581.232579,0.000000,0.000000,1.000000,0.000000,0.000000,0.000000,0.000000,7.829810,2.445233,-0.483464
1649344581.333453,5490.000000,1649344581.333019,0.000000,0.000000,1.000000,0.000000,0.000000,0.000000,0.000000,7.832088,2.441443,-0.475765
1649344581.433434,5491.000000,1649344581.433150,0.000000,0.000000,1.000000,0.000000,0.000000,0.000000,0.000000,7.833140,2.438960,-0.465976
1649344581.533038,5492.000000,1649344581.532747,0.000000,0.000000,1.000000,0.000000,0.000000,0.000000,0.000000,7.833030,2.437718,-0.453392
1649344581.632488,5493.000000,1649344581.632281,0.000000,0.000000,1.000000,0.000000,0.000000,0.000000,0.000000,7.834004,2.436563,-0.447016
1649344581.733065,5494.000000,1649344581.732807,0.000000,0.000000,1.000000,0.000000,0.000000,0.000000,0.000000,7.833819,2.434402,-0.455476
1649344581.835451,5495.000000,1649344581.834550,0.000000,0.000000,1.000000,0.000000,0.000000,0.000000,0.000000,7.833629,2.432387,-0.464449
1649344581.933914,5496.000000,1649344581.933563,0.000000,0.000000,1.000000,0.000000,0.000000,0.000000,0.000000,7.833438,2.431603,-0.467445
1649344582.033844,5497.000000,1649344582.033488,0.000000,0.000000,1.000000,0.000000,0.000000,0.000000,0.000000,7.833246,2.431985,-0.468731
1649344582.134752,5498.000000,1649344582.133967,0.000000,0.000000,1.000000,0.000000,0.000000,0.000000,0.000000,7.831964,2.432376,-0.464340
1649344582.234388,5499.000000,1649344582.233763,0.000000,0.000000,1.000000,0.000000,0.000000,0.000000,0.000000,7.830746,2.433863,-0.460959
1649344582.333393,5500.000000,1649344582.332828,0.000000,0.000000,1.000000,0.000000,0.000000,0.000000,0.000000,7.829594,2.436380,-0.456133
1649344582.433383,5501.000000,1649344582.433113,0.000000,0.000000,1.000000,0.000000,0.000000,0.000000,0.000000,7.828507,2.438770,-0.453153
1649344582.533996,5502.000000,1649344582.533613,0.000000,0.000000,1.000000,0.000000,0.000000,0.000000,0.000000,7.828575,2.439944,-0.464851
1649344582.634841,5503.000000,1649344582.633668,0.000000,0.000000,1.000000,0.000000,0.000000,0.000000,0.000000,7.828645,2.439962,-0.488194
1649344582.733131,5504.000000,1649344582.732761,0.000000,0.000000,1.000000,0.000000,0.000000,0.000000,0.000000,7.828716,2.438888,-0.519447
1649344582.834012,5505.000000,1649344582.833378,0.000000,0.000000,1.000000,0.000000,0.000000,0.000000,0.000000,7.828787,2.440056,-0.543723
1649344582.933758,5506.000000,1649344582.933265,0.000000,0.000000,1.000000,0.000000,0.000000,0.000000,0.000000,7.828858,2.441159,-0.555620
1649344583.033898,5507.000000,1649344583.033424,0.000000,0.000000,1.000000,0.000000,0.000000,0.000000,0.000000,7.828928,2.442198,-0.575782
1649344583.132571,5508.000000,1649344583.132339,0.000000,0.000000,1.000000,0.000000,0.000000,0.000000,0.000000,7.827907,2.443172,-0.591750
1649344583.233927,5509.000000,1649344583.233640,0.000000,0.000000,1.000000,0.000000,0.000000,0.000000,0.000000,7.828038,2.444084,-0.602061
1649344583.333248,5510.000000,1649344583.332656,0.000000,0.000000,1.000000,0.000000,0.000000,0.000000,0.000000,7.828167,2.443842,-0.622255
1649344583.434514,5511.000000,1649344583.433572,0.000000,0.000000,1.000000,0.000000,0.000000,0.000000,0.000000,7.833746,2.435970,-0.600293
1649344583.532997,5512.000000,1649344583.532529,0.000000,0.000000,1.000000,0.000000,0.000000,0.000000,0.000000,7.846640,2.420909,-0.549212
1649344583.634127,5513.000000,1649344583.633670,0.000000,0.000000,1.000000,0.000000,0.000000,0.000000,0.000000,7.856598,2.410000,-0.525923
1649344583.733828,5514.000000,1649344583.733445,0.000000,0.000000,1.000000,0.000000,0.000000,0.000000,0.000000,7.861570,2.403049,-0.503544
1649344583.833716,5515.000000,1649344583.833102,0.000000,0.000000,1.000000,0.000000,0.000000,0.000000,0.000000,7.865088,2.398765,-0.500624
1649344583.932753,5516.000000,1649344583.932542,0.000000,0.000000,1.000000,0.000000,0.000000,0.000000,0.000000,7.866136,2.395921,-0.491385
1649344584.035228,5517.000000,1649344584.034792,0.000000,0.000000,1.000000,0.000000,0.000000,0.000000,0.000000,7.865941,2.396620,-0.482546
1649344584.132551,5518.000000,1649344584.132347,0.000000,0.000000,1.000000,0.000000,0.000000,0.000000,0.000000,7.866757,2.396300,-0.490236
1649344584.234694,5519.000000,1649344584.233810,0.000000,0.000000,1.000000,0.000000,0.000000,0.000000,0.000000,7.866352,2.398282,-0.488773
1649344584.335081,5520.000000,1649344584.334641,0.000000,0.000000,1.000000,0.000000,0.000000,0.000000,0.000000,7.864797,2.401338,-0.481753
1649344584.437676,5521.000000,1649344584.436655,0.000000,0.000000,1.000000,0.000000,0.000000,0.000000,0.000000,7.863255,2.404304,-0.479089
1649344584.536766,5522.000000,1649344584.536204,0.000000,0.000000,1.000000,0.000000,0.000000,0.000000,0.000000,7.860645,2.409352,-0.476574
1649344584.635300,5523.000000,1649344584.634708,0.000000,0.000000,1.000000,0.000000,0.000000,0.000000,0.000000,7.863579,2.406536,-0.439529
1649344584.733354,5524.000000,1649344584.733059,0.000000,0.000000,1.000000,0.000000,0.000000,0.000000,0.000000,7.865206,2.405013,-0.427469
1649344584.834087,5525.000000,1649344584.833703,0.000000,0.000000,1.000000,0.000000,0.000000,0.000000,0.000000,7.869957,2.399263,-0.394244
