__time,/dwm1001/id_458E/pose_kf/header/seq,/dwm1001/id_458E/pose_kf/header/stamp,/dwm1001/id_458E/pose_kf/pose/orientation/pitch_deg,/dwm1001/id_458E/pose_kf/pose/orientation/roll_deg,/dwm1001/id_458E/pose_kf/pose/orientation/w,/dwm1001/id_458E/pose_kf/pose/orientation/x,/dwm1001/id_458E/pose_kf/pose/orientation/y,/dwm1001/id_458E/pose_kf/pose/orientation/yaw_deg,/dwm1001/id_458E/pose_kf/pose/orientation/z,/dwm1001/id_458E/pose_kf/pose/position/x,/dwm1001/id_458E/pose_kf/pose/position/y,/dwm1001/id_458E/pose_kf/pose/position/z
1649352198.822576,19324.000000,1649352198.822456,0.000000,0.000000,1.000000,0.000000,0.000000,0.000000,0.000000,4.497829,19.840689,-0.767132
1649352198.922267,19325.000000,1649352198.922168,0.000000,0.000000,1.000000,0.000000,0.000000,0.000000,0.000000,4.497480,19.838476,-0.817624
1649352199.022230,19326.000000,1649352199.022120,0.000000,0.000000,1.000000,0.000000,0.000000,0.000000,0.000000,4.490643,19.835298,-0.874754
1649352199.122125,19327.000000,1649352199.121990,0.000000,0.000000,1.000000,0.000000,0.000000,0.000000,0.000000,4.478781,19.832307,-0.936553
1649352199.222165,19328.000000,1649352199.222045,0.000000,0.000000,1.000000,0.000000,0.000000,0.000000,0.000000,4.473106,19.830593,-0.932578
1649352199.322549,19329.000000,1649352199.322412,0.000000,0.000000,1.000000,0.000000,0.000000,0.000000,0.000000,4.461298,19.827908,-0.946955
1649352199.422606,19330.000000,1649352199.422431,0.000000,0.000000,1.000000,0.000000,0.000000,0.000000,0.000000,4.456809,19.824313,-0.977321
1649352199.523114,19331.000000,1649352199.522922,0.000000,0.000000,1.000000,0.000000,0.000000,0.000000,0.000000,4.447252,19.820957,-1.011707
1649352199.622224,19332.000000,1649352199.622133,0.000000,0.000000,1.000000,0.000000,0.000000,0.000000,0.000000,4.441648,19.817835,-1.055553
1649352199.722043,19333.000000,1649352199.721952,0.000000,0.000000,1.000000,0.000000,0.000000,0.000000,0.000000,4.440880,19.818212,-1.047939
1649352199.822120,19334.000000,1649352199.822019,0.000000,0.000000,1.000000,0.000000,0.000000,0.000000,0.000000,4.438135,19.817532,-1.060327
1649352199.922248,19335.000000,1649352199.922106,0.000000,0.000000,1.000000,0.000000,0.000000,0.000000,0.000000,4.433521,19.816942,-1.078201
1649352200.022124,19336.000000,1649352200.022033,0.000000,0.000000,1.000000,0.000000,0.000000,0.000000,0.000000,4.427144,19.816435,-1.111813
1649352200.122519,19337.000000,1649352200.122415,0.000000,0.000000,1.000000,0.000000,0.000000,0.000000,0.000000,4.418020,19.814915,-1.154039
1649352200.222203,19338.000000,1649352200.222091,0.000000,0.000000,1.000000,0.000000,0.000000,0.000000,0.000000,4.417222,19.815712,-1.144805
1649352200.322144,19339.000000,1649352200.322028,0.000000,0.000000,1.000000,0.000000,0.000000,0.000000,0.000000,4.419925,19.815420,-1.123321
1649352200.422203,19340.000000,1649352200.422098,0.000000,0.000000,1.000000,0.000000,0.000000,0.000000,0.000000,4.416106,19.814099,-1.123204
1649352200.522166,19341.000000,1649352200.522058,0.000000,0.000000,1.000000,0.000000,0.000000,0.000000,0.000000,4.415936,19.812897,-1.140387
1649352200.622118,19342.000000,1649352200.622021,0.000000,0.000000,1.000000,0.000000,0.000000,0.000000,0.000000,4.413756,19.811807,-1.170936
1649352200.722137,19343.000000,1649352200.722030,0.000000,0.000000,1.000000,0.000000,0.000000,0.000000,0.000000,4.406401,19.810824,-1.211862
1649352200.822123,19344.000000,1649352200.822019,0.000000,0.000000,1.000000,0.000000,0.000000,0.000000,0.000000,4.402889,19.809944,-1.253825
1649352200.922201,19345.000000,1649352200.922113,0.000000,0.000000,1.000000,0.000000,0.000000,0.000000,0.000000,4.404104,19.811341,-1.255606
1649352201.022162,19346.000000,1649352201.022069,0.000000,0.000000,1.000000,0.000000,0.000000,0.000000,0.000000,4.408684,19.814883,-1.214008
1649352201.122288,19347.000000,1649352201.122145,0.000000,0.000000,1.000000,0.000000,0.000000,0.000000,0.000000,4.414240,19.818260,-1.201034
1649352201.222137,19348.000000,1649352201.222038,0.000000,0.000000,1.000000,0.000000,0.000000,0.000000,0.000000,4.422876,19.820379,-1.202671
1649352201.322126,19349.000000,1649352201.322016,0.000000,0.000000,1.000000,0.000000,0.000000,0.000000,0.000000,4.424576,19.821299,-1.220763
1649352201.422192,19350.000000,1649352201.422078,0.000000,0.000000,1.000000,0.000000,0.000000,0.000000,0.000000,4.416437,19.822174,-1.244956
1649352201.522328,19351.000000,1649352201.522213,0.000000,0.000000,1.000000,0.000000,0.000000,0.000000,0.000000,4.416463,19.821912,-1.279015
1649352201.622392,19352.000000,1649352201.622283,0.000000,0.000000,1.000000,0.000000,0.000000,0.000000,0.000000,4.423113,19.823848,-1.259598
1649352201.723083,19353.000000,1649352201.722915,0.000000,0.000000,1.000000,0.000000,0.000000,0.000000,0.000000,4.432731,19.824584,-1.262303
1649352201.822166,19354.000000,1649352201.822056,0.000000,0.000000,1.000000,0.000000,0.000000,0.000000,0.000000,4.438578,19.825273,-1.262863
1649352201.922597,19355.000000,1649352201.922322,0.000000,0.000000,1.000000,0.000000,0.000000,0.000000,0.000000,4.436478,19.824827,-1.279125
1649352202.022529,19356.000000,1649352202.022370,0.000000,0.000000,1.000000,0.000000,0.000000,0.000000,0.000000,4.437775,19.825490,-1.304800
1649352202.122416,19357.000000,1649352202.122262,0.000000,0.000000,1.000000,0.000000,0.000000,0.000000,0.000000,4.433555,19.827199,-1.281417
1649352202.222387,19358.000000,1649352202.222245,0.000000,0.000000,1.000000,0.000000,0.000000,0.000000,0.000000,4.433946,19.829892,-1.227948
1649352202.322361,19359.000000,1649352202.322249,0.000000,0.000000,1.000000,0.000000,0.000000,0.000000,0.000000,4.431061,19.831328,-1.203776
1649352202.422396,19360.000000,1649352202.422265,0.000000,0.000000,1.000000,0.000000,0.000000,0.000000,0.000000,4.432720,19.832662,-1.202129
1649352202.522108,19361.000000,1649352202.522003,0.000000,0.000000,1.000000,0.000000,0.000000,0.000000,0.000000,4.437577,19.834988,-1.164852
1649352202.622477,19362.000000,1649352202.622370,0.000000,0.000000,1.000000,0.000000,0.000000,0.000000,0.000000,4.439992,19.836063,-1.129744
1649352202.722254,19363.000000,1649352202.722120,0.000000,0.000000,1.000000,0.000000,0.000000,0.000000,0.000000,4.450991,19.838137,-1.043557
1649352202.822470,19364.000000,1649352202.822351,0.000000,0.000000,1.000000,0.000000,0.000000,0.000000,0.000000,4.461352,19.840059,-0.935112
1649352202.922783,19365.000000,1649352202.922640,0.000000,0.000000,1.000000,0.000000,0.000000,0.000000,0.000000,4.474349,19.840744,-0.876455
1649352203.022331,19366.000000,1649352203.022218,0.000000,0.000000,1.000000,0.000000,0.000000,0.000000,0.000000,4.484350,19.843530,-0.785829
1649352203.122324,19367.000000,1649352203.122191,0.000000,0.000000,1.000000,0.000000,0.000000,0.000000,0.000000,4.493674,19.847206,-0.678372
1649352203.222421,19368.000000,1649352203.222303,0.000000,0.000000,1.000000,0.000000,0.000000,0.000000,0.000000,4.495793,19.850625,-0.617019
1649352203.322366,19369.000000,1649352203.322244,0.000000,0.000000,1.000000,0.000000,0.000000,0.000000,0.000000,4.500916,19.854883,-0.540314
1649352203.422568,19370.000000,1649352203.422423,0.000000,0.000000,1.000000,0.000000,0.000000,0.000000,0.000000,4.500148,19.857745,-0.492522
1649352203.522617,19371.000000,1649352203.522381,0.000000,0.000000,1.000000,0.000000,0.000000,0.000000,0.000000,4.503636,19.861462,-0.424944
1649352203.622546,19372.000000,1649352203.622347,0.000000,0.000000,1.000000,0.000000,0.000000,0.000000,0.000000,4.502422,19.864891,-0.377166
1649352203.722377,19373.000000,1649352203.722234,0.000000,0.000000,1.000000,0.000000,0.000000,0.000000,0.000000,4.500046,19.866950,-0.360527
1649352203.822290,19374.000000,1649352203.822161,0.000000,0.000000,1.000000,0.000000,0.000000,0.000000,0.000000,4.505310,19.869895,-0.297952
1649352203.922271,19375.000000,1649352203.922147,0.000000,0.000000,1.000000,0.000000,0.000000,0.000000,0.000000,4.510155,19.873672,-0.201036
1649352204.022315,19376.000000,1649352204.022203,0.000000,0.000000,1.000000,0.000000,0.000000,0.000000,0.000000,4.516777,19.874960,-0.139025
1649352204.122500,19377.000000,1649352204.122344,0.000000,0.000000,1.000000,0.000000,0.000000,0.000000,0.000000,4.515254,19.874985,-0.118633
1649352204.222460,19378.000000,1649352204.222322,0.000000,0.000000,1.000000,0.000000,0.000000,0.000000,0.000000,4.515856,19.873823,-0.104296
1649352204.322706,19379.000000,1649352204.322511,0.000000,0.000000,1.000000,0.000000,0.000000,0.000000,0.000000,4.513021,19.871547,-0.123969
1649352204.422590,19380.000000,1649352204.422483,0.000000,0.000000,1.000000,0.000000,0.000000,0.000000,0.000000,4.511315,19.871502,-0.104424
1649352204.522441,19381.000000,1649352204.522331,0.000000,0.000000,1.000000,0.000000,0.000000,0.000000,0.000000,4.505237,19.871390,-0.104487
1649352204.622342,19382.000000,1649352204.622233,0.000000,0.000000,1.000000,0.000000,0.000000,0.000000,0.000000,4.502682,19.872308,-0.070097
1649352204.722448,19383.000000,1649352204.722341,0.000000,0.000000,1.000000,0.000000,0.000000,0.000000,0.000000,4.502380,19.870931,-0.073625
1649352204.822473,19384.000000,1649352204.822268,0.000000,0.000000,1.000000,0.000000,0.000000,0.000000,0.000000,4.494401,19.868482,-0.103008
1649352204.922225,19385.000000,1649352204.922104,0.000000,0.000000,1.000000,0.000000,0.000000,0.000000,0.000000,4.493366,19.863940,-0.157921
1649352205.022209,19386.000000,1649352205.022094,0.000000,0.000000,1.000000,0.000000,0.000000,0.000000,0.000000,4.492360,19.859617,-0.226717
1649352205.122297,19387.000000,1649352205.122184,0.000000,0.000000,1.000000,0.000000,0.000000,0.000000,0.000000,4.493566,19.855515,-0.295786
1649352205.222176,19388.000000,1649352205.222077,0.000000,0.000000,1.000000,0.000000,0.000000,0.000000,0.000000,4.499043,19.851638,-0.377070
1649352205.322135,19389.000000,1649352205.322020,0.000000,0.000000,1.000000,0.000000,0.000000,0.000000,0.000000,4.505271,19.846894,-0.459434
1649352205.422138,19390.000000,1649352205.422052,0.000000,0.000000,1.000000,0.000000,0.000000,0.000000,0.000000,4.510011,19.843525,-0.537037
1649352205.522083,19391.000000,1649352205.521999,0.000000,0.000000,1.000000,0.000000,0.000000,0.000000,0.000000,4.514423,19.841466,-0.547027
1649352205.622054,19392.000000,1649352205.621966,0.000000,0.000000,1.000000,0.000000,0.000000,0.000000,0.000000,4.520695,19.839560,-0.555823
1649352205.722174,19393.000000,1649352205.722061,0.000000,0.000000,1.000000,0.000000,0.000000,0.000000,0.000000,4.525441,19.839982,-0.528778
1649352205.822150,19394.000000,1649352205.822031,0.000000,0.000000,1.000000,0.000000,0.000000,0.000000,0.000000,4.530913,19.839330,-0.520609
1649352205.922619,19395.000000,1649352205.922467,0.000000,0.000000,1.000000,0.000000,0.000000,0.000000,0.000000,4.534882,19.838754,-0.544278
1649352206.022179,19396.000000,1649352206.022080,0.000000,0.000000,1.000000,0.000000,0.000000,0.000000,0.000000,4.540694,19.837158,-0.558942
1649352206.122107,19397.000000,1649352206.122004,0.000000,0.000000,1.000000,0.000000,0.000000,0.000000,0.000000,4.548238,19.837872,-0.537519
1649352206.222197,19398.000000,1649352206.222095,0.000000,0.000000,1.000000,0.000000,0.000000,0.000000,0.000000,4.553041,19.838584,-0.550050
1649352206.322076,19399.000000,1649352206.321970,0.000000,0.000000,1.000000,0.000000,0.000000,0.000000,0.000000,4.556336,19.838200,-0.586272
1649352206.422227,19400.000000,1649352206.422097,0.000000,0.000000,1.000000,0.000000,0.000000,0.000000,0.000000,4.552753,19.837870,-0.609685
1649352206.522605,19401.000000,1649352206.522406,0.000000,0.000000,1.000000,0.000000,0.000000,0.000000,0.000000,4.551410,19.838679,-0.595768
1649352206.622518,19402.000000,1649352206.622375,0.000000,0.000000,1.000000,0.000000,0.000000,0.000000,0.000000,4.543473,19.837290,-0.611375
1649352206.722770,19403.000000,1649352206.722466,0.000000,0.000000,1.000000,0.000000,0.000000,0.000000,0.000000,4.533695,19.837097,-0.632714
1649352206.822346,19404.000000,1649352206.822216,0.000000,0.000000,1.000000,0.000000,0.000000,0.000000,0.000000,4.521123,19.835854,-0.670810
1649352206.922140,19405.000000,1649352206.922023,0.000000,0.000000,1.000000,0.000000,0.000000,0.000000,0.000000,4.515764,19.833618,-0.701542
1649352207.022216,19406.000000,1649352207.022089,0.000000,0.000000,1.000000,0.000000,0.000000,0.000000,0.000000,4.511793,19.831541,-0.743711
1649352207.122178,19407.000000,1649352207.122067,0.000000,0.000000,1.000000,0.000000,0.000000,0.000000,0.000000,4.514596,19.831798,-0.721793
1649352207.222029,19408.000000,1649352207.221923,0.000000,0.000000,1.000000,0.000000,0.000000,0.000000,0.000000,4.519435,19.833169,-0.665841
1649352207.322155,19409.000000,1649352207.322045,0.000000,0.000000,1.000000,0.000000,0.000000,0.000000,0.000000,4.522911,19.834497,-0.627330
1649352207.422331,19410.000000,1649352207.422199,0.000000,0.000000,1.000000,0.000000,0.000000,0.000000,0.000000,4.530540,19.834687,-0.616114
1649352207.522215,19411.000000,1649352207.522066,0.000000,0.000000,1.000000,0.000000,0.000000,0.000000,0.000000,4.538801,19.833799,-0.614178
1649352207.622160,19412.000000,1649352207.622051,0.000000,0.000000,1.000000,0.000000,0.000000,0.000000,0.000000,4.545457,19.831894,-0.637282
1649352207.722136,19413.000000,1649352207.722005,0.000000,0.000000,1.000000,0.000000,0.000000,0.000000,0.000000,4.553848,19.830122,-0.679541
1649352207.822121,19414.000000,1649352207.822013,0.000000,0.000000,1.000000,0.000000,0.000000,0.000000,0.000000,4.561677,19.828479,-0.726405
1649352207.922371,19415.000000,1649352207.922266,0.000000,0.000000,1.000000,0.000000,0.000000,0.000000,0.000000,4.563505,19.825872,-0.782453
1649352208.022603,19416.000000,1649352208.022474,0.000000,0.000000,1.000000,0.000000,0.000000,0.000000,0.000000,4.557478,19.823449,-0.840777
1649352208.122443,19417.000000,1649352208.122303,0.000000,0.000000,1.000000,0.000000,0.000000,0.000000,0.000000,4.554956,19.821206,-0.906039
1649352208.222165,19418.000000,1649352208.222056,0.000000,0.000000,1.000000,0.000000,0.000000,0.000000,0.000000,4.550307,19.822408,-0.914961
1649352208.322265,19419.000000,1649352208.322141,0.000000,0.000000,1.000000,0.000000,0.000000,0.000000,0.000000,4.548030,19.823589,-0.943207
1649352208.422647,19420.000000,1649352208.422481,0.000000,0.000000,1.000000,0.000000,0.000000,0.000000,0.000000,4.546915,19.824745,-0.983517
1649352208.522219,19421.000000,1649352208.522094,0.000000,0.000000,1.000000,0.000000,0.000000,0.000000,0.000000,4.547996,19.824781,-1.001488
1649352208.622157,19422.000000,1649352208.622052,0.000000,0.000000,1.000000,0.000000,0.000000,0.000000,0.000000,4.552243,19.827026,-0.961723
1649352208.722293,19423.000000,1649352208.722189,0.000000,0.000000,1.000000,0.000000,0.000000,0.000000,0.000000,4.550749,19.829171,-0.947284
1649352208.822167,19424.000000,1649352208.822062,0.000000,0.000000,1.000000,0.000000,0.000000,0.000000,0.000000,4.543836,19.830123,-0.931389
1649352208.922181,19425.000000,1649352208.922076,0.000000,0.000000,1.000000,0.000000,0.000000,0.000000,0.000000,4.531823,19.828852,-0.938335
1649352209.022428,19426.000000,1649352209.022321,0.000000,0.000000,1.000000,0.000000,0.000000,0.000000,0.000000,4.527022,19.827665,-0.965592
1649352209.122504,19427.000000,1649352209.122348,0.000000,0.000000,1.000000,0.000000,0.000000,0.000000,0.000000,4.525782,19.825468,-1.005860
1649352209.222161,19428.000000,1649352209.222039,0.000000,0.000000,1.000000,0.000000,0.000000,0.000000,0.000000,4.521370,19.823413,-1.027112
1649352209.322369,19429.000000,1649352209.322247,0.000000,0.000000,1.000000,0.000000,0.000000,0.000000,0.000000,4.518332,19.821498,-1.064775
1649352209.422397,19430.000000,1649352209.422296,0.000000,0.000000,1.000000,0.000000,0.000000,0.000000,0.000000,4.517690,19.818629,-1.111692
1649352209.522475,19431.000000,1649352209.522327,0.000000,0.000000,1.000000,0.000000,0.000000,0.000000,0.000000,4.511681,19.817046,-1.157754
1649352209.622415,19432.000000,1649352209.622278,0.000000,0.000000,1.000000,0.000000,0.000000,0.000000,0.000000,4.499523,19.814501,-1.209394
1649352209.722616,19433.000000,1649352209.722389,0.000000,0.000000,1.000000,0.000000,0.000000,0.000000,0.000000,4.485947,19.811052,-1.265520
1649352209.822470,19434.000000,1649352209.822371,0.000000,0.000000,1.000000,0.000000,0.000000,0.000000,0.000000,4.477608,19.808937,-1.294433
1649352209.922219,19435.000000,1649352209.922099,0.000000,0.000000,1.000000,0.000000,0.000000,0.000000,0.000000,4.472060,19.808086,-1.325437
1649352210.022254,19436.000000,1649352210.022144,0.000000,0.000000,1.000000,0.000000,0.000000,0.000000,0.000000,4.473520,19.807341,-1.336656
1649352210.122396,19437.000000,1649352210.122251,0.000000,0.000000,1.000000,0.000000,0.000000,0.000000,0.000000,4.479413,19.808874,-1.300674
1649352210.222387,19438.000000,1649352210.222257,0.000000,0.000000,1.000000,0.000000,0.000000,0.000000,0.000000,4.486197,19.811463,-1.239650
1649352210.322361,19439.000000,1649352210.322259,0.000000,0.000000,1.000000,0.000000,0.000000,0.000000,0.000000,4.489435,19.815040,-1.152305
1649352210.422376,19440.000000,1649352210.422244,0.000000,0.000000,1.000000,0.000000,0.000000,0.000000,0.000000,4.493665,19.818447,-1.106001
1649352210.522546,19441.000000,1649352210.522374,0.000000,0.000000,1.000000,0.000000,0.000000,0.000000,0.000000,4.498816,19.820591,-1.063695
1649352210.622451,19442.000000,1649352210.622310,0.000000,0.000000,1.000000,0.000000,0.000000,0.000000,0.000000,4.499366,19.821532,-1.034180
1649352210.722606,19443.000000,1649352210.722452,0.000000,0.000000,1.000000,0.000000,0.000000,0.000000,0.000000,4.502104,19.825696,-0.972644
1649352210.822234,19444.000000,1649352210.822117,0.000000,0.000000,1.000000,0.000000,0.000000,0.000000,0.000000,4.509080,19.829621,-0.885328
1649352210.922450,19445.000000,1649352210.922306,0.000000,0.000000,1.000000,0.000000,0.000000,0.000000,0.000000,4.512408,19.833309,-0.841161
1649352211.022501,19446.000000,1649352211.022396,0.000000,0.000000,1.000000,0.000000,0.000000,0.000000,0.000000,4.514456,19.837854,-0.777991
1649352211.122361,19447.000000,1649352211.122215,0.000000,0.000000,1.000000,0.000000,0.000000,0.000000,0.000000,4.516379,19.842105,-0.688619
1649352211.222491,19448.000000,1649352211.222348,0.000000,0.000000,1.000000,0.000000,0.000000,0.000000,0.000000,4.517087,19.846069,-0.582304
1649352211.322444,19449.000000,1649352211.322335,0.000000,0.000000,1.000000,0.000000,0.000000,0.000000,0.000000,4.512285,19.848660,-0.519570
1649352211.422266,19450.000000,1649352211.422113,0.000000,0.000000,1.000000,0.000000,0.000000,0.000000,0.000000,4.508830,19.851040,-0.496323
1649352211.522333,19451.000000,1649352211.522192,0.000000,0.000000,1.000000,0.000000,0.000000,0.000000,0.000000,4.511023,19.852127,-0.502918
1649352211.622423,19452.000000,1649352211.622251,0.000000,0.000000,1.000000,0.000000,0.000000,0.000000,0.000000,4.517457,19.855262,-0.457467
1649352211.722425,19453.000000,1649352211.722254,0.000000,0.000000,1.000000,0.000000,0.000000,0.000000,0.000000,4.524611,19.859239,-0.370988
1649352211.822386,19454.000000,1649352211.822208,0.000000,0.000000,1.000000,0.000000,0.000000,0.000000,0.000000,4.533514,19.862913,-0.277512
1649352211.922295,19455.000000,1649352211.922184,0.000000,0.000000,1.000000,0.000000,0.000000,0.000000,0.000000,4.539684,19.868474,-0.166155
1649352212.022215,19456.000000,1649352212.022095,0.000000,0.000000,1.000000,0.000000,0.000000,0.000000,0.000000,4.554158,19.868176,-0.108754
1649352212.122110,19457.000000,1649352212.122001,0.000000,0.000000,1.000000,0.000000,0.000000,0.000000,0.000000,4.568811,19.868886,-0.031413
1649352212.222122,19458.000000,1649352212.222020,0.000000,0.000000,1.000000,0.000000,0.000000,0.000000,0.000000,4.575960,19.868372,-0.005987
1649352212.322268,19459.000000,1649352212.322144,0.000000,0.000000,1.000000,0.000000,0.000000,0.000000,0.000000,4.576001,19.866709,0.001076
1649352212.422554,19460.000000,1649352212.422430,0.000000,0.000000,1.000000,0.000000,0.000000,0.000000,0.000000,4.570422,19.863968,-0.025573
1649352212.522399,19461.000000,1649352212.522284,0.000000,0.000000,1.000000,0.000000,0.000000,0.000000,0.000000,4.572641,19.860222,-0.066740
1649352212.622463,19462.000000,1649352212.622284,0.000000,0.000000,1.000000,0.000000,0.000000,0.000000,0.000000,4.565879,19.855541,-0.125757
1649352212.722390,19463.000000,1649352212.722277,0.000000,0.000000,1.000000,0.000000,0.000000,0.000000,0.000000,4.559376,19.851084,-0.201764
1649352212.822195,19464.000000,1649352212.822060,0.000000,0.000000,1.000000,0.000000,0.000000,0.000000,0.000000,4.547694,19.845764,-0.281010
1649352212.922825,19465.000000,1649352212.922651,0.000000,0.000000,1.000000,0.000000,0.000000,0.000000,0.000000,4.544241,19.840736,-0.357556
1649352213.022573,19466.000000,1649352213.022468,0.000000,0.000000,1.000000,0.000000,0.000000,0.000000,0.000000,4.542039,19.837090,-0.441039
1649352213.122236,19467.000000,1649352213.122121,0.000000,0.000000,1.000000,0.000000,0.000000,0.000000,0.000000,4.535577,19.834762,-0.506829
1649352213.222488,19468.000000,1649352213.222379,0.000000,0.000000,1.000000,0.000000,0.000000,0.000000,0.000000,4.526199,19.832595,-0.581327
1649352213.322145,19469.000000,1649352213.322028,0.000000,0.000000,1.000000,0.000000,0.000000,0.000000,0.000000,4.516273,19.830584,-0.664051
1649352213.422122,19470.000000,1649352213.422012,0.000000,0.000000,1.000000,0.000000,0.000000,0.000000,0.000000,4.506950,19.828727,-0.740018
1649352213.522241,19471.000000,1649352213.522128,0.000000,0.000000,1.000000,0.000000,0.000000,0.000000,0.000000,4.501493,19.828107,-0.760991
1649352213.622454,19472.000000,1649352213.622340,0.000000,0.000000,1.000000,0.000000,0.000000,0.000000,0.000000,4.499705,19.827567,-0.801745
1649352213.722483,19473.000000,1649352213.722337,0.000000,0.000000,1.000000,0.000000,0.000000,0.000000,0.000000,4.501384,19.827101,-0.857397
1649352213.822458,19474.000000,1649352213.822332,0.000000,0.000000,1.000000,0.000000,0.000000,0.000000,0.000000,4.498699,19.826704,-0.906300
1649352213.922850,19475.000000,1649352213.922617,0.000000,0.000000,1.000000,0.000000,0.000000,0.000000,0.000000,4.497342,19.825281,-0.966406
1649352214.022378,19476.000000,1649352214.022265,0.000000,0.000000,1.000000,0.000000,0.000000,0.000000,0.000000,4.496149,19.823980,-1.025892
1649352214.122134,19477.000000,1649352214.122024,0.000000,0.000000,1.000000,0.000000,0.000000,0.000000,0.000000,4.488569,19.822795,-1.090354
1649352214.222088,19478.000000,1649352214.221990,0.000000,0.000000,1.000000,0.000000,0.000000,0.000000,0.000000,4.488052,19.821722,-1.132899
1649352214.322337,19479.000000,1649352214.322127,0.000000,0.000000,1.000000,0.000000,0.000000,0.000000,0.000000,4.486576,19.822936,-1.128563
1649352214.422199,19480.000000,1649352214.422064,0.000000,0.000000,1.000000,0.000000,0.000000,0.000000,0.000000,4.476560,19.823035,-1.142988
1649352214.522408,19481.000000,1649352214.522257,0.000000,0.000000,1.000000,0.000000,0.000000,0.000000,0.000000,4.472669,19.823167,-1.151231
1649352214.622277,19482.000000,1649352214.622160,0.000000,0.000000,1.000000,0.000000,0.000000,0.000000,0.000000,4.471303,19.826598,-1.122914
1649352214.722331,19483.000000,1649352214.722178,0.000000,0.000000,1.000000,0.000000,0.000000,0.000000,0.000000,4.474502,19.830956,-1.061203
1649352214.822561,19484.000000,1649352214.822305,0.000000,0.000000,1.000000,0.000000,0.000000,0.000000,0.000000,4.485271,19.836175,-0.961125
1649352214.922142,19485.000000,1649352214.922013,0.000000,0.000000,1.000000,0.000000,0.000000,0.000000,0.000000,4.490074,19.838920,-0.911515
1649352215.022217,19486.000000,1649352215.022081,0.000000,0.000000,1.000000,0.000000,0.000000,0.000000,0.000000,4.492486,19.841498,-0.890276
1649352215.122120,19487.000000,1649352215.122009,0.000000,0.000000,1.000000,0.000000,0.000000,0.000000,0.000000,4.496989,19.846092,-0.837441
1649352215.222227,19488.000000,1649352215.222083,0.000000,0.000000,1.000000,0.000000,0.000000,0.000000,0.000000,4.502362,19.848218,-0.818895
1649352215.322137,19489.000000,1649352215.322031,0.000000,0.000000,1.000000,0.000000,0.000000,0.000000,0.000000,4.508539,19.851277,-0.769584
1649352215.422170,19490.000000,1649352215.422067,0.000000,0.000000,1.000000,0.000000,0.000000,0.000000,0.000000,4.515457,19.853029,-0.757769
1649352215.522481,19491.000000,1649352215.522292,0.000000,0.000000,1.000000,0.000000,0.000000,0.000000,0.000000,4.519783,19.855725,-0.717441
1649352215.622562,19492.000000,1649352215.622417,0.000000,0.000000,1.000000,0.000000,0.000000,0.000000,0.000000,4.517285,19.857126,-0.711913
1649352215.722368,19493.000000,1649352215.722241,0.000000,0.000000,1.000000,0.000000,0.000000,0.000000,0.000000,4.509436,19.859483,-0.655916
1649352215.822356,19494.000000,1649352215.822254,0.000000,0.000000,1.000000,0.000000,0.000000,0.000000,0.000000,4.504187,19.860559,-0.638672
1649352215.922276,19495.000000,1649352215.922135,0.000000,0.000000,1.000000,0.000000,0.000000,0.000000,0.000000,4.502503,19.862604,-0.576380
1649352216.022413,19496.000000,1649352216.022277,0.000000,0.000000,1.000000,0.000000,0.000000,0.000000,0.000000,4.497653,19.863382,-0.555630
1649352216.122541,19497.000000,1649352216.122373,0.000000,0.000000,1.000000,0.000000,0.000000,0.000000,0.000000,4.500727,19.865145,-0.494124
1649352216.222484,19498.000000,1649352216.222335,0.000000,0.000000,1.000000,0.000000,0.000000,0.000000,0.000000,4.502560,19.865656,-0.472628
1649352216.322350,19499.000000,1649352216.322214,0.000000,0.000000,1.000000,0.000000,0.000000,0.000000,0.000000,4.504303,19.864984,-0.484707
1649352216.422239,19500.000000,1649352216.422111,0.000000,0.000000,1.000000,0.000000,0.000000,0.000000,0.000000,4.507045,19.863202,-0.518486
1649352216.522237,19501.000000,1649352216.522103,0.000000,0.000000,1.000000,0.000000,0.000000,0.000000,0.000000,4.500910,19.861468,-0.570596
1649352216.622151,19502.000000,1649352216.622039,0.000000,0.000000,1.000000,0.000000,0.000000,0.000000,0.000000,4.497304,19.859788,-0.613583
1649352216.722311,19503.000000,1649352216.722191,0.000000,0.000000,1.000000,0.000000,0.000000,0.000000,0.000000,4.486286,19.857076,-0.668698
1649352216.822217,19504.000000,1649352216.822085,0.000000,0.000000,1.000000,0.000000,0.000000,0.000000,0.000000,4.482469,19.854489,-0.700677
1649352216.922251,19505.000000,1649352216.922136,0.000000,0.000000,1.000000,0.000000,0.000000,0.000000,0.000000,4.473476,19.850940,-0.744266
1649352217.022307,19506.000000,1649352217.022176,0.000000,0.000000,1.000000,0.000000,0.000000,0.000000,0.000000,4.468334,19.849764,-0.740859
1649352217.123202,19507.000000,1649352217.122792,0.000000,0.000000,1.000000,0.000000,0.000000,0.000000,0.000000,4.465756,19.847565,-0.763327
1649352217.222173,19508.000000,1649352217.222046,0.000000,0.000000,1.000000,0.000000,0.000000,0.000000,0.000000,4.471055,19.848765,-0.723494
1649352217.322164,19509.000000,1649352217.322061,0.000000,0.000000,1.000000,0.000000,0.000000,0.000000,0.000000,4.470695,19.849906,-0.697332
1649352217.422502,19510.000000,1649352217.422292,0.000000,0.000000,1.000000,0.000000,0.000000,0.000000,0.000000,4.472614,19.849896,-0.696431
1649352217.522469,19511.000000,1649352217.522315,0.000000,0.000000,1.000000,0.000000,0.000000,0.000000,0.000000,4.477767,19.850977,-0.664130
1649352217.622390,19512.000000,1649352217.622237,0.000000,0.000000,1.000000,0.000000,0.000000,0.000000,0.000000,4.475054,19.849817,-0.665457
1649352217.722479,19513.000000,1649352217.722334,0.000000,0.000000,1.000000,0.000000,0.000000,0.000000,0.000000,4.475814,19.847631,-0.686149
1649352217.822246,19514.000000,1649352217.822104,0.000000,0.000000,1.000000,0.000000,0.000000,0.000000,0.000000,4.475489,19.845572,-0.724582
1649352217.922576,19515.000000,1649352217.922429,0.000000,0.000000,1.000000,0.000000,0.000000,0.000000,0.000000,4.474138,19.844731,-0.767070
1649352218.022182,19516.000000,1649352218.022050,0.000000,0.000000,1.000000,0.000000,0.000000,0.000000,0.000000,4.467457,19.842861,-0.823864
1649352218.122284,19517.000000,1649352218.122112,0.000000,0.000000,1.000000,0.000000,0.000000,0.000000,0.000000,4.455753,19.841113,-0.883812
1649352218.222493,19518.000000,1649352218.222355,0.000000,0.000000,1.000000,0.000000,0.000000,0.000000,0.000000,4.444786,19.838397,-0.949113
1649352218.322433,19519.000000,1649352218.322302,0.000000,0.000000,1.000000,0.000000,0.000000,0.000000,0.000000,4.434544,19.835860,-0.996065
1649352218.422427,19520.000000,1649352218.422289,0.000000,0.000000,1.000000,0.000000,0.000000,0.000000,0.000000,4.422832,19.833500,-1.049538
1649352218.522458,19521.000000,1649352218.522301,0.000000,0.000000,1.000000,0.000000,0.000000,0.000000,0.000000,4.419571,19.831313,-1.092264
1649352218.622272,19522.000000,1649352218.622140,0.000000,0.000000,1.000000,0.000000,0.000000,0.000000,0.000000,4.419940,19.829293,-1.144786
1649352218.723140,19523.000000,1649352218.722652,0.000000,0.000000,1.000000,0.000000,0.000000,0.000000,0.000000,4.416096,19.827435,-1.198579
1649352218.822491,19524.000000,1649352218.822357,0.000000,0.000000,1.000000,0.000000,0.000000,0.000000,0.000000,4.412633,19.826823,-1.253530
1649352218.922394,19525.000000,1649352218.922287,0.000000,0.000000,1.000000,0.000000,0.000000,0.000000,0.000000,4.413892,19.827388,-1.246623
1649352219.022420,19526.000000,1649352219.022311,0.000000,0.000000,1.000000,0.000000,0.000000,0.000000,0.000000,4.409790,19.827971,-1.240074
1649352219.122406,19527.000000,1649352219.122289,0.000000,0.000000,1.000000,0.000000,0.000000,0.000000,0.000000,4.402802,19.827475,-1.253265
1649352219.222452,19528.000000,1649352219.222283,0.000000,0.000000,1.000000,0.000000,0.000000,0.000000,0.000000,4.399641,19.825960,-1.281375
1649352219.322706,19529.000000,1649352219.322527,0.000000,0.000000,1.000000,0.000000,0.000000,0.000000,0.000000,4.401188,19.824571,-1.295557
1649352219.422467,19530.000000,1649352219.422318,0.000000,0.000000,1.000000,0.000000,0.000000,0.000000,0.000000,4.403901,19.824396,-1.291540
1649352219.522694,19531.000000,1649352219.522417,0.000000,0.000000,1.000000,0.000000,0.000000,0.000000,0.000000,4.408789,19.824276,-1.303156
1649352219.622200,19532.000000,1649352219.622043,0.000000,0.000000,1.000000,0.000000,0.000000,0.000000,0.000000,4.410258,19.825294,-1.316882
1649352219.722207,19533.000000,1649352219.722106,0.000000,0.000000,1.000000,0.000000,0.000000,0.000000,0.000000,4.413935,19.827385,-1.276989
1649352219.822107,19534.000000,1649352219.821970,0.000000,0.000000,1.000000,0.000000,0.000000,0.000000,0.000000,4.419682,19.831571,-1.201058
1649352219.921959,19535.000000,1649352219.921868,0.000000,0.000000,1.000000,0.000000,0.000000,0.000000,0.000000,4.421910,19.836632,-1.087466
1649352220.021992,19536.000000,1649352220.021894,0.000000,0.000000,1.000000,0.000000,0.000000,0.000000,0.000000,4.427344,19.839234,-0.999231
1649352220.122257,19537.000000,1649352220.122108,0.000000,0.000000,1.000000,0.000000,0.000000,0.000000,0.000000,4.439058,19.842773,-0.890328
1649352220.222317,19538.000000,1649352220.222199,0.000000,0.000000,1.000000,0.000000,0.000000,0.000000,0.000000,4.453402,19.843917,-0.799678
1649352220.322382,19539.000000,1649352220.322236,0.000000,0.000000,1.000000,0.000000,0.000000,0.000000,0.000000,4.463644,19.844974,-0.753307
1649352220.422391,19540.000000,1649352220.422266,0.000000,0.000000,1.000000,0.000000,0.000000,0.000000,0.000000,4.475431,19.848129,-0.668850
1649352220.522382,19541.000000,1649352220.522225,0.000000,0.000000,1.000000,0.000000,0.000000,0.000000,0.000000,4.484284,19.851077,-0.569744
1649352220.622334,19542.000000,1649352220.622217,0.000000,0.000000,1.000000,0.000000,0.000000,0.000000,0.000000,4.489251,19.853823,-0.487371
1649352220.722313,19543.000000,1649352220.722167,0.000000,0.000000,1.000000,0.000000,0.000000,0.000000,0.000000,4.494897,19.857461,-0.395365
1649352220.822419,19544.000000,1649352220.822253,0.000000,0.000000,1.000000,0.000000,0.000000,0.000000,0.000000,4.502266,19.859755,-0.324076
1649352220.922327,19545.000000,1649352220.922179,0.000000,0.000000,1.000000,0.000000,0.000000,0.000000,0.000000,4.510160,19.862953,-0.255011
1649352221.022575,19546.000000,1649352221.022427,0.000000,0.000000,1.000000,0.000000,0.000000,0.000000,0.000000,4.518534,19.862638,-0.234931
1649352221.122825,19547.000000,1649352221.122472,0.000000,0.000000,1.000000,0.000000,0.000000,0.000000,0.000000,4.520804,19.861188,-0.247336
1649352221.222136,19548.000000,1649352221.222035,0.000000,0.000000,1.000000,0.000000,0.000000,0.000000,0.000000,4.516216,19.861943,-0.279563
1649352221.322084,19549.000000,1649352221.321979,0.000000,0.000000,1.000000,0.000000,0.000000,0.000000,0.000000,4.516073,19.861514,-0.325878
1649352221.422133,19550.000000,1649352221.422023,0.000000,0.000000,1.000000,0.000000,0.000000,0.000000,0.000000,4.520144,19.858878,-0.368663
1649352221.522128,19551.000000,1649352221.521986,0.000000,0.000000,1.000000,0.000000,0.000000,0.000000,0.000000,4.521652,19.856348,-0.424084
1649352221.622198,19552.000000,1649352221.622060,0.000000,0.000000,1.000000,0.000000,0.000000,0.000000,0.000000,4.524012,19.853927,-0.485867
1649352221.722265,19553.000000,1649352221.722153,0.000000,0.000000,1.000000,0.000000,0.000000,0.000000,0.000000,4.526090,19.850530,-0.521369
1649352221.822212,19554.000000,1649352221.822079,0.000000,0.000000,1.000000,0.000000,0.000000,0.000000,0.000000,4.531174,19.847311,-0.575120
1649352221.922254,19555.000000,1649352221.922133,0.000000,0.000000,1.000000,0.000000,0.000000,0.000000,0.000000,4.534732,19.844272,-0.606766
1649352222.022677,19556.000000,1649352222.022557,0.000000,0.000000,1.000000,0.000000,0.000000,0.000000,0.000000,4.540115,19.841410,-0.657455
1649352222.122397,19557.000000,1649352222.122247,0.000000,0.000000,1.000000,0.000000,0.000000,0.000000,0.000000,4.546128,19.839817,-0.711006
1649352222.222116,19558.000000,1649352222.222013,0.000000,0.000000,1.000000,0.000000,0.000000,0.000000,0.000000,4.544002,19.838336,-0.748660
1649352222.322151,19559.000000,1649352222.322029,0.000000,0.000000,1.000000,0.000000,0.000000,0.000000,0.000000,4.547283,19.835873,-0.766158
1649352222.422526,19560.000000,1649352222.422376,0.000000,0.000000,1.000000,0.000000,0.000000,0.000000,0.000000,4.542590,19.833579,-0.800576
1649352222.522523,19561.000000,1649352222.522395,0.000000,0.000000,1.000000,0.000000,0.000000,0.000000,0.000000,4.535835,19.831449,-0.834243
1649352222.622478,19562.000000,1649352222.622358,0.000000,0.000000,1.000000,0.000000,0.000000,0.000000,0.000000,4.528249,19.829480,-0.866333
1649352222.722487,19563.000000,1649352222.722345,0.000000,0.000000,1.000000,0.000000,0.000000,0.000000,0.000000,4.523178,19.827666,-0.879123
1649352222.822187,19564.000000,1649352222.822073,0.000000,0.000000,1.000000,0.000000,0.000000,0.000000,0.000000,4.520506,19.828182,-0.859670
1649352222.922463,19565.000000,1649352222.922358,0.000000,0.000000,1.000000,0.000000,0.000000,0.000000,0.000000,4.519024,19.829806,-0.805286
1649352223.022153,19566.000000,1649352223.022038,0.000000,0.000000,1.000000,0.000000,0.000000,0.000000,0.000000,4.520856,19.832471,-0.721512
1649352223.122261,19567.000000,1649352223.122131,0.000000,0.000000,1.000000,0.000000,0.000000,0.000000,0.000000,4.517093,19.833929,-0.686295
1649352223.222096,19568.000000,1649352223.221981,0.000000,0.000000,1.000000,0.000000,0.000000,0.000000,0.000000,4.516778,19.837509,-0.625962
1649352223.322216,19569.000000,1649352223.322085,0.000000,0.000000,1.000000,0.000000,0.000000,0.000000,0.000000,4.511002,19.838722,-0.606947
1649352223.422325,19570.000000,1649352223.422202,0.000000,0.000000,1.000000,0.000000,0.000000,0.000000,0.000000,4.507717,19.839874,-0.603415
1649352223.522594,19571.000000,1649352223.522418,0.000000,0.000000,1.000000,0.000000,0.000000,0.000000,0.000000,4.511157,19.838784,-0.607482
1649352223.622419,19572.000000,1649352223.622279,0.000000,0.000000,1.000000,0.000000,0.000000,0.000000,0.000000,4.515495,19.838847,-0.582537
1649352223.722458,19573.000000,1649352223.722263,0.000000,0.000000,1.000000,0.000000,0.000000,0.000000,0.000000,4.519576,19.841092,-0.513653
1649352223.822419,19574.000000,1649352223.822200,0.000000,0.000000,1.000000,0.000000,0.000000,0.000000,0.000000,4.526675,19.841030,-0.466420
1649352223.922206,19575.000000,1649352223.922088,0.000000,0.000000,1.000000,0.000000,0.000000,0.000000,0.000000,4.527884,19.840968,-0.460999
1649352224.022082,19576.000000,1649352224.021972,0.000000,0.000000,1.000000,0.000000,0.000000,0.000000,0.000000,4.530064,19.841998,-0.430375
1649352224.122122,19577.000000,1649352224.122010,0.000000,0.000000,1.000000,0.000000,0.000000,0.000000,0.000000,4.533160,19.844056,-0.376405
1649352224.222182,19578.000000,1649352224.222077,0.000000,0.000000,1.000000,0.000000,0.000000,0.000000,0.000000,4.527301,19.843809,-0.362202
1649352224.322131,19579.000000,1649352224.322019,0.000000,0.000000,1.000000,0.000000,0.000000,0.000000,0.000000,4.521720,19.845745,-0.312779
1649352224.422229,19580.000000,1649352224.422107,0.000000,0.000000,1.000000,0.000000,0.000000,0.000000,0.000000,4.513151,19.847561,-0.295747
1649352224.522164,19581.000000,1649352224.522060,0.000000,0.000000,1.000000,0.000000,0.000000,0.000000,0.000000,4.503966,19.850347,-0.246903
1649352224.622090,19582.000000,1649352224.621981,0.000000,0.000000,1.000000,0.000000,0.000000,0.000000,0.000000,4.499679,19.851862,-0.241781
1649352224.722077,19583.000000,1649352224.721972,0.000000,0.000000,1.000000,0.000000,0.000000,0.000000,0.000000,4.497853,19.852173,-0.244732
1649352224.822275,19584.000000,1649352224.822135,0.000000,0.000000,1.000000,0.000000,0.000000,0.000000,0.000000,4.502719,19.850256,-0.264269
1649352224.922163,19585.000000,1649352224.922058,0.000000,0.000000,1.000000,0.000000,0.000000,0.000000,0.000000,4.508442,19.848420,-0.307732
1649352225.022142,19586.000000,1649352225.021997,0.000000,0.000000,1.000000,0.000000,0.000000,0.000000,0.000000,4.517137,19.844488,-0.348255
1649352225.122212,19587.000000,1649352225.122087,0.000000,0.000000,1.000000,0.000000,0.000000,0.000000,0.000000,4.524252,19.844039,-0.347965
1649352225.222159,19588.000000,1649352225.222055,0.000000,0.000000,1.000000,0.000000,0.000000,0.000000,0.000000,4.528761,19.841432,-0.373011
1649352225.322308,19589.000000,1649352225.322187,0.000000,0.000000,1.000000,0.000000,0.000000,0.000000,0.000000,4.536246,19.841156,-0.360218
1649352225.422123,19590.000000,1649352225.421982,0.000000,0.000000,1.000000,0.000000,0.000000,0.000000,0.000000,4.545434,19.840902,-0.320799
1649352225.522159,19591.000000,1649352225.522038,0.000000,0.000000,1.000000,0.000000,0.000000,0.000000,0.000000,4.555117,19.842852,-0.259915
1649352225.622038,19592.000000,1649352225.621947,0.000000,0.000000,1.000000,0.000000,0.000000,0.000000,0.000000,4.564152,19.845787,-0.186584
1649352225.722331,19593.000000,1649352225.722170,0.000000,0.000000,1.000000,0.000000,0.000000,0.000000,0.000000,4.576915,19.846373,-0.147384
1649352225.822417,19594.000000,1649352225.822273,0.000000,0.000000,1.000000,0.000000,0.000000,0.000000,0.000000,4.589900,19.848009,-0.088562
1649352225.922784,19595.000000,1649352225.922464,0.000000,0.000000,1.000000,0.000000,0.000000,0.000000,0.000000,4.601973,19.850632,-0.014212
1649352226.022606,19596.000000,1649352226.022458,0.000000,0.000000,1.000000,0.000000,0.000000,0.000000,0.000000,4.612067,19.852001,0.058814
1649352226.122211,19597.000000,1649352226.122097,0.000000,0.000000,1.000000,0.000000,0.000000,0.000000,0.000000,4.619181,19.854361,0.135314
1649352226.222175,19598.000000,1649352226.222077,0.000000,0.000000,1.000000,0.000000,0.000000,0.000000,0.000000,4.627832,19.854382,0.155377
1649352226.322149,19599.000000,1649352226.322047,0.000000,0.000000,1.000000,0.000000,0.000000,0.000000,0.000000,4.624838,19.853282,0.132572
1649352226.422136,19600.000000,1649352226.422027,0.000000,0.000000,1.000000,0.000000,0.000000,0.000000,0.000000,4.626123,19.854399,0.141287
1649352226.522326,19601.000000,1649352226.522204,0.000000,0.000000,1.000000,0.000000,0.000000,0.000000,0.000000,4.620562,19.854340,0.110917
1649352226.622522,19602.000000,1649352226.622325,0.000000,0.000000,1.000000,0.000000,0.000000,0.000000,0.000000,4.612920,19.854259,0.075382
1649352226.723140,19603.000000,1649352226.722842,0.000000,0.000000,1.000000,0.000000,0.000000,0.000000,0.000000,4.601164,19.853070,0.020464
1649352226.822520,19604.000000,1649352226.822315,0.000000,0.000000,1.000000,0.000000,0.000000,0.000000,0.000000,4.591019,19.854110,0.005938
1649352226.922413,19605.000000,1649352226.922267,0.000000,0.000000,1.000000,0.000000,0.000000,0.000000,0.000000,4.582434,19.852892,-0.015745
1649352227.021588,19606.000000,1649352227.021462,0.000000,0.000000,1.000000,0.000000,0.000000,0.000000,0.000000,4.574267,19.851726,-0.036983
1649352227.122426,19607.000000,1649352227.122294,0.000000,0.000000,1.000000,0.000000,0.000000,0.000000,0.000000,4.569794,19.851704,-0.086771
1649352227.222446,19608.000000,1649352227.222302,0.000000,0.000000,1.000000,0.000000,0.000000,0.000000,0.000000,4.562287,19.850583,-0.145309
1649352227.322576,19609.000000,1649352227.322420,0.000000,0.000000,1.000000,0.000000,0.000000,0.000000,0.000000,4.557387,19.851698,-0.160523
1649352227.422460,19610.000000,1649352227.422355,0.000000,0.000000,1.000000,0.000000,0.000000,0.000000,0.000000,4.546245,19.850563,-0.205092
1649352227.522631,19611.000000,1649352227.522419,0.000000,0.000000,1.000000,0.000000,0.000000,0.000000,0.000000,4.540136,19.851667,-0.192269
1649352227.622329,19612.000000,1649352227.622189,0.000000,0.000000,1.000000,0.000000,0.000000,0.000000,0.000000,4.537711,19.853793,-0.138902
1649352227.722356,19613.000000,1649352227.722165,0.000000,0.000000,1.000000,0.000000,0.000000,0.000000,0.000000,4.536593,19.853608,-0.120907
1649352227.822108,19614.000000,1649352227.821998,0.000000,0.000000,1.000000,0.000000,0.000000,0.000000,0.000000,4.535618,19.853420,-0.143335
1649352227.922478,19615.000000,1649352227.922359,0.000000,0.000000,1.000000,0.000000,0.000000,0.000000,0.000000,4.532597,19.852142,-0.189993
1649352228.022085,19616.000000,1649352228.021968,0.000000,0.000000,1.000000,0.000000,0.000000,0.000000,0.000000,4.533096,19.849836,-0.225143
1649352228.122157,19617.000000,1649352228.122035,0.000000,0.000000,1.000000,0.000000,0.000000,0.000000,0.000000,4.533648,19.846566,-0.256446
1649352228.222166,19618.000000,1649352228.222041,0.000000,0.000000,1.000000,0.000000,0.000000,0.000000,0.000000,4.535333,19.844575,-0.297713
1649352228.321431,19619.000000,1649352228.321224,0.000000,0.000000,1.000000,0.000000,0.000000,0.000000,0.000000,4.536989,19.842711,-0.337186
1649352228.422278,19620.000000,1649352228.422153,0.000000,0.000000,1.000000,0.000000,0.000000,0.000000,0.000000,4.537519,19.840969,-0.326487
1649352228.522199,19621.000000,1649352228.522082,0.000000,0.000000,1.000000,0.000000,0.000000,0.000000,0.000000,4.538070,19.838258,-0.350730
1649352228.622213,19622.000000,1649352228.622089,0.000000,0.000000,1.000000,0.000000,0.000000,0.000000,0.000000,4.536455,19.835728,-0.386699
1649352228.722329,19623.000000,1649352228.722195,0.000000,0.000000,1.000000,0.000000,0.000000,0.000000,0.000000,4.537156,19.833374,-0.445965
1649352228.822402,19624.000000,1649352228.822269,0.000000,0.000000,1.000000,0.000000,0.000000,0.000000,0.000000,4.528048,19.831194,-0.517822
1649352228.922521,19625.000000,1649352228.922384,0.000000,0.000000,1.000000,0.000000,0.000000,0.000000,0.000000,4.519506,19.830270,-0.594396
1649352229.022591,19626.000000,1649352229.022439,0.000000,0.000000,1.000000,0.000000,0.000000,0.000000,0.000000,4.515881,19.828356,-0.653613
1649352229.122736,19627.000000,1649352229.122535,0.000000,0.000000,1.000000,0.000000,0.000000,0.000000,0.000000,4.512552,19.828778,-0.675934
1649352229.222457,19628.000000,1649352229.222318,0.000000,0.000000,1.000000,0.000000,0.000000,0.000000,0.000000,4.516049,19.828135,-0.704770
1649352229.322464,19629.000000,1649352229.322361,0.000000,0.000000,1.000000,0.000000,0.000000,0.000000,0.000000,4.522713,19.829754,-0.679353
1649352229.422343,19630.000000,1649352229.422215,0.000000,0.000000,1.000000,0.000000,0.000000,0.000000,0.000000,4.527983,19.833505,-0.622910
1649352229.522836,19631.000000,1649352229.522734,0.000000,0.000000,1.000000,0.000000,0.000000,0.000000,0.000000,4.523192,19.834895,-0.606166
1649352229.622111,19632.000000,1649352229.622016,0.000000,0.000000,1.000000,0.000000,0.000000,0.000000,0.000000,4.513263,19.834049,-0.625151
1649352229.722157,19633.000000,1649352229.722049,0.000000,0.000000,1.000000,0.000000,0.000000,0.000000,0.000000,4.500685,19.833269,-0.663894
1649352229.822129,19634.000000,1649352229.822033,0.000000,0.000000,1.000000,0.000000,0.000000,0.000000,0.000000,4.495449,19.831463,-0.697358
1649352229.922230,19635.000000,1649352229.922109,0.000000,0.000000,1.000000,0.000000,0.000000,0.000000,0.000000,4.487353,19.829782,-0.728946
1649352230.022141,19636.000000,1649352230.022017,0.000000,0.000000,1.000000,0.000000,0.000000,0.000000,0.000000,4.480933,19.829313,-0.770799
1649352230.122173,19637.000000,1649352230.122048,0.000000,0.000000,1.000000,0.000000,0.000000,0.000000,0.000000,4.470656,19.828900,-0.829714
1649352230.222099,19638.000000,1649352230.222004,0.000000,0.000000,1.000000,0.000000,0.000000,0.000000,0.000000,4.464389,19.829629,-0.899283
1649352230.322104,19639.000000,1649352230.321992,0.000000,0.000000,1.000000,0.000000,0.000000,0.000000,0.000000,4.466285,19.832524,-0.895923
1649352230.422118,19640.000000,1649352230.421983,0.000000,0.000000,1.000000,0.000000,0.000000,0.000000,0.000000,4.468249,19.834187,-0.911322
1649352230.522494,19641.000000,1649352230.522340,0.000000,0.000000,1.000000,0.000000,0.000000,0.000000,0.000000,4.469171,19.835767,-0.916501
1649352230.622526,19642.000000,1649352230.622362,0.000000,0.000000,1.000000,0.000000,0.000000,0.000000,0.000000,4.462554,19.836175,-0.943347
1649352230.722441,19643.000000,1649352230.722306,0.000000,0.000000,1.000000,0.000000,0.000000,0.000000,0.000000,4.460816,19.835471,-0.955486
1649352230.822146,19644.000000,1649352230.822045,0.000000,0.000000,1.000000,0.000000,0.000000,0.000000,0.000000,4.454963,19.834810,-0.988198
1649352230.922130,19645.000000,1649352230.921989,0.000000,0.000000,1.000000,0.000000,0.000000,0.000000,0.000000,4.448501,19.834191,-0.960790
1649352231.022143,19646.000000,1649352231.022055,0.000000,0.000000,1.000000,0.000000,0.000000,0.000000,0.000000,4.448016,19.832523,-0.939472
1649352231.122117,19647.000000,1649352231.122036,0.000000,0.000000,1.000000,0.000000,0.000000,0.000000,0.000000,4.444451,19.832048,-0.923257
1649352231.222096,19648.000000,1649352231.222010,0.000000,0.000000,1.000000,0.000000,0.000000,0.000000,0.000000,4.437975,19.831611,-0.936183
1649352231.322179,19649.000000,1649352231.322076,0.000000,0.000000,1.000000,0.000000,0.000000,0.000000,0.000000,4.435301,19.833394,-0.905304
1649352231.422065,19650.000000,1649352231.421953,0.000000,0.000000,1.000000,0.000000,0.000000,0.000000,0.000000,4.436219,19.837267,-0.827622
1649352231.522212,19651.000000,1649352231.522091,0.000000,0.000000,1.000000,0.000000,0.000000,0.000000,0.000000,4.440521,19.839833,-0.772916
1649352231.622421,19652.000000,1649352231.622325,0.000000,0.000000,1.000000,0.000000,0.000000,0.000000,0.000000,4.444728,19.841156,-0.758108
1649352231.722110,19653.000000,1649352231.722001,0.000000,0.000000,1.000000,0.000000,0.000000,0.000000,0.000000,4.455366,19.840210,-0.746947
1649352231.822118,19654.000000,1649352231.822021,0.000000,0.000000,1.000000,0.000000,0.000000,0.000000,0.000000,4.461142,19.840393,-0.754635
1649352231.922126,19655.000000,1649352231.922011,0.000000,0.000000,1.000000,0.000000,0.000000,0.000000,0.000000,4.468838,19.839463,-0.782824
1649352232.022326,19656.000000,1649352232.022183,0.000000,0.000000,1.000000,0.000000,0.000000,0.000000,0.000000,4.471782,19.839665,-0.825002
1649352232.122190,19657.000000,1649352232.122072,0.000000,0.000000,1.000000,0.000000,0.000000,0.000000,0.000000,4.476763,19.838757,-0.849091
1649352232.222374,19658.000000,1649352232.222183,0.000000,0.000000,1.000000,0.000000,0.000000,0.000000,0.000000,4.484744,19.837893,-0.890466
1649352232.322559,19659.000000,1649352232.322393,0.000000,0.000000,1.000000,0.000000,0.000000,0.000000,0.000000,4.497718,19.839254,-0.866115
1649352232.422802,19660.000000,1649352232.422646,0.000000,0.000000,1.000000,0.000000,0.000000,0.000000,0.000000,4.505559,19.840535,-0.869066
1649352232.522421,19661.000000,1649352232.522251,0.000000,0.000000,1.000000,0.000000,0.000000,0.000000,0.000000,4.518339,19.842826,-0.815161
1649352232.622394,19662.000000,1649352232.622291,0.000000,0.000000,1.000000,0.000000,0.000000,0.000000,0.000000,4.522670,19.843884,-0.798731
1649352232.722447,19663.000000,1649352232.722342,0.000000,0.000000,1.000000,0.000000,0.000000,0.000000,0.000000,4.520096,19.843776,-0.809429
1649352232.822269,19664.000000,1649352232.822126,0.000000,0.000000,1.000000,0.000000,0.000000,0.000000,0.000000,4.526273,19.845836,-0.762279
1649352232.922558,19665.000000,1649352232.922460,0.000000,0.000000,1.000000,0.000000,0.000000,0.000000,0.000000,4.528717,19.845580,-0.729861
1649352233.022473,19666.000000,1649352233.022322,0.000000,0.000000,1.000000,0.000000,0.000000,0.000000,0.000000,4.534175,19.844226,-0.710026
1649352233.122417,19667.000000,1649352233.122289,0.000000,0.000000,1.000000,0.000000,0.000000,0.000000,0.000000,4.530476,19.841840,-0.716818
1649352233.222277,19668.000000,1649352233.222152,0.000000,0.000000,1.000000,0.000000,0.000000,0.000000,0.000000,4.523592,19.839577,-0.743505
1649352233.322398,19669.000000,1649352233.322289,0.000000,0.000000,1.000000,0.000000,0.000000,0.000000,0.000000,4.508273,19.836347,-0.783595
1649352233.422484,19670.000000,1649352233.422372,0.000000,0.000000,1.000000,0.000000,0.000000,0.000000,0.000000,4.497025,19.834394,-0.808256
1649352233.522465,19671.000000,1649352233.522298,0.000000,0.000000,1.000000,0.000000,0.000000,0.000000,0.000000,4.491845,19.832563,-0.820491
1649352233.622463,19672.000000,1649352233.622317,0.000000,0.000000,1.000000,0.000000,0.000000,0.000000,0.000000,4.491328,19.833033,-0.772399
1649352233.722539,19673.000000,1649352233.722376,0.000000,0.000000,1.000000,0.000000,0.000000,0.000000,0.000000,4.490859,19.833496,-0.736661
1649352233.822575,19674.000000,1649352233.822404,0.000000,0.000000,1.000000,0.000000,0.000000,0.000000,0.000000,4.487164,19.833950,-0.727359
1649352233.922750,19675.000000,1649352233.922490,0.000000,0.000000,1.000000,0.000000,0.000000,0.000000,0.000000,4.482611,19.835482,-0.738604
1649352234.022580,19676.000000,1649352234.022469,0.000000,0.000000,1.000000,0.000000,0.000000,0.000000,0.000000,4.481621,19.836939,-0.721162
1649352234.122467,19677.000000,1649352234.122360,0.000000,0.000000,1.000000,0.000000,0.000000,0.000000,0.000000,4.480728,19.839410,-0.667348
1649352234.222340,19678.000000,1649352234.222237,0.000000,0.000000,1.000000,0.000000,0.000000,0.000000,0.000000,4.483199,19.841740,-0.595653
1649352234.322176,19679.000000,1649352234.322031,0.000000,0.000000,1.000000,0.000000,0.000000,0.000000,0.000000,4.484479,19.842841,-0.560142
1649352234.422091,19680.000000,1649352234.421982,0.000000,0.000000,1.000000,0.000000,0.000000,0.000000,0.000000,4.487898,19.844958,-0.498115
1649352234.522269,19681.000000,1649352234.522139,0.000000,0.000000,1.000000,0.000000,0.000000,0.000000,0.000000,4.488965,19.848028,-0.422026
1649352234.622458,19682.000000,1649352234.622344,0.000000,0.000000,1.000000,0.000000,0.000000,0.000000,0.000000,4.492166,19.849812,-0.359974
1649352234.722725,19683.000000,1649352234.722499,0.000000,0.000000,1.000000,0.000000,0.000000,0.000000,0.000000,4.499555,19.849285,-0.329220
1649352234.822337,19684.000000,1649352234.822225,0.000000,0.000000,1.000000,0.000000,0.000000,0.000000,0.000000,4.509790,19.847666,-0.332562
1649352234.922123,19685.000000,1649352234.922033,0.000000,0.000000,1.000000,0.000000,0.000000,0.000000,0.000000,4.519413,19.846113,-0.361338
1649352235.022160,19686.000000,1649352235.022051,0.000000,0.000000,1.000000,0.000000,0.000000,0.000000,0.000000,4.528431,19.846808,-0.336225
1649352235.122220,19687.000000,1649352235.122081,0.000000,0.000000,1.000000,0.000000,0.000000,0.000000,0.000000,4.532492,19.848538,-0.332802
1649352235.222418,19688.000000,1649352235.222292,0.000000,0.000000,1.000000,0.000000,0.000000,0.000000,0.000000,4.529678,19.849061,-0.344534
1649352235.322526,19689.000000,1649352235.322387,0.000000,0.000000,1.000000,0.000000,0.000000,0.000000,0.000000,4.524740,19.848443,-0.378836
1649352235.422550,19690.000000,1649352235.422429,0.000000,0.000000,1.000000,0.000000,0.000000,0.000000,0.000000,4.523268,19.847839,-0.404879
1649352235.522455,19691.000000,1649352235.522308,0.000000,0.000000,1.000000,0.000000,0.000000,0.000000,0.000000,4.519628,19.847251,-0.449551
1649352235.622305,19692.000000,1649352235.622115,0.000000,0.000000,1.000000,0.000000,0.000000,0.000000,0.000000,4.520498,19.849953,-0.432171
1649352235.722149,19693.000000,1649352235.722036,0.000000,0.000000,1.000000,0.000000,0.000000,0.000000,0.000000,4.522360,19.850306,-0.432680
1649352235.822288,19694.000000,1649352235.822124,0.000000,0.000000,1.000000,0.000000,0.000000,0.000000,0.000000,4.517525,19.849528,-0.457605
1649352235.922433,19695.000000,1649352235.922304,0.000000,0.000000,1.000000,0.000000,0.000000,0.000000,0.000000,4.515099,19.849865,-0.443810
1649352236.022374,19696.000000,1649352236.022263,0.000000,0.000000,1.000000,0.000000,0.000000,0.000000,0.000000,4.506237,19.849076,-0.460615
1649352236.122484,19697.000000,1649352236.122355,0.000000,0.000000,1.000000,0.000000,0.000000,0.000000,0.000000,4.495681,19.848316,-0.487393
1649352236.222463,19698.000000,1649352236.222347,0.000000,0.000000,1.000000,0.000000,0.000000,0.000000,0.000000,4.485737,19.847587,-0.527724
1649352236.322357,19699.000000,1649352236.322135,0.000000,0.000000,1.000000,0.000000,0.000000,0.000000,0.000000,4.477491,19.847979,-0.522923
1649352236.422460,19700.000000,1649352236.422251,0.000000,0.000000,1.000000,0.000000,0.000000,0.000000,0.000000,4.471963,19.848342,-0.524008
1649352236.522544,19701.000000,1649352236.522352,0.000000,0.000000,1.000000,0.000000,0.000000,0.000000,0.000000,4.471198,19.847585,-0.520255
1649352236.622518,19702.000000,1649352236.622378,0.000000,0.000000,1.000000,0.000000,0.000000,0.000000,0.000000,4.470572,19.846863,-0.511057
1649352236.722361,19703.000000,1649352236.722215,0.000000,0.000000,1.000000,0.000000,0.000000,0.000000,0.000000,4.474435,19.848357,-0.458744
1649352236.822405,19704.000000,1649352236.822247,0.000000,0.000000,1.000000,0.000000,0.000000,0.000000,0.000000,4.473802,19.849761,-0.440139
1649352236.922631,19705.000000,1649352236.922405,0.000000,0.000000,1.000000,0.000000,0.000000,0.000000,0.000000,4.475458,19.849987,-0.443426
1649352237.022448,19706.000000,1649352237.022277,0.000000,0.000000,1.000000,0.000000,0.000000,0.000000,0.000000,4.480359,19.852369,-0.396741
1649352237.122879,19707.000000,1649352237.122530,0.000000,0.000000,1.000000,0.000000,0.000000,0.000000,0.000000,4.488309,19.851330,-0.370719
1649352237.222392,19708.000000,1649352237.222240,0.000000,0.000000,1.000000,0.000000,0.000000,0.000000,0.000000,4.501295,19.853605,-0.304079
1649352237.322121,19709.000000,1649352237.322008,0.000000,0.000000,1.000000,0.000000,0.000000,0.000000,0.000000,4.510278,19.854645,-0.276783
1649352237.422110,19710.000000,1649352237.422004,0.000000,0.000000,1.000000,0.000000,0.000000,0.000000,0.000000,4.517630,19.854514,-0.288085
1649352237.522173,19711.000000,1649352237.522018,0.000000,0.000000,1.000000,0.000000,0.000000,0.000000,0.000000,4.521239,19.854370,-0.316232
1649352237.622096,19712.000000,1649352237.621996,0.000000,0.000000,1.000000,0.000000,0.000000,0.000000,0.000000,4.528933,19.852033,-0.337899
1649352237.722126,19713.000000,1649352237.722018,0.000000,0.000000,1.000000,0.000000,0.000000,0.000000,0.000000,4.538291,19.851992,-0.308945
1649352237.822167,19714.000000,1649352237.822062,0.000000,0.000000,1.000000,0.000000,0.000000,0.000000,0.000000,4.544836,19.854125,-0.254029
1649352237.923876,19715.000000,1649352237.923726,0.000000,0.000000,1.000000,0.000000,0.000000,0.000000,0.000000,4.553070,19.852853,-0.235568
1649352238.022988,19716.000000,1649352238.022801,0.000000,0.000000,1.000000,0.000000,0.000000,0.000000,0.000000,4.560701,19.851640,-0.252916
1649352238.122413,19717.000000,1649352238.122288,0.000000,0.000000,1.000000,0.000000,0.000000,0.000000,0.000000,4.566657,19.850485,-0.290067
1649352238.222410,19718.000000,1649352238.222274,0.000000,0.000000,1.000000,0.000000,0.000000,0.000000,0.000000,4.571020,19.848300,-0.346952
1649352238.322389,19719.000000,1649352238.322269,0.000000,0.000000,1.000000,0.000000,0.000000,0.000000,0.000000,4.573873,19.848419,-0.361378
1649352238.422388,19720.000000,1649352238.422256,0.000000,0.000000,1.000000,0.000000,0.000000,0.000000,0.000000,4.578572,19.848535,-0.339864
1649352238.522446,19721.000000,1649352238.522295,0.000000,0.000000,1.000000,0.000000,0.000000,0.000000,0.000000,4.581740,19.850828,-0.290342
1649352238.622443,19722.000000,1649352238.622322,0.000000,0.000000,1.000000,0.000000,0.000000,0.000000,0.000000,4.583461,19.851902,-0.253533
1649352238.722606,19723.000000,1649352238.722409,0.000000,0.000000,1.000000,0.000000,0.000000,0.000000,0.000000,4.586000,19.851819,-0.245107
1649352238.822356,19724.000000,1649352238.822236,0.000000,0.000000,1.000000,0.000000,0.000000,0.000000,0.000000,4.583863,19.852824,-0.217148
1649352238.922440,19725.000000,1649352238.922317,0.000000,0.000000,1.000000,0.000000,0.000000,0.000000,0.000000,4.584954,19.853764,-0.210801
1649352239.022472,19726.000000,1649352239.022313,0.000000,0.000000,1.000000,0.000000,0.000000,0.000000,0.000000,4.578199,19.853551,-0.227612
1649352239.122486,19727.000000,1649352239.122281,0.000000,0.000000,1.000000,0.000000,0.000000,0.000000,0.000000,4.570598,19.853339,-0.274669
1649352239.222455,19728.000000,1649352239.222279,0.000000,0.000000,1.000000,0.000000,0.000000,0.000000,0.000000,4.564410,19.853129,-0.319211
1649352239.322429,19729.000000,1649352239.322321,0.000000,0.000000,1.000000,0.000000,0.000000,0.000000,0.000000,4.558491,19.852922,-0.372546
1649352239.422520,19730.000000,1649352239.422363,0.000000,0.000000,1.000000,0.000000,0.000000,0.000000,0.000000,4.548487,19.851629,-0.443902
1649352239.522969,19731.000000,1649352239.522526,0.000000,0.000000,1.000000,0.000000,0.000000,0.000000,0.000000,4.543379,19.852584,-0.463077
1649352239.622494,19732.000000,1649352239.622341,0.000000,0.000000,1.000000,0.000000,0.000000,0.000000,0.000000,4.533104,19.851301,-0.506339
1649352239.722386,19733.000000,1649352239.722235,0.000000,0.000000,1.000000,0.000000,0.000000,0.000000,0.000000,4.527787,19.848997,-0.547650
1649352239.822468,19734.000000,1649352239.822322,0.000000,0.000000,1.000000,0.000000,0.000000,0.000000,0.000000,4.527173,19.846824,-0.547510
1649352239.922405,19735.000000,1649352239.922271,0.000000,0.000000,1.000000,0.000000,0.000000,0.000000,0.000000,4.526645,19.846963,-0.518087
1649352240.022350,19736.000000,1649352240.022248,0.000000,0.000000,1.000000,0.000000,0.000000,0.000000,0.000000,4.529466,19.844925,-0.505783
1649352240.122388,19737.000000,1649352240.122275,0.000000,0.000000,1.000000,0.000000,0.000000,0.000000,0.000000,4.532172,19.845197,-0.467194
1649352240.222479,19738.000000,1649352240.222341,0.000000,0.000000,1.000000,0.000000,0.000000,0.000000,0.000000,4.531487,19.846559,-0.398614
1649352240.322552,19739.000000,1649352240.322358,0.000000,0.000000,1.000000,0.000000,0.000000,0.000000,0.000000,4.528686,19.847857,-0.354597
1649352240.422554,19740.000000,1649352240.422430,0.000000,0.000000,1.000000,0.000000,0.000000,0.000000,0.000000,4.518440,19.846910,-0.354390
1649352240.522411,19741.000000,1649352240.522241,0.000000,0.000000,1.000000,0.000000,0.000000,0.000000,0.000000,4.514270,19.848203,-0.323640
1649352240.622451,19742.000000,1649352240.622316,0.000000,0.000000,1.000000,0.000000,0.000000,0.000000,0.000000,4.502769,19.848339,-0.329758
1649352240.722388,19743.000000,1649352240.722261,0.000000,0.000000,1.000000,0.000000,0.000000,0.000000,0.000000,4.486550,19.846290,-0.359949
1649352240.822160,19744.000000,1649352240.822068,0.000000,0.000000,1.000000,0.000000,0.000000,0.000000,0.000000,4.470275,19.844361,-0.396252
