__time,/dwm1001/id_458E/pose_kf/header/seq,/dwm1001/id_458E/pose_kf/header/stamp,/dwm1001/id_458E/pose_kf/pose/orientation/pitch_deg,/dwm1001/id_458E/pose_kf/pose/orientation/roll_deg,/dwm1001/id_458E/pose_kf/pose/orientation/w,/dwm1001/id_458E/pose_kf/pose/orientation/x,/dwm1001/id_458E/pose_kf/pose/orientation/y,/dwm1001/id_458E/pose_kf/pose/orientation/yaw_deg,/dwm1001/id_458E/pose_kf/pose/orientation/z,/dwm1001/id_458E/pose_kf/pose/position/x,/dwm1001/id_458E/pose_kf/pose/position/y,/dwm1001/id_458E/pose_kf/pose/position/z
1649352483.722158,21813.000000,1649352483.722030,0.000000,0.000000,1.000000,0.000000,0.000000,0.000000,0.000000,7.297274,32.429219,1.231344
1649352483.822247,21814.000000,1649352483.822108,0.000000,0.000000,1.000000,0.000000,0.000000,0.000000,0.000000,7.296202,32.430617,1.220893
1649352483.922151,21815.000000,1649352483.922047,0.000000,0.000000,1.000000,0.000000,0.000000,0.000000,0.000000,7.294055,32.433012,1.205196
1649352484.022107,21816.000000,1649352484.021975,0.000000,0.000000,1.000000,0.000000,0.000000,0.000000,0.000000,7.291990,32.434162,1.194170
1649352484.122179,21817.000000,1649352484.122042,0.000000,0.000000,1.000000,0.000000,0.000000,0.000000,0.000000,7.287832,32.435224,1.187644
1649352484.222205,21818.000000,1649352484.222107,0.000000,0.000000,1.000000,0.000000,0.000000,0.000000,0.000000,7.284979,32.436200,1.169319
1649352484.322130,21819.000000,1649352484.322020,0.000000,0.000000,1.000000,0.000000,0.000000,0.000000,0.000000,7.283370,32.440365,1.150989
1649352484.422142,21820.000000,1649352484.422030,0.000000,0.000000,1.000000,0.000000,0.000000,0.000000,0.000000,7.281853,32.444262,1.146393
1649352484.522138,21821.000000,1649352484.522025,0.000000,0.000000,1.000000,0.000000,0.000000,0.000000,0.000000,7.280427,32.447896,1.150143
1649352484.622114,21822.000000,1649352484.621986,0.000000,0.000000,1.000000,0.000000,0.000000,0.000000,0.000000,7.281271,32.450183,1.142537
1649352484.722162,21823.000000,1649352484.722033,0.000000,0.000000,1.000000,0.000000,0.000000,0.000000,0.000000,7.282078,32.452282,1.132106
1649352484.822025,21824.000000,1649352484.821917,0.000000,0.000000,1.000000,0.000000,0.000000,0.000000,0.000000,7.285028,32.452019,1.128656
1649352484.922095,21825.000000,1649352484.921986,0.000000,0.000000,1.000000,0.000000,0.000000,0.000000,0.000000,7.285633,32.450620,1.116584
1649352485.022040,21826.000000,1649352485.021920,0.000000,0.000000,1.000000,0.000000,0.000000,0.000000,0.000000,7.287289,32.449243,1.112382
1649352485.122170,21827.000000,1649352485.122048,0.000000,0.000000,1.000000,0.000000,0.000000,0.000000,0.000000,7.288845,32.448986,1.118155
1649352485.222154,21828.000000,1649352485.222025,0.000000,0.000000,1.000000,0.000000,0.000000,0.000000,0.000000,7.289211,32.446520,1.126227
1649352485.322185,21829.000000,1649352485.322062,0.000000,0.000000,1.000000,0.000000,0.000000,0.000000,0.000000,7.290632,32.445245,1.141325
1649352485.422194,21830.000000,1649352485.422019,0.000000,0.000000,1.000000,0.000000,0.000000,0.000000,0.000000,7.291958,32.444014,1.155879
1649352485.522096,21831.000000,1649352485.521986,0.000000,0.000000,1.000000,0.000000,0.000000,0.000000,0.000000,7.294279,32.441739,1.172303
1649352485.622065,21832.000000,1649352485.621962,0.000000,0.000000,1.000000,0.000000,0.000000,0.000000,0.000000,7.295357,32.438484,1.163073
1649352485.722076,21833.000000,1649352485.721967,0.000000,0.000000,1.000000,0.000000,0.000000,0.000000,0.000000,7.296346,32.434315,1.160689
1649352485.822210,21834.000000,1649352485.822083,0.000000,0.000000,1.000000,0.000000,0.000000,0.000000,0.000000,7.297250,32.431475,1.163266
1649352485.922144,21835.000000,1649352485.921965,0.000000,0.000000,1.000000,0.000000,0.000000,0.000000,0.000000,7.296982,32.429900,1.166567
1649352486.022493,21836.000000,1649352486.022340,0.000000,0.000000,1.000000,0.000000,0.000000,0.000000,0.000000,7.296700,32.427344,1.169748
1649352486.122481,21837.000000,1649352486.122369,0.000000,0.000000,1.000000,0.000000,0.000000,0.000000,0.000000,7.297497,32.424957,1.174422
1649352486.222428,21838.000000,1649352486.222244,0.000000,0.000000,1.000000,0.000000,0.000000,0.000000,0.000000,7.297132,32.424917,1.173263
1649352486.322441,21839.000000,1649352486.322303,0.000000,0.000000,1.000000,0.000000,0.000000,0.000000,0.000000,7.295672,32.424914,1.169732
1649352486.422416,21840.000000,1649352486.422279,0.000000,0.000000,1.000000,0.000000,0.000000,0.000000,0.000000,7.294272,32.423852,1.168771
1649352486.522373,21841.000000,1649352486.522224,0.000000,0.000000,1.000000,0.000000,0.000000,0.000000,0.000000,7.292935,32.422883,1.153342
1649352486.622505,21842.000000,1649352486.622342,0.000000,0.000000,1.000000,0.000000,0.000000,0.000000,0.000000,7.290572,32.422000,1.145827
1649352486.722374,21843.000000,1649352486.722236,0.000000,0.000000,1.000000,0.000000,0.000000,0.000000,0.000000,7.288338,32.421202,1.141887
1649352486.822149,21844.000000,1649352486.822044,0.000000,0.000000,1.000000,0.000000,0.000000,0.000000,0.000000,7.286231,32.421573,1.142189
1649352486.922172,21845.000000,1649352486.922049,0.000000,0.000000,1.000000,0.000000,0.000000,0.000000,0.000000,7.285343,32.420866,1.148172
1649352487.022299,21846.000000,1649352487.022142,0.000000,0.000000,1.000000,0.000000,0.000000,0.000000,0.000000,7.284518,32.420231,1.153951
1649352487.122138,21847.000000,1649352487.122033,0.000000,0.000000,1.000000,0.000000,0.000000,0.000000,0.000000,7.283754,32.421845,1.166779
1649352487.222095,21848.000000,1649352487.221973,0.000000,0.000000,1.000000,0.000000,0.000000,0.000000,0.000000,7.283050,32.423397,1.183124
1649352487.322113,21849.000000,1649352487.321994,0.000000,0.000000,1.000000,0.000000,0.000000,0.000000,0.000000,7.283494,32.424884,1.200397
1649352487.422153,21850.000000,1649352487.422029,0.000000,0.000000,1.000000,0.000000,0.000000,0.000000,0.000000,7.282840,32.426304,1.220953
1649352487.522302,21851.000000,1649352487.522164,0.000000,0.000000,1.000000,0.000000,0.000000,0.000000,0.000000,7.282239,32.428746,1.241400
1649352487.622499,21852.000000,1649352487.622382,0.000000,0.000000,1.000000,0.000000,0.000000,0.000000,0.000000,7.282781,32.432145,1.262517
1649352487.722492,21853.000000,1649352487.722363,0.000000,0.000000,1.000000,0.000000,0.000000,0.000000,0.000000,7.283308,32.434259,1.284249
1649352487.822179,21854.000000,1649352487.822048,0.000000,0.000000,1.000000,0.000000,0.000000,0.000000,0.000000,7.283821,32.437332,1.305731
1649352487.922608,21855.000000,1649352487.922493,0.000000,0.000000,1.000000,0.000000,0.000000,0.000000,0.000000,7.282135,32.439122,1.320494
1649352488.022038,21856.000000,1649352488.021933,0.000000,0.000000,1.000000,0.000000,0.000000,0.000000,0.000000,7.281647,32.439695,1.332826
1649352488.122271,21857.000000,1649352488.122154,0.000000,0.000000,1.000000,0.000000,0.000000,0.000000,0.000000,7.281203,32.438027,1.325069
1649352488.222299,21858.000000,1649352488.222177,0.000000,0.000000,1.000000,0.000000,0.000000,0.000000,0.000000,7.280799,32.436427,1.319025
1649352488.322191,21859.000000,1649352488.322006,0.000000,0.000000,1.000000,0.000000,0.000000,0.000000,0.000000,7.280434,32.434898,1.317064
1649352488.422533,21860.000000,1649352488.422239,0.000000,0.000000,1.000000,0.000000,0.000000,0.000000,0.000000,7.280106,32.431261,1.312580
1649352488.522185,21861.000000,1649352488.522059,0.000000,0.000000,1.000000,0.000000,0.000000,0.000000,0.000000,7.278723,32.430005,1.315368
1649352488.622441,21862.000000,1649352488.622167,0.000000,0.000000,1.000000,0.000000,0.000000,0.000000,0.000000,7.279616,32.427733,1.317879
1649352488.722090,21863.000000,1649352488.721983,0.000000,0.000000,1.000000,0.000000,0.000000,0.000000,0.000000,7.280478,32.425596,1.315288
1649352488.822010,21864.000000,1649352488.821907,0.000000,0.000000,1.000000,0.000000,0.000000,0.000000,0.000000,7.281305,32.423595,1.291683
1649352488.921977,21865.000000,1649352488.921894,0.000000,0.000000,1.000000,0.000000,0.000000,0.000000,0.000000,7.282097,32.423907,1.276990
1649352489.022145,21866.000000,1649352489.022048,0.000000,0.000000,1.000000,0.000000,0.000000,0.000000,0.000000,7.281762,32.424223,1.269265
1649352489.122153,21867.000000,1649352489.122040,0.000000,0.000000,1.000000,0.000000,0.000000,0.000000,0.000000,7.280362,32.424541,1.264213
1649352489.222310,21868.000000,1649352489.222144,0.000000,0.000000,1.000000,0.000000,0.000000,0.000000,0.000000,7.279050,32.424859,1.262542
1649352489.322466,21869.000000,1649352489.322340,0.000000,0.000000,1.000000,0.000000,0.000000,0.000000,0.000000,7.277823,32.426265,1.264928
1649352489.422128,21870.000000,1649352489.422014,0.000000,0.000000,1.000000,0.000000,0.000000,0.000000,0.000000,7.276681,32.425424,1.260720
1649352489.522502,21871.000000,1649352489.522384,0.000000,0.000000,1.000000,0.000000,0.000000,0.000000,0.000000,7.275622,32.424639,1.261485
1649352489.622236,21872.000000,1649352489.622129,0.000000,0.000000,1.000000,0.000000,0.000000,0.000000,0.000000,7.276823,32.425002,1.253313
1649352489.722158,21873.000000,1649352489.722022,0.000000,0.000000,1.000000,0.000000,0.000000,0.000000,0.000000,7.277977,32.425357,1.251901
1649352489.822077,21874.000000,1649352489.821989,0.000000,0.000000,1.000000,0.000000,0.000000,0.000000,0.000000,7.279080,32.425702,1.250528
1649352489.922164,21875.000000,1649352489.922052,0.000000,0.000000,1.000000,0.000000,0.000000,0.000000,0.000000,7.277951,32.427127,1.254842
1649352490.022185,21876.000000,1649352490.022026,0.000000,0.000000,1.000000,0.000000,0.000000,0.000000,0.000000,7.276895,32.427387,1.241219
1649352490.122133,21877.000000,1649352490.122003,0.000000,0.000000,1.000000,0.000000,0.000000,0.000000,0.000000,7.275911,32.428725,1.228954
1649352490.222637,21878.000000,1649352490.222230,0.000000,0.000000,1.000000,0.000000,0.000000,0.000000,0.000000,7.274997,32.429989,1.201079
1649352490.322193,21879.000000,1649352490.322073,0.000000,0.000000,1.000000,0.000000,0.000000,0.000000,0.000000,7.275241,32.432268,1.188913
1649352490.422079,21880.000000,1649352490.421961,0.000000,0.000000,1.000000,0.000000,0.000000,0.000000,0.000000,7.276579,32.434410,1.183776
1649352490.522077,21881.000000,1649352490.521970,0.000000,0.000000,1.000000,0.000000,0.000000,0.000000,0.000000,7.278946,32.435327,1.182166
1649352490.622082,21882.000000,1649352490.621980,0.000000,0.000000,1.000000,0.000000,0.000000,0.000000,0.000000,7.279007,32.435082,1.183131
1649352490.722172,21883.000000,1649352490.722070,0.000000,0.000000,1.000000,0.000000,0.000000,0.000000,0.000000,7.277977,32.434832,1.185756
1649352490.822171,21884.000000,1649352490.822045,0.000000,0.000000,1.000000,0.000000,0.000000,0.000000,0.000000,7.277009,32.435670,1.187547
1649352490.922124,21885.000000,1649352490.921984,0.000000,0.000000,1.000000,0.000000,0.000000,0.000000,0.000000,7.275012,32.437534,1.194176
1649352491.022649,21886.000000,1649352491.022316,0.000000,0.000000,1.000000,0.000000,0.000000,0.000000,0.000000,7.274229,32.438182,1.203821
1649352491.122128,21887.000000,1649352491.122026,0.000000,0.000000,1.000000,0.000000,0.000000,0.000000,0.000000,7.272414,32.437681,1.212310
1649352491.222089,21888.000000,1649352491.221955,0.000000,0.000000,1.000000,0.000000,0.000000,0.000000,0.000000,7.271810,32.437186,1.223705
1649352491.322120,21889.000000,1649352491.321986,0.000000,0.000000,1.000000,0.000000,0.000000,0.000000,0.000000,7.272350,32.436700,1.233836
1649352491.422362,21890.000000,1649352491.422241,0.000000,0.000000,1.000000,0.000000,0.000000,0.000000,0.000000,7.271789,32.435134,1.237899
1649352491.522274,21891.000000,1649352491.522157,0.000000,0.000000,1.000000,0.000000,0.000000,0.000000,0.000000,7.271278,32.432554,1.240165
1649352491.622499,21892.000000,1649352491.622396,0.000000,0.000000,1.000000,0.000000,0.000000,0.000000,0.000000,7.271905,32.430113,1.242314
1649352491.722110,21893.000000,1649352491.722003,0.000000,0.000000,1.000000,0.000000,0.000000,0.000000,0.000000,7.272515,32.428902,1.250802
1649352491.822498,21894.000000,1649352491.822185,0.000000,0.000000,1.000000,0.000000,0.000000,0.000000,0.000000,7.270924,32.428857,1.252457
1649352491.922312,21895.000000,1649352491.922136,0.000000,0.000000,1.000000,0.000000,0.000000,0.000000,0.000000,7.270529,32.427734,1.249971
1649352492.022336,21896.000000,1649352492.022214,0.000000,0.000000,1.000000,0.000000,0.000000,0.000000,0.000000,7.271263,32.428866,1.240292
1649352492.122048,21897.000000,1649352492.121932,0.000000,0.000000,1.000000,0.000000,0.000000,0.000000,0.000000,7.270883,32.427763,1.227760
1649352492.222149,21898.000000,1649352492.222044,0.000000,0.000000,1.000000,0.000000,0.000000,0.000000,0.000000,7.271628,32.427822,1.202834
1649352492.322112,21899.000000,1649352492.322003,0.000000,0.000000,1.000000,0.000000,0.000000,0.000000,0.000000,7.273436,32.426799,1.184605
1649352492.422168,21900.000000,1649352492.422042,0.000000,0.000000,1.000000,0.000000,0.000000,0.000000,0.000000,7.274060,32.425843,1.159122
1649352492.522214,21901.000000,1649352492.522059,0.000000,0.000000,1.000000,0.000000,0.000000,0.000000,0.000000,7.274653,32.429317,1.139620
1649352492.622473,21902.000000,1649352492.622320,0.000000,0.000000,1.000000,0.000000,0.000000,0.000000,0.000000,7.273035,32.433696,1.117823
1649352492.722416,21903.000000,1649352492.722268,0.000000,0.000000,1.000000,0.000000,0.000000,0.000000,0.000000,7.272601,32.434554,1.102724
1649352492.822070,21904.000000,1649352492.821923,0.000000,0.000000,1.000000,0.000000,0.000000,0.000000,0.000000,7.273289,32.436444,1.098104
1649352492.922528,21905.000000,1649352492.922416,0.000000,0.000000,1.000000,0.000000,0.000000,0.000000,0.000000,7.272854,32.437122,1.074508
1649352493.022146,21906.000000,1649352493.022052,0.000000,0.000000,1.000000,0.000000,0.000000,0.000000,0.000000,7.273538,32.436654,1.061765
1649352493.122216,21907.000000,1649352493.122090,0.000000,0.000000,1.000000,0.000000,0.000000,0.000000,0.000000,7.276369,32.437286,1.061063
1649352493.222476,21908.000000,1649352493.222349,0.000000,0.000000,1.000000,0.000000,0.000000,0.000000,0.000000,7.277950,32.436775,1.061424
1649352493.322424,21909.000000,1649352493.322293,0.000000,0.000000,1.000000,0.000000,0.000000,0.000000,0.000000,7.280525,32.434097,1.061182
1649352493.422524,21910.000000,1649352493.422335,0.000000,0.000000,1.000000,0.000000,0.000000,0.000000,0.000000,7.281851,32.432650,1.071643
1649352493.522471,21911.000000,1649352493.522310,0.000000,0.000000,1.000000,0.000000,0.000000,0.000000,0.000000,7.284174,32.431280,1.088316
1649352493.622433,21912.000000,1649352493.622257,0.000000,0.000000,1.000000,0.000000,0.000000,0.000000,0.000000,7.286344,32.429989,1.102045
1649352493.722423,21913.000000,1649352493.722313,0.000000,0.000000,1.000000,0.000000,0.000000,0.000000,0.000000,7.287272,32.428776,1.094370
1649352493.822430,21914.000000,1649352493.822287,0.000000,0.000000,1.000000,0.000000,0.000000,0.000000,0.000000,7.288117,32.429821,1.098420
1649352493.922401,21915.000000,1649352493.922260,0.000000,0.000000,1.000000,0.000000,0.000000,0.000000,0.000000,7.288881,32.430816,1.106452
1649352494.022444,21916.000000,1649352494.022320,0.000000,0.000000,1.000000,0.000000,0.000000,0.000000,0.000000,7.288478,32.430670,1.097319
1649352494.122303,21917.000000,1649352494.122192,0.000000,0.000000,1.000000,0.000000,0.000000,0.000000,0.000000,7.288066,32.429445,1.089468
1649352494.222295,21918.000000,1649352494.222090,0.000000,0.000000,1.000000,0.000000,0.000000,0.000000,0.000000,7.287649,32.429385,1.092531
1649352494.322154,21919.000000,1649352494.322051,0.000000,0.000000,1.000000,0.000000,0.000000,0.000000,0.000000,7.287228,32.430425,1.101222
1649352494.422112,21920.000000,1649352494.421991,0.000000,0.000000,1.000000,0.000000,0.000000,0.000000,0.000000,7.286808,32.429232,1.105616
1649352494.522222,21921.000000,1649352494.522102,0.000000,0.000000,1.000000,0.000000,0.000000,0.000000,0.000000,7.287481,32.428110,1.113134
1649352494.622279,21922.000000,1649352494.622153,0.000000,0.000000,1.000000,0.000000,0.000000,0.000000,0.000000,7.285916,32.428150,1.121214
1649352494.722070,21923.000000,1649352494.721943,0.000000,0.000000,1.000000,0.000000,0.000000,0.000000,0.000000,7.284422,32.428198,1.133850
1649352494.822253,21924.000000,1649352494.822081,0.000000,0.000000,1.000000,0.000000,0.000000,0.000000,0.000000,7.281909,32.431523,1.141964
1649352494.922298,21925.000000,1649352494.922122,0.000000,0.000000,1.000000,0.000000,0.000000,0.000000,0.000000,7.280623,32.433574,1.156208
1649352495.024011,21926.000000,1649352495.023709,0.000000,0.000000,1.000000,0.000000,0.000000,0.000000,0.000000,7.279410,32.434414,1.172278
1649352495.122065,21927.000000,1649352495.121947,0.000000,0.000000,1.000000,0.000000,0.000000,0.000000,0.000000,7.278270,32.436288,1.189267
1649352495.222049,21928.000000,1649352495.221940,0.000000,0.000000,1.000000,0.000000,0.000000,0.000000,0.000000,7.277203,32.438045,1.210337
1649352495.322125,21929.000000,1649352495.322009,0.000000,0.000000,1.000000,0.000000,0.000000,0.000000,0.000000,7.277297,32.438594,1.224001
1649352495.422168,21930.000000,1649352495.421991,0.000000,0.000000,1.000000,0.000000,0.000000,0.000000,0.000000,7.275217,32.440183,1.241023
1649352495.522142,21931.000000,1649352495.522028,0.000000,0.000000,1.000000,0.000000,0.000000,0.000000,0.000000,7.272177,32.441661,1.254792
1649352495.622779,21932.000000,1649352495.622544,0.000000,0.000000,1.000000,0.000000,0.000000,0.000000,0.000000,7.270420,32.444120,1.271066
1649352495.722342,21933.000000,1649352495.722221,0.000000,0.000000,1.000000,0.000000,0.000000,0.000000,0.000000,7.267699,32.445320,1.288112
1649352495.823579,21934.000000,1649352495.823289,0.000000,0.000000,1.000000,0.000000,0.000000,0.000000,0.000000,7.267343,32.446419,1.305071
1649352495.922426,21935.000000,1649352495.922309,0.000000,0.000000,1.000000,0.000000,0.000000,0.000000,0.000000,7.267043,32.447421,1.324345
1649352496.022695,21936.000000,1649352496.022527,0.000000,0.000000,1.000000,0.000000,0.000000,0.000000,0.000000,7.266795,32.448330,1.328076
1649352496.122399,21937.000000,1649352496.122292,0.000000,0.000000,1.000000,0.000000,0.000000,0.000000,0.000000,7.265503,32.449150,1.333024
1649352496.222078,21938.000000,1649352496.221985,0.000000,0.000000,1.000000,0.000000,0.000000,0.000000,0.000000,7.265408,32.448796,1.321400
1649352496.322261,21939.000000,1649352496.322145,0.000000,0.000000,1.000000,0.000000,0.000000,0.000000,0.000000,7.264262,32.448425,1.295515
1649352496.422187,21940.000000,1649352496.422065,0.000000,0.000000,1.000000,0.000000,0.000000,0.000000,0.000000,7.262123,32.450222,1.270511
1649352496.522112,21941.000000,1649352496.522001,0.000000,0.000000,1.000000,0.000000,0.000000,0.000000,0.000000,7.261232,32.451885,1.248017
1649352496.622159,21942.000000,1649352496.622043,0.000000,0.000000,1.000000,0.000000,0.000000,0.000000,0.000000,7.262611,32.452327,1.236038
1649352496.722116,21943.000000,1649352496.722003,0.000000,0.000000,1.000000,0.000000,0.000000,0.000000,0.000000,7.263949,32.450526,1.229335
1649352496.822150,21944.000000,1649352496.822033,0.000000,0.000000,1.000000,0.000000,0.000000,0.000000,0.000000,7.266333,32.448791,1.228514
1649352496.922185,21945.000000,1649352496.922051,0.000000,0.000000,1.000000,0.000000,0.000000,0.000000,0.000000,7.268605,32.448218,1.219633
1649352497.022144,21946.000000,1649352497.022001,0.000000,0.000000,1.000000,0.000000,0.000000,0.000000,0.000000,7.271855,32.446566,1.211902
1649352497.122207,21947.000000,1649352497.122083,0.000000,0.000000,1.000000,0.000000,0.000000,0.000000,0.000000,7.273837,32.444989,1.211741
1649352497.222274,21948.000000,1649352497.222139,0.000000,0.000000,1.000000,0.000000,0.000000,0.000000,0.000000,7.274615,32.444581,1.219653
1649352497.322592,21949.000000,1649352497.322466,0.000000,0.000000,1.000000,0.000000,0.000000,0.000000,0.000000,7.275341,32.444188,1.229651
1649352497.422787,21950.000000,1649352497.422424,0.000000,0.000000,1.000000,0.000000,0.000000,0.000000,0.000000,7.277108,32.441630,1.241637
1649352497.522442,21951.000000,1649352497.522285,0.000000,0.000000,1.000000,0.000000,0.000000,0.000000,0.000000,7.278764,32.440306,1.257930
1649352497.622258,21952.000000,1649352497.622124,0.000000,0.000000,1.000000,0.000000,0.000000,0.000000,0.000000,7.279219,32.444514,1.276718
1649352497.722412,21953.000000,1649352497.722244,0.000000,0.000000,1.000000,0.000000,0.000000,0.000000,0.000000,7.279629,32.446305,1.284163
1649352497.822377,21954.000000,1649352497.822266,0.000000,0.000000,1.000000,0.000000,0.000000,0.000000,0.000000,7.279997,32.446896,1.271035
1649352497.922680,21955.000000,1649352497.922551,0.000000,0.000000,1.000000,0.000000,0.000000,0.000000,0.000000,7.280325,32.446353,1.244642
1649352498.022518,21956.000000,1649352498.022360,0.000000,0.000000,1.000000,0.000000,0.000000,0.000000,0.000000,7.280616,32.446919,1.232987
1649352498.122442,21957.000000,1649352498.122306,0.000000,0.000000,1.000000,0.000000,0.000000,0.000000,0.000000,7.280870,32.447442,1.214529
1649352498.222369,21958.000000,1649352498.222230,0.000000,0.000000,1.000000,0.000000,0.000000,0.000000,0.000000,7.281092,32.447925,1.201671
1649352498.322176,21959.000000,1649352498.322056,0.000000,0.000000,1.000000,0.000000,0.000000,0.000000,0.000000,7.281282,32.448368,1.192595
1649352498.422183,21960.000000,1649352498.422075,0.000000,0.000000,1.000000,0.000000,0.000000,0.000000,0.000000,7.281444,32.447683,1.191196
1649352498.522305,21961.000000,1649352498.522175,0.000000,0.000000,1.000000,0.000000,0.000000,0.000000,0.000000,7.280488,32.448114,1.196357
1649352498.622087,21962.000000,1649352498.621974,0.000000,0.000000,1.000000,0.000000,0.000000,0.000000,0.000000,7.279571,32.448510,1.182803
1649352498.722463,21963.000000,1649352498.722353,0.000000,0.000000,1.000000,0.000000,0.000000,0.000000,0.000000,7.278693,32.447782,1.176310
1649352498.822523,21964.000000,1649352498.822359,0.000000,0.000000,1.000000,0.000000,0.000000,0.000000,0.000000,7.277857,32.444904,1.166923
1649352498.922451,21965.000000,1649352498.922276,0.000000,0.000000,1.000000,0.000000,0.000000,0.000000,0.000000,7.275972,32.443273,1.160418
1649352499.022146,21966.000000,1649352499.022036,0.000000,0.000000,1.000000,0.000000,0.000000,0.000000,0.000000,7.274191,32.441737,1.142171
1649352499.122085,21967.000000,1649352499.121968,0.000000,0.000000,1.000000,0.000000,0.000000,0.000000,0.000000,7.273606,32.440294,1.136067
1649352499.222159,21968.000000,1649352499.222038,0.000000,0.000000,1.000000,0.000000,0.000000,0.000000,0.000000,7.274153,32.438943,1.134366
1649352499.322056,21969.000000,1649352499.321943,0.000000,0.000000,1.000000,0.000000,0.000000,0.000000,0.000000,7.273586,32.437684,1.129629
1649352499.422517,21970.000000,1649352499.422369,0.000000,0.000000,1.000000,0.000000,0.000000,0.000000,0.000000,7.273059,32.434333,1.114724
1649352499.522221,21971.000000,1649352499.522083,0.000000,0.000000,1.000000,0.000000,0.000000,0.000000,0.000000,7.272570,32.433375,1.112660
1649352499.622191,21972.000000,1649352499.622067,0.000000,0.000000,1.000000,0.000000,0.000000,0.000000,0.000000,7.272118,32.432500,1.119693
1649352499.722074,21973.000000,1649352499.721960,0.000000,0.000000,1.000000,0.000000,0.000000,0.000000,0.000000,7.271702,32.433886,1.134632
1649352499.822127,21974.000000,1649352499.821974,0.000000,0.000000,1.000000,0.000000,0.000000,0.000000,0.000000,7.272411,32.434131,1.129706
1649352499.922345,21975.000000,1649352499.922206,0.000000,0.000000,1.000000,0.000000,0.000000,0.000000,0.000000,7.273090,32.435477,1.132336
1649352500.022485,21976.000000,1649352500.022300,0.000000,0.000000,1.000000,0.000000,0.000000,0.000000,0.000000,7.273739,32.434587,1.136562
1649352500.122407,21977.000000,1649352500.122241,0.000000,0.000000,1.000000,0.000000,0.000000,0.000000,0.000000,7.274357,32.434856,1.149566
1649352500.222340,21978.000000,1649352500.222204,0.000000,0.000000,1.000000,0.000000,0.000000,0.000000,0.000000,7.276033,32.435127,1.162907
1649352500.322100,21979.000000,1649352500.321992,0.000000,0.000000,1.000000,0.000000,0.000000,0.000000,0.000000,7.275433,32.437580,1.169286
1649352500.422078,21980.000000,1649352500.421945,0.000000,0.000000,1.000000,0.000000,0.000000,0.000000,0.000000,7.272684,32.437727,1.167360
1649352500.522121,21981.000000,1649352500.522001,0.000000,0.000000,1.000000,0.000000,0.000000,0.000000,0.000000,7.271182,32.435690,1.163917
1649352500.622108,21982.000000,1649352500.622006,0.000000,0.000000,1.000000,0.000000,0.000000,0.000000,0.000000,7.270864,32.434868,1.169509
1649352500.722161,21983.000000,1649352500.722031,0.000000,0.000000,1.000000,0.000000,0.000000,0.000000,0.000000,7.270575,32.434104,1.154726
1649352500.822199,21984.000000,1649352500.822063,0.000000,0.000000,1.000000,0.000000,0.000000,0.000000,0.000000,7.271405,32.432308,1.146223
1649352500.922080,21985.000000,1649352500.921984,0.000000,0.000000,1.000000,0.000000,0.000000,0.000000,0.000000,7.272198,32.432811,1.134887
1649352501.022160,21986.000000,1649352501.022051,0.000000,0.000000,1.000000,0.000000,0.000000,0.000000,0.000000,7.272954,32.433304,1.132141
1649352501.122419,21987.000000,1649352501.122205,0.000000,0.000000,1.000000,0.000000,0.000000,0.000000,0.000000,7.273672,32.432695,1.132801
1649352501.222447,21988.000000,1649352501.222332,0.000000,0.000000,1.000000,0.000000,0.000000,0.000000,0.000000,7.273260,32.432136,1.121403
1649352501.322411,21989.000000,1649352501.322281,0.000000,0.000000,1.000000,0.000000,0.000000,0.000000,0.000000,7.272874,32.429443,1.112965
1649352501.423632,21990.000000,1649352501.423368,0.000000,0.000000,1.000000,0.000000,0.000000,0.000000,0.000000,7.272511,32.429102,1.106574
1649352501.522430,21991.000000,1649352501.522288,0.000000,0.000000,1.000000,0.000000,0.000000,0.000000,0.000000,7.273262,32.429895,1.111831
1649352501.622444,21992.000000,1649352501.622286,0.000000,0.000000,1.000000,0.000000,0.000000,0.000000,0.000000,7.273974,32.430665,1.121801
1649352501.722327,21993.000000,1649352501.722193,0.000000,0.000000,1.000000,0.000000,0.000000,0.000000,0.000000,7.275737,32.432500,1.138694
1649352501.822391,21994.000000,1649352501.822192,0.000000,0.000000,1.000000,0.000000,0.000000,0.000000,0.000000,7.277397,32.433154,1.130748
1649352501.922392,21995.000000,1649352501.922271,0.000000,0.000000,1.000000,0.000000,0.000000,0.000000,0.000000,7.277865,32.433781,1.129620
1649352502.022175,21996.000000,1649352502.022050,0.000000,0.000000,1.000000,0.000000,0.000000,0.000000,0.000000,7.277205,32.439830,1.126165
1649352502.122122,21997.000000,1649352502.122009,0.000000,0.000000,1.000000,0.000000,0.000000,0.000000,0.000000,7.278752,32.442264,1.126125
1649352502.222629,21998.000000,1649352502.222486,0.000000,0.000000,1.000000,0.000000,0.000000,0.000000,0.000000,7.279111,32.442363,1.112426
1649352502.322101,21999.000000,1649352502.321990,0.000000,0.000000,1.000000,0.000000,0.000000,0.000000,0.000000,7.279437,32.443527,1.110640
1649352502.422026,22000.000000,1649352502.421925,0.000000,0.000000,1.000000,0.000000,0.000000,0.000000,0.000000,7.279731,32.443515,1.114640
1649352502.522150,22001.000000,1649352502.522044,0.000000,0.000000,1.000000,0.000000,0.000000,0.000000,0.000000,7.278903,32.444572,1.123379
1649352502.622076,22002.000000,1649352502.621995,0.000000,0.000000,1.000000,0.000000,0.000000,0.000000,0.000000,7.278111,32.444458,1.135840
1649352502.722288,22003.000000,1649352502.722136,0.000000,0.000000,1.000000,0.000000,0.000000,0.000000,0.000000,7.277353,32.444328,1.151851
1649352502.822488,22004.000000,1649352502.822363,0.000000,0.000000,1.000000,0.000000,0.000000,0.000000,0.000000,7.275541,32.447456,1.161563
1649352502.922658,22005.000000,1649352502.922497,0.000000,0.000000,1.000000,0.000000,0.000000,0.000000,0.000000,7.274920,32.448204,1.155537
1649352503.023302,22006.000000,1649352503.023091,0.000000,0.000000,1.000000,0.000000,0.000000,0.000000,0.000000,7.273245,32.448882,1.159419
1649352503.122222,22007.000000,1649352503.122110,0.000000,0.000000,1.000000,0.000000,0.000000,0.000000,0.000000,7.271669,32.448403,1.162319
1649352503.222078,22008.000000,1649352503.221979,0.000000,0.000000,1.000000,0.000000,0.000000,0.000000,0.000000,7.271282,32.446832,1.152175
1649352503.322250,22009.000000,1649352503.322085,0.000000,0.000000,1.000000,0.000000,0.000000,0.000000,0.000000,7.272020,32.445327,1.140822
1649352503.422213,22010.000000,1649352503.422055,0.000000,0.000000,1.000000,0.000000,0.000000,0.000000,0.000000,7.271637,32.444980,1.139619
1649352503.522187,22011.000000,1649352503.522038,0.000000,0.000000,1.000000,0.000000,0.000000,0.000000,0.000000,7.271285,32.444640,1.142512
1649352503.622113,22012.000000,1649352503.621972,0.000000,0.000000,1.000000,0.000000,0.000000,0.000000,0.000000,7.270964,32.444307,1.149332
1649352503.722071,22013.000000,1649352503.721974,0.000000,0.000000,1.000000,0.000000,0.000000,0.000000,0.000000,7.270671,32.442893,1.155875
1649352503.822226,22014.000000,1649352503.822090,0.000000,0.000000,1.000000,0.000000,0.000000,0.000000,0.000000,7.270407,32.442643,1.168593
1649352503.922477,22015.000000,1649352503.922364,0.000000,0.000000,1.000000,0.000000,0.000000,0.000000,0.000000,7.269078,32.441313,1.176733
1649352504.022301,22016.000000,1649352504.022164,0.000000,0.000000,1.000000,0.000000,0.000000,0.000000,0.000000,7.270018,32.438966,1.179660
1649352504.122378,22017.000000,1649352504.122228,0.000000,0.000000,1.000000,0.000000,0.000000,0.000000,0.000000,7.270918,32.436756,1.180000
1649352504.222422,22018.000000,1649352504.222272,0.000000,0.000000,1.000000,0.000000,0.000000,0.000000,0.000000,7.270686,32.434682,1.185118
1649352504.322526,22019.000000,1649352504.322362,0.000000,0.000000,1.000000,0.000000,0.000000,0.000000,0.000000,7.270476,32.433831,1.190782
1649352504.422472,22020.000000,1649352504.422340,0.000000,0.000000,1.000000,0.000000,0.000000,0.000000,0.000000,7.270286,32.433049,1.198575
1649352504.522432,22021.000000,1649352504.522280,0.000000,0.000000,1.000000,0.000000,0.000000,0.000000,0.000000,7.271205,32.431243,1.187433
1649352504.623196,22022.000000,1649352504.622784,0.000000,0.000000,1.000000,0.000000,0.000000,0.000000,0.000000,7.273169,32.428473,1.163787
1649352504.722333,22023.000000,1649352504.722207,0.000000,0.000000,1.000000,0.000000,0.000000,0.000000,0.000000,7.275025,32.428069,1.155601
1649352504.822402,22024.000000,1649352504.822230,0.000000,0.000000,1.000000,0.000000,0.000000,0.000000,0.000000,7.276773,32.428812,1.158236
1649352504.922360,22025.000000,1649352504.922253,0.000000,0.000000,1.000000,0.000000,0.000000,0.000000,0.000000,7.279504,32.429544,1.169637
1649352505.022254,22026.000000,1649352505.022137,0.000000,0.000000,1.000000,0.000000,0.000000,0.000000,0.000000,7.280976,32.430263,1.182174
1649352505.122502,22027.000000,1649352505.122383,0.000000,0.000000,1.000000,0.000000,0.000000,0.000000,0.000000,7.282344,32.432054,1.188521
1649352505.222545,22028.000000,1649352505.222376,0.000000,0.000000,1.000000,0.000000,0.000000,0.000000,0.000000,7.283611,32.434854,1.199404
1649352505.322424,22029.000000,1649352505.322309,0.000000,0.000000,1.000000,0.000000,0.000000,0.000000,0.000000,7.283690,32.436416,1.204945
1649352505.423745,22030.000000,1649352505.423434,0.000000,0.000000,1.000000,0.000000,0.000000,0.000000,0.000000,7.280466,32.437893,1.193256
1649352505.522159,22031.000000,1649352505.522024,0.000000,0.000000,1.000000,0.000000,0.000000,0.000000,0.000000,7.277401,32.438195,1.186023
1649352505.622075,22032.000000,1649352505.621964,0.000000,0.000000,1.000000,0.000000,0.000000,0.000000,0.000000,7.274499,32.437385,1.183080
1649352505.722302,22033.000000,1649352505.722154,0.000000,0.000000,1.000000,0.000000,0.000000,0.000000,0.000000,7.271759,32.437707,1.181842
1649352505.822164,22034.000000,1649352505.822026,0.000000,0.000000,1.000000,0.000000,0.000000,0.000000,0.000000,7.269180,32.438009,1.184661
1649352505.922069,22035.000000,1649352505.921907,0.000000,0.000000,1.000000,0.000000,0.000000,0.000000,0.000000,7.268943,32.437200,1.194597
1649352506.022161,22036.000000,1649352506.022019,0.000000,0.000000,1.000000,0.000000,0.000000,0.000000,0.000000,7.269829,32.436433,1.206508
1649352506.122085,22037.000000,1649352506.121971,0.000000,0.000000,1.000000,0.000000,0.000000,0.000000,0.000000,7.270682,32.434620,1.202555
1649352506.222171,22038.000000,1649352506.222041,0.000000,0.000000,1.000000,0.000000,0.000000,0.000000,0.000000,7.270410,32.435093,1.208386
1649352506.322320,22039.000000,1649352506.322130,0.000000,0.000000,1.000000,0.000000,0.000000,0.000000,0.000000,7.270165,32.433364,1.200212
1649352506.422318,22040.000000,1649352506.422191,0.000000,0.000000,1.000000,0.000000,0.000000,0.000000,0.000000,7.269946,32.431740,1.194743
1649352506.522417,22041.000000,1649352506.522302,0.000000,0.000000,1.000000,0.000000,0.000000,0.000000,0.000000,7.270842,32.429129,1.191074
1649352506.622556,22042.000000,1649352506.622401,0.000000,0.000000,1.000000,0.000000,0.000000,0.000000,0.000000,7.271698,32.426682,1.173819
1649352506.722406,22043.000000,1649352506.722267,0.000000,0.000000,1.000000,0.000000,0.000000,0.000000,0.000000,7.272512,32.426578,1.170167
1649352506.822348,22044.000000,1649352506.822166,0.000000,0.000000,1.000000,0.000000,0.000000,0.000000,0.000000,7.273285,32.426506,1.167480
1649352506.922161,22045.000000,1649352506.922010,0.000000,0.000000,1.000000,0.000000,0.000000,0.000000,0.000000,7.274016,32.424284,1.156852
1649352507.022171,22046.000000,1649352507.022051,0.000000,0.000000,1.000000,0.000000,0.000000,0.000000,0.000000,7.273614,32.422214,1.152331
1649352507.122181,22047.000000,1649352507.122084,0.000000,0.000000,1.000000,0.000000,0.000000,0.000000,0.000000,7.274324,32.420293,1.126256
1649352507.222194,22048.000000,1649352507.222077,0.000000,0.000000,1.000000,0.000000,0.000000,0.000000,0.000000,7.274992,32.419607,1.115023
1649352507.322069,22049.000000,1649352507.321942,0.000000,0.000000,1.000000,0.000000,0.000000,0.000000,0.000000,7.277800,32.416817,1.103534
1649352507.422124,22050.000000,1649352507.422007,0.000000,0.000000,1.000000,0.000000,0.000000,0.000000,0.000000,7.279351,32.415316,1.084555
1649352507.522304,22051.000000,1649352507.522184,0.000000,0.000000,1.000000,0.000000,0.000000,0.000000,0.000000,7.280799,32.416126,1.064063
1649352507.622373,22052.000000,1649352507.622265,0.000000,0.000000,1.000000,0.000000,0.000000,0.000000,0.000000,7.283238,32.416936,1.053436
1649352507.722354,22053.000000,1649352507.722243,0.000000,0.000000,1.000000,0.000000,0.000000,0.000000,0.000000,7.284427,32.417739,1.048256
1649352507.822293,22054.000000,1649352507.822153,0.000000,0.000000,1.000000,0.000000,0.000000,0.000000,0.000000,7.285520,32.418531,1.051530
1649352507.923024,22055.000000,1649352507.922912,0.000000,0.000000,1.000000,0.000000,0.000000,0.000000,0.000000,7.285432,32.419310,1.060485
1649352508.022469,22056.000000,1649352508.022324,0.000000,0.000000,1.000000,0.000000,0.000000,0.000000,0.000000,7.285320,32.418980,1.052289
1649352508.122538,22057.000000,1649352508.122368,0.000000,0.000000,1.000000,0.000000,0.000000,0.000000,0.000000,7.285186,32.419783,1.054255
1649352508.222368,22058.000000,1649352508.222252,0.000000,0.000000,1.000000,0.000000,0.000000,0.000000,0.000000,7.286125,32.418383,1.041768
1649352508.322498,22059.000000,1649352508.322349,0.000000,0.000000,1.000000,0.000000,0.000000,0.000000,0.000000,7.288076,32.418172,1.042847
1649352508.422379,22060.000000,1649352508.422258,0.000000,0.000000,1.000000,0.000000,0.000000,0.000000,0.000000,7.289890,32.417996,1.048065
1649352508.522329,22061.000000,1649352508.522190,0.000000,0.000000,1.000000,0.000000,0.000000,0.000000,0.000000,7.290479,32.417852,1.058853
1649352508.622111,22062.000000,1649352508.621992,0.000000,0.000000,1.000000,0.000000,0.000000,0.000000,0.000000,7.292091,32.415556,1.062865
1649352508.722111,22063.000000,1649352508.721989,0.000000,0.000000,1.000000,0.000000,0.000000,0.000000,0.000000,7.293577,32.414503,1.070042
1649352508.822044,22064.000000,1649352508.821946,0.000000,0.000000,1.000000,0.000000,0.000000,0.000000,0.000000,7.296032,32.413537,1.078625
1649352508.922112,22065.000000,1649352508.921967,0.000000,0.000000,1.000000,0.000000,0.000000,0.000000,0.000000,7.298307,32.414834,1.095798
1649352509.022262,22066.000000,1649352509.022142,0.000000,0.000000,1.000000,0.000000,0.000000,0.000000,0.000000,7.300407,32.414995,1.111506
1649352509.122599,22067.000000,1649352509.122424,0.000000,0.000000,1.000000,0.000000,0.000000,0.000000,0.000000,7.302339,32.414080,1.127393
1649352509.222536,22068.000000,1649352509.222390,0.000000,0.000000,1.000000,0.000000,0.000000,0.000000,0.000000,7.301928,32.415419,1.144231
1649352509.322138,22069.000000,1649352509.322015,0.000000,0.000000,1.000000,0.000000,0.000000,0.000000,0.000000,7.301486,32.414524,1.146630
1649352509.423785,22070.000000,1649352509.423352,0.000000,0.000000,1.000000,0.000000,0.000000,0.000000,0.000000,7.299930,32.413697,1.152108
1649352509.522098,22071.000000,1649352509.521979,0.000000,0.000000,1.000000,0.000000,0.000000,0.000000,0.000000,7.299509,32.414028,1.146822
1649352509.622088,22072.000000,1649352509.621984,0.000000,0.000000,1.000000,0.000000,0.000000,0.000000,0.000000,7.297983,32.415451,1.132024
1649352509.722070,22073.000000,1649352509.721961,0.000000,0.000000,1.000000,0.000000,0.000000,0.000000,0.000000,7.297601,32.415719,1.121029
1649352509.822109,22074.000000,1649352509.821979,0.000000,0.000000,1.000000,0.000000,0.000000,0.000000,0.000000,7.295032,32.417076,1.099185
1649352509.922226,22075.000000,1649352509.922050,0.000000,0.000000,1.000000,0.000000,0.000000,0.000000,0.000000,7.291495,32.418366,1.085517
1649352510.022125,22076.000000,1649352510.022000,0.000000,0.000000,1.000000,0.000000,0.000000,0.000000,0.000000,7.289236,32.417408,1.075683
1649352510.122285,22077.000000,1649352510.122160,0.000000,0.000000,1.000000,0.000000,0.000000,0.000000,0.000000,7.288193,32.414327,1.060673
1649352510.222742,22078.000000,1649352510.222326,0.000000,0.000000,1.000000,0.000000,0.000000,0.000000,0.000000,7.288302,32.413610,1.058460
1649352510.322069,22079.000000,1649352510.321967,0.000000,0.000000,1.000000,0.000000,0.000000,0.000000,0.000000,7.288410,32.411858,1.059656
1649352510.422011,22080.000000,1649352510.421922,0.000000,0.000000,1.000000,0.000000,0.000000,0.000000,0.000000,7.288516,32.410222,1.062505
1649352510.522054,22081.000000,1649352510.521955,0.000000,0.000000,1.000000,0.000000,0.000000,0.000000,0.000000,7.288620,32.409790,1.071771
1649352510.622260,22082.000000,1649352510.622152,0.000000,0.000000,1.000000,0.000000,0.000000,0.000000,0.000000,7.289812,32.409407,1.077499
1649352510.722357,22083.000000,1649352510.722242,0.000000,0.000000,1.000000,0.000000,0.000000,0.000000,0.000000,7.290938,32.410160,1.088689
1649352510.822092,22084.000000,1649352510.821975,0.000000,0.000000,1.000000,0.000000,0.000000,0.000000,0.000000,7.290908,32.410893,1.105908
1649352510.922281,22085.000000,1649352510.922163,0.000000,0.000000,1.000000,0.000000,0.000000,0.000000,0.000000,7.290875,32.413784,1.127269
1649352511.022254,22086.000000,1649352511.022120,0.000000,0.000000,1.000000,0.000000,0.000000,0.000000,0.000000,7.291931,32.414344,1.142085
1649352511.122154,22087.000000,1649352511.122037,0.000000,0.000000,1.000000,0.000000,0.000000,0.000000,0.000000,7.292922,32.415969,1.150596
1649352511.222114,22088.000000,1649352511.222009,0.000000,0.000000,1.000000,0.000000,0.000000,0.000000,0.000000,7.293850,32.417504,1.165141
1649352511.322049,22089.000000,1649352511.321936,0.000000,0.000000,1.000000,0.000000,0.000000,0.000000,0.000000,7.292535,32.420042,1.181424
1649352511.422168,22090.000000,1649352511.422049,0.000000,0.000000,1.000000,0.000000,0.000000,0.000000,0.000000,7.291284,32.422428,1.196932
1649352511.522274,22091.000000,1649352511.522113,0.000000,0.000000,1.000000,0.000000,0.000000,0.000000,0.000000,7.290099,32.423575,1.211673
1649352511.622494,22092.000000,1649352511.622327,0.000000,0.000000,1.000000,0.000000,0.000000,0.000000,0.000000,7.288979,32.424636,1.208726
1649352511.722470,22093.000000,1649352511.722251,0.000000,0.000000,1.000000,0.000000,0.000000,0.000000,0.000000,7.289015,32.425616,1.213007
1649352511.822812,22094.000000,1649352511.822457,0.000000,0.000000,1.000000,0.000000,0.000000,0.000000,0.000000,7.287963,32.426517,1.219386
1649352511.922064,22095.000000,1649352511.921955,0.000000,0.000000,1.000000,0.000000,0.000000,0.000000,0.000000,7.286976,32.428431,1.231000
1649352512.022023,22096.000000,1649352512.021924,0.000000,0.000000,1.000000,0.000000,0.000000,0.000000,0.000000,7.287143,32.428029,1.237140
1649352512.122099,22097.000000,1649352512.121998,0.000000,0.000000,1.000000,0.000000,0.000000,0.000000,0.000000,7.288400,32.426530,1.242056
1649352512.222312,22098.000000,1649352512.222204,0.000000,0.000000,1.000000,0.000000,0.000000,0.000000,0.000000,7.289593,32.426181,1.253860
1649352512.322233,22099.000000,1649352512.322120,0.000000,0.000000,1.000000,0.000000,0.000000,0.000000,0.000000,7.290721,32.424740,1.260973
1649352512.422138,22100.000000,1649352512.421978,0.000000,0.000000,1.000000,0.000000,0.000000,0.000000,0.000000,7.290694,32.425545,1.274061
1649352512.522169,22101.000000,1649352512.522041,0.000000,0.000000,1.000000,0.000000,0.000000,0.000000,0.000000,7.290666,32.425199,1.261420
1649352512.622135,22102.000000,1649352512.622018,0.000000,0.000000,1.000000,0.000000,0.000000,0.000000,0.000000,7.290637,32.427039,1.258792
1649352512.722560,22103.000000,1649352512.722425,0.000000,0.000000,1.000000,0.000000,0.000000,0.000000,0.000000,7.288426,32.429851,1.260948
1649352512.822435,22104.000000,1649352512.822276,0.000000,0.000000,1.000000,0.000000,0.000000,0.000000,0.000000,7.286340,32.432483,1.268504
1649352512.922391,22105.000000,1649352512.922284,0.000000,0.000000,1.000000,0.000000,0.000000,0.000000,0.000000,7.284379,32.434938,1.282043
1649352513.022331,22106.000000,1649352513.022204,0.000000,0.000000,1.000000,0.000000,0.000000,0.000000,0.000000,7.281451,32.437220,1.294857
1649352513.122166,22107.000000,1649352513.122062,0.000000,0.000000,1.000000,0.000000,0.000000,0.000000,0.000000,7.279798,32.438243,1.298088
1649352513.222129,22108.000000,1649352513.222023,0.000000,0.000000,1.000000,0.000000,0.000000,0.000000,0.000000,7.279353,32.436985,1.296159
1649352513.322164,22109.000000,1649352513.322043,0.000000,0.000000,1.000000,0.000000,0.000000,0.000000,0.000000,7.280052,32.436848,1.301385
1649352513.422169,22110.000000,1649352513.422060,0.000000,0.000000,1.000000,0.000000,0.000000,0.000000,0.000000,7.281827,32.438863,1.303800
1649352513.522455,22111.000000,1649352513.522297,0.000000,0.000000,1.000000,0.000000,0.000000,0.000000,0.000000,7.283523,32.440729,1.309165
1649352513.622017,22112.000000,1649352513.621930,0.000000,0.000000,1.000000,0.000000,0.000000,0.000000,0.000000,7.286228,32.440269,1.309296
1649352513.722252,22113.000000,1649352513.722073,0.000000,0.000000,1.000000,0.000000,0.000000,0.000000,0.000000,7.286607,32.439794,1.314087
1649352513.822287,22114.000000,1649352513.822121,0.000000,0.000000,1.000000,0.000000,0.000000,0.000000,0.000000,7.286966,32.438219,1.316093
1649352513.922158,22115.000000,1649352513.922021,0.000000,0.000000,1.000000,0.000000,0.000000,0.000000,0.000000,7.286215,32.435611,1.313010
1649352514.022284,22116.000000,1649352514.022134,0.000000,0.000000,1.000000,0.000000,0.000000,0.000000,0.000000,7.285506,32.434216,1.313926
1649352514.122773,22117.000000,1649352514.122658,0.000000,0.000000,1.000000,0.000000,0.000000,0.000000,0.000000,7.284840,32.431794,1.314654
1649352514.222445,22118.000000,1649352514.222235,0.000000,0.000000,1.000000,0.000000,0.000000,0.000000,0.000000,7.284217,32.431679,1.317624
1649352514.322196,22119.000000,1649352514.322075,0.000000,0.000000,1.000000,0.000000,0.000000,0.000000,0.000000,7.282544,32.430476,1.321942
1649352514.422217,22120.000000,1649352514.422054,0.000000,0.000000,1.000000,0.000000,0.000000,0.000000,0.000000,7.280975,32.428248,1.320294
1649352514.522378,22121.000000,1649352514.522242,0.000000,0.000000,1.000000,0.000000,0.000000,0.000000,0.000000,7.281688,32.427238,1.325027
1649352514.622249,22122.000000,1649352514.622095,0.000000,0.000000,1.000000,0.000000,0.000000,0.000000,0.000000,7.281286,32.426293,1.324589
1649352514.722193,22123.000000,1649352514.722055,0.000000,0.000000,1.000000,0.000000,0.000000,0.000000,0.000000,7.283100,32.424321,1.321617
1649352514.822154,22124.000000,1649352514.822045,0.000000,0.000000,1.000000,0.000000,0.000000,0.000000,0.000000,7.284823,32.422474,1.301705
1649352514.922083,22125.000000,1649352514.921976,0.000000,0.000000,1.000000,0.000000,0.000000,0.000000,0.000000,7.286453,32.420750,1.290577
1649352515.022205,22126.000000,1649352515.022052,0.000000,0.000000,1.000000,0.000000,0.000000,0.000000,0.000000,7.287991,32.415875,1.276610
1649352515.122186,22127.000000,1649352515.122062,0.000000,0.000000,1.000000,0.000000,0.000000,0.000000,0.000000,7.288347,32.412396,1.272848
1649352515.222364,22128.000000,1649352515.222205,0.000000,0.000000,1.000000,0.000000,0.000000,0.000000,0.000000,7.287583,32.412427,1.274856
1649352515.322147,22129.000000,1649352515.322023,0.000000,0.000000,1.000000,0.000000,0.000000,0.000000,0.000000,7.285765,32.412502,1.277559
1649352515.422124,22130.000000,1649352515.422019,0.000000,0.000000,1.000000,0.000000,0.000000,0.000000,0.000000,7.282956,32.413706,1.284960
1649352515.522199,22131.000000,1649352515.522088,0.000000,0.000000,1.000000,0.000000,0.000000,0.000000,0.000000,7.280308,32.415972,1.293630
1649352515.622201,22132.000000,1649352515.622075,0.000000,0.000000,1.000000,0.000000,0.000000,0.000000,0.000000,7.280002,32.418142,1.305121
1649352515.722355,22133.000000,1649352515.722252,0.000000,0.000000,1.000000,0.000000,0.000000,0.000000,0.000000,7.277548,32.422394,1.317686
1649352515.822104,22134.000000,1649352515.821988,0.000000,0.000000,1.000000,0.000000,0.000000,0.000000,0.000000,7.276343,32.425328,1.332879
1649352515.922148,22135.000000,1649352515.922056,0.000000,0.000000,1.000000,0.000000,0.000000,0.000000,0.000000,7.274138,32.428098,1.344120
1649352516.022383,22136.000000,1649352516.022266,0.000000,0.000000,1.000000,0.000000,0.000000,0.000000,0.000000,7.273175,32.430704,1.356392
1649352516.122360,22137.000000,1649352516.122225,0.000000,0.000000,1.000000,0.000000,0.000000,0.000000,0.000000,7.273387,32.432056,1.367219
1649352516.222409,22138.000000,1649352516.222279,0.000000,0.000000,1.000000,0.000000,0.000000,0.000000,0.000000,7.271438,32.432221,1.365357
1649352516.322097,22139.000000,1649352516.321995,0.000000,0.000000,1.000000,0.000000,0.000000,0.000000,0.000000,7.270719,32.431263,1.356971
1649352516.422226,22140.000000,1649352516.422127,0.000000,0.000000,1.000000,0.000000,0.000000,0.000000,0.000000,7.240633,32.443424,1.303637
1649352516.522170,22141.000000,1649352516.522037,0.000000,0.000000,1.000000,0.000000,0.000000,0.000000,0.000000,7.221037,32.451595,1.250002
1649352516.622510,22142.000000,1649352516.622355,0.000000,0.000000,1.000000,0.000000,0.000000,0.000000,0.000000,7.208142,32.458152,1.217139
1649352516.722470,22143.000000,1649352516.722358,0.000000,0.000000,1.000000,0.000000,0.000000,0.000000,0.000000,7.199433,32.462077,1.181683
1649352516.822374,22144.000000,1649352516.822267,0.000000,0.000000,1.000000,0.000000,0.000000,0.000000,0.000000,7.193606,32.466777,1.150247
1649352516.922338,22145.000000,1649352516.922232,0.000000,0.000000,1.000000,0.000000,0.000000,0.000000,0.000000,7.190509,32.471111,1.136422
1649352517.022499,22146.000000,1649352517.022347,0.000000,0.000000,1.000000,0.000000,0.000000,0.000000,0.000000,7.189991,32.474000,1.126612
1649352517.122144,22147.000000,1649352517.121991,0.000000,0.000000,1.000000,0.000000,0.000000,0.000000,0.000000,7.191898,32.475522,1.124693
1649352517.222211,22148.000000,1649352517.222089,0.000000,0.000000,1.000000,0.000000,0.000000,0.000000,0.000000,7.192810,32.475753,1.124695
1649352517.322137,22149.000000,1649352517.322038,0.000000,0.000000,1.000000,0.000000,0.000000,0.000000,0.000000,7.196038,32.473679,1.120886
1649352517.422093,22150.000000,1649352517.421970,0.000000,0.000000,1.000000,0.000000,0.000000,0.000000,0.000000,7.200343,32.470528,1.123094
1649352517.522477,22151.000000,1649352517.522342,0.000000,0.000000,1.000000,0.000000,0.000000,0.000000,0.000000,7.204554,32.469647,1.119774
1649352517.622273,22152.000000,1649352517.622142,0.000000,0.000000,1.000000,0.000000,0.000000,0.000000,0.000000,7.209746,32.468739,1.125660
1649352517.722320,22153.000000,1649352517.722183,0.000000,0.000000,1.000000,0.000000,0.000000,0.000000,0.000000,7.215841,32.468902,1.139559
1649352517.822211,22154.000000,1649352517.822085,0.000000,0.000000,1.000000,0.000000,0.000000,0.000000,0.000000,7.221675,32.468991,1.154662
1649352517.922851,22155.000000,1649352517.922652,0.000000,0.000000,1.000000,0.000000,0.000000,0.000000,0.000000,7.225059,32.469013,1.153149
1649352518.022191,22156.000000,1649352518.022061,0.000000,0.000000,1.000000,0.000000,0.000000,0.000000,0.000000,7.227204,32.470067,1.146169
1649352518.122280,22157.000000,1649352518.122143,0.000000,0.000000,1.000000,0.000000,0.000000,0.000000,0.000000,7.229258,32.469916,1.125080
1649352518.222172,22158.000000,1649352518.222043,0.000000,0.000000,1.000000,0.000000,0.000000,0.000000,0.000000,7.232309,32.467537,1.104996
1649352518.322134,22159.000000,1649352518.322029,0.000000,0.000000,1.000000,0.000000,0.000000,0.000000,0.000000,7.236292,32.465245,1.095582
1649352518.422126,22160.000000,1649352518.422028,0.000000,0.000000,1.000000,0.000000,0.000000,0.000000,0.000000,7.238963,32.463044,1.096417
1649352518.522095,22161.000000,1649352518.522002,0.000000,0.000000,1.000000,0.000000,0.000000,0.000000,0.000000,7.241474,32.460938,1.102238
1649352518.622140,22162.000000,1649352518.622017,0.000000,0.000000,1.000000,0.000000,0.000000,0.000000,0.000000,7.244919,32.458929,1.099118
1649352518.722362,22163.000000,1649352518.722172,0.000000,0.000000,1.000000,0.000000,0.000000,0.000000,0.000000,7.248146,32.455930,1.100319
1649352518.822523,22164.000000,1649352518.822400,0.000000,0.000000,1.000000,0.000000,0.000000,0.000000,0.000000,7.250069,32.452005,1.103239
1649352518.922459,22165.000000,1649352518.922342,0.000000,0.000000,1.000000,0.000000,0.000000,0.000000,0.000000,7.252934,32.449397,1.111828
1649352519.022362,22166.000000,1649352519.022223,0.000000,0.000000,1.000000,0.000000,0.000000,0.000000,0.000000,7.256685,32.445860,1.120193
1649352519.122100,22167.000000,1649352519.121975,0.000000,0.000000,1.000000,0.000000,0.000000,0.000000,0.000000,7.261264,32.443637,1.131549
1649352519.222044,22168.000000,1649352519.221933,0.000000,0.000000,1.000000,0.000000,0.000000,0.000000,0.000000,7.264434,32.441570,1.143333
1649352519.322144,22169.000000,1649352519.322029,0.000000,0.000000,1.000000,0.000000,0.000000,0.000000,0.000000,7.266266,32.439656,1.157117
1649352519.422227,22170.000000,1649352519.422109,0.000000,0.000000,1.000000,0.000000,0.000000,0.000000,0.000000,7.267922,32.438981,1.153440
1649352519.522471,22171.000000,1649352519.522312,0.000000,0.000000,1.000000,0.000000,0.000000,0.000000,0.000000,7.269410,32.439475,1.155592
1649352519.622524,22172.000000,1649352519.622372,0.000000,0.000000,1.000000,0.000000,0.000000,0.000000,0.000000,7.270740,32.439982,1.149622
1649352519.722459,22173.000000,1649352519.722326,0.000000,0.000000,1.000000,0.000000,0.000000,0.000000,0.000000,7.273010,32.439407,1.138286
1649352519.822743,22174.000000,1649352519.822282,0.000000,0.000000,1.000000,0.000000,0.000000,0.000000,0.000000,7.275077,32.441079,1.139560
1649352519.922216,22175.000000,1649352519.922042,0.000000,0.000000,1.000000,0.000000,0.000000,0.000000,0.000000,7.279131,32.440506,1.144060
1649352520.022053,22176.000000,1649352520.021962,0.000000,0.000000,1.000000,0.000000,0.000000,0.000000,0.000000,7.282873,32.441084,1.155679
1649352520.122073,22177.000000,1649352520.121952,0.000000,0.000000,1.000000,0.000000,0.000000,0.000000,0.000000,7.285225,32.442744,1.158786
1649352520.222187,22178.000000,1649352520.222029,0.000000,0.000000,1.000000,0.000000,0.000000,0.000000,0.000000,7.287351,32.444333,1.165814
1649352520.322173,22179.000000,1649352520.322050,0.000000,0.000000,1.000000,0.000000,0.000000,0.000000,0.000000,7.289261,32.445846,1.178206
1649352520.422149,22180.000000,1649352520.422042,0.000000,0.000000,1.000000,0.000000,0.000000,0.000000,0.000000,7.287697,32.447284,1.194918
1649352520.522105,22181.000000,1649352520.522015,0.000000,0.000000,1.000000,0.000000,0.000000,0.000000,0.000000,7.286129,32.448645,1.214942
1649352520.622639,22182.000000,1649352520.622269,0.000000,0.000000,1.000000,0.000000,0.000000,0.000000,0.000000,7.285658,32.447748,1.230855
1649352520.722116,22183.000000,1649352520.722029,0.000000,0.000000,1.000000,0.000000,0.000000,0.000000,0.000000,7.286230,32.446901,1.244410
1649352520.822129,22184.000000,1649352520.822001,0.000000,0.000000,1.000000,0.000000,0.000000,0.000000,0.000000,7.286700,32.445012,1.235524
1649352520.922168,22185.000000,1649352520.922039,0.000000,0.000000,1.000000,0.000000,0.000000,0.000000,0.000000,7.287077,32.444324,1.237380
1649352521.022559,22186.000000,1649352521.022443,0.000000,0.000000,1.000000,0.000000,0.000000,0.000000,0.000000,7.288459,32.440414,1.235028
1649352521.122517,22187.000000,1649352521.122384,0.000000,0.000000,1.000000,0.000000,0.000000,0.000000,0.000000,7.289700,32.437829,1.237518
1649352521.222415,22188.000000,1649352521.222284,0.000000,0.000000,1.000000,0.000000,0.000000,0.000000,0.000000,7.290807,32.435413,1.225299
1649352521.322527,22189.000000,1649352521.322414,0.000000,0.000000,1.000000,0.000000,0.000000,0.000000,0.000000,7.292879,32.433164,1.221570
1649352521.423926,22190.000000,1649352521.423475,0.000000,0.000000,1.000000,0.000000,0.000000,0.000000,0.000000,7.294770,32.432168,1.225191
1649352521.522319,22191.000000,1649352521.522166,0.000000,0.000000,1.000000,0.000000,0.000000,0.000000,0.000000,7.295397,32.432357,1.223766
1649352521.622325,22192.000000,1649352521.622210,0.000000,0.000000,1.000000,0.000000,0.000000,0.000000,0.000000,7.294832,32.431483,1.222341
1649352521.722327,22193.000000,1649352521.722212,0.000000,0.000000,1.000000,0.000000,0.000000,0.000000,0.000000,7.295325,32.430695,1.227372
1649352521.822152,22194.000000,1649352521.822034,0.000000,0.000000,1.000000,0.000000,0.000000,0.000000,0.000000,7.295731,32.431079,1.216014
1649352521.922190,22195.000000,1649352521.922092,0.000000,0.000000,1.000000,0.000000,0.000000,0.000000,0.000000,7.294966,32.431477,1.189754
1649352522.022167,22196.000000,1649352522.022033,0.000000,0.000000,1.000000,0.000000,0.000000,0.000000,0.000000,7.294190,32.430795,1.176658
1649352522.122198,22197.000000,1649352522.122072,0.000000,0.000000,1.000000,0.000000,0.000000,0.000000,0.000000,7.294500,32.430183,1.172993
1649352522.222200,22198.000000,1649352522.222055,0.000000,0.000000,1.000000,0.000000,0.000000,0.000000,0.000000,7.295839,32.429636,1.176769
1649352522.322111,22199.000000,1649352522.322015,0.000000,0.000000,1.000000,0.000000,0.000000,0.000000,0.000000,7.295967,32.429151,1.185260
1649352522.422113,22200.000000,1649352522.422004,0.000000,0.000000,1.000000,0.000000,0.000000,0.000000,0.000000,7.296044,32.427634,1.193421
1649352522.522263,22201.000000,1649352522.522079,0.000000,0.000000,1.000000,0.000000,0.000000,0.000000,0.000000,7.297164,32.427324,1.203671
1649352522.622290,22202.000000,1649352522.622148,0.000000,0.000000,1.000000,0.000000,0.000000,0.000000,0.000000,7.299271,32.427066,1.215907
1649352522.722583,22203.000000,1649352522.722407,0.000000,0.000000,1.000000,0.000000,0.000000,0.000000,0.000000,7.302306,32.425763,1.224386
1649352522.822542,22204.000000,1649352522.822399,0.000000,0.000000,1.000000,0.000000,0.000000,0.000000,0.000000,7.302940,32.424566,1.238923
1649352522.923014,22205.000000,1649352522.922868,0.000000,0.000000,1.000000,0.000000,0.000000,0.000000,0.000000,7.303487,32.423471,1.252800
1649352523.022434,22206.000000,1649352523.022295,0.000000,0.000000,1.000000,0.000000,0.000000,0.000000,0.000000,7.301772,32.423564,1.264410
1649352523.122219,22207.000000,1649352523.122076,0.000000,0.000000,1.000000,0.000000,0.000000,0.000000,0.000000,7.300106,32.422597,1.274635
1649352523.222114,22208.000000,1649352523.221985,0.000000,0.000000,1.000000,0.000000,0.000000,0.000000,0.000000,7.299586,32.421719,1.284324
1649352523.322170,22209.000000,1649352523.322068,0.000000,0.000000,1.000000,0.000000,0.000000,0.000000,0.000000,7.297972,32.426378,1.298328
1649352523.422171,22210.000000,1649352523.422041,0.000000,0.000000,1.000000,0.000000,0.000000,0.000000,0.000000,7.294240,32.431894,1.290647
1649352523.522485,22211.000000,1649352523.522320,0.000000,0.000000,1.000000,0.000000,0.000000,0.000000,0.000000,7.292881,32.434930,1.289594
1649352523.622633,22212.000000,1649352523.622480,0.000000,0.000000,1.000000,0.000000,0.000000,0.000000,0.000000,7.291588,32.435612,1.273942
1649352523.722453,22213.000000,1649352523.722298,0.000000,0.000000,1.000000,0.000000,0.000000,0.000000,0.000000,7.289273,32.436248,1.248343
1649352523.823406,22214.000000,1649352523.822976,0.000000,0.000000,1.000000,0.000000,0.000000,0.000000,0.000000,7.287090,32.437928,1.226955
1649352523.922582,22215.000000,1649352523.922408,0.000000,0.000000,1.000000,0.000000,0.000000,0.000000,0.000000,7.286127,32.438410,1.216904
1649352524.022511,22216.000000,1649352524.022388,0.000000,0.000000,1.000000,0.000000,0.000000,0.000000,0.000000,7.285231,32.438850,1.187913
1649352524.122428,22217.000000,1649352524.122287,0.000000,0.000000,1.000000,0.000000,0.000000,0.000000,0.000000,7.284399,32.438159,1.164987
1649352524.222095,22218.000000,1649352524.221988,0.000000,0.000000,1.000000,0.000000,0.000000,0.000000,0.000000,7.281450,32.437492,1.148725
1649352524.322177,22219.000000,1649352524.322030,0.000000,0.000000,1.000000,0.000000,0.000000,0.000000,0.000000,7.278687,32.437941,1.146139
1649352524.422167,22220.000000,1649352524.422057,0.000000,0.000000,1.000000,0.000000,0.000000,0.000000,0.000000,7.277199,32.437263,1.143775
1649352524.522166,22221.000000,1649352524.522035,0.000000,0.000000,1.000000,0.000000,0.000000,0.000000,0.000000,7.275827,32.436614,1.146461
1649352524.622125,22222.000000,1649352524.622010,0.000000,0.000000,1.000000,0.000000,0.000000,0.000000,0.000000,7.274568,32.435994,1.137050
1649352524.722306,22223.000000,1649352524.722157,0.000000,0.000000,1.000000,0.000000,0.000000,0.000000,0.000000,7.272328,32.435403,1.132168
1649352524.822051,22224.000000,1649352524.821947,0.000000,0.000000,1.000000,0.000000,0.000000,0.000000,0.000000,7.270254,32.434843,1.113089
1649352524.922052,22225.000000,1649352524.921952,0.000000,0.000000,1.000000,0.000000,0.000000,0.000000,0.000000,7.267251,32.435404,1.090089
1649352525.022381,22226.000000,1649352525.022259,0.000000,0.000000,1.000000,0.000000,0.000000,0.000000,0.000000,7.265558,32.435933,1.078682
1649352525.122174,22227.000000,1649352525.122074,0.000000,0.000000,1.000000,0.000000,0.000000,0.000000,0.000000,7.264014,32.437520,1.077605
1649352525.222105,22228.000000,1649352525.221976,0.000000,0.000000,1.000000,0.000000,0.000000,0.000000,0.000000,7.262613,32.439013,1.067081
1649352525.322145,22229.000000,1649352525.322038,0.000000,0.000000,1.000000,0.000000,0.000000,0.000000,0.000000,7.262439,32.438231,1.062018
1649352525.422206,22230.000000,1649352525.422106,0.000000,0.000000,1.000000,0.000000,0.000000,0.000000,0.000000,7.264512,32.438573,1.064614
1649352525.522253,22231.000000,1649352525.522134,0.000000,0.000000,1.000000,0.000000,0.000000,0.000000,0.000000,7.267610,32.438887,1.076968
1649352525.622129,22232.000000,1649352525.621991,0.000000,0.000000,1.000000,0.000000,0.000000,0.000000,0.000000,7.271665,32.438083,1.082528
1649352525.722140,22233.000000,1649352525.722027,0.000000,0.000000,1.000000,0.000000,0.000000,0.000000,0.000000,7.274428,32.439497,1.096068
1649352525.822138,22234.000000,1649352525.822023,0.000000,0.000000,1.000000,0.000000,0.000000,0.000000,0.000000,7.275960,32.441913,1.115626
1649352525.922106,22235.000000,1649352525.921993,0.000000,0.000000,1.000000,0.000000,0.000000,0.000000,0.000000,7.277414,32.444179,1.138501
1649352526.022611,22236.000000,1649352526.022483,0.000000,0.000000,1.000000,0.000000,0.000000,0.000000,0.000000,7.277698,32.445207,1.144356
