__time,/dwm1001/id_458E/pose_kf/header/seq,/dwm1001/id_458E/pose_kf/header/stamp,/dwm1001/id_458E/pose_kf/pose/orientation/pitch_deg,/dwm1001/id_458E/pose_kf/pose/orientation/roll_deg,/dwm1001/id_458E/pose_kf/pose/orientation/w,/dwm1001/id_458E/pose_kf/pose/orientation/x,/dwm1001/id_458E/pose_kf/pose/orientation/y,/dwm1001/id_458E/pose_kf/pose/orientation/yaw_deg,/dwm1001/id_458E/pose_kf/pose/orientation/z,/dwm1001/id_458E/pose_kf/pose/position/x,/dwm1001/id_458E/pose_kf/pose/position/y,/dwm1001/id_458E/pose_kf/pose/position/z
1649345029.334360,9524.000000,1649345029.333641,0.000000,0.000000,1.000000,0.000000,0.000000,0.000000,0.000000,4.469633,7.342643,-0.188565
1649345029.433136,9525.000000,1649345029.432864,0.000000,0.000000,1.000000,0.000000,0.000000,0.000000,0.000000,4.475609,7.339220,-0.203168
1649345029.535372,9526.000000,1649345029.534618,0.000000,0.000000,1.000000,0.000000,0.000000,0.000000,0.000000,4.482366,7.333806,-0.233323
1649345029.633034,9527.000000,1649345029.632744,0.000000,0.000000,1.000000,0.000000,0.000000,0.000000,0.000000,4.477845,7.336339,-0.229156
1649345029.734213,9528.000000,1649345029.733413,0.000000,0.000000,1.000000,0.000000,0.000000,0.000000,0.000000,4.475760,7.336564,-0.248512
1649345029.833346,9529.000000,1649345029.833050,0.000000,0.000000,1.000000,0.000000,0.000000,0.000000,0.000000,4.475983,7.334605,-0.283153
1649345029.932997,9530.000000,1649345029.932769,0.000000,0.000000,1.000000,0.000000,0.000000,0.000000,0.000000,4.479479,7.330587,-0.329987
1649345030.033228,9531.000000,1649345030.032702,0.000000,0.000000,1.000000,0.000000,0.000000,0.000000,0.000000,4.483876,7.326815,-0.369901
1649345030.137517,9532.000000,1649345030.135759,0.000000,0.000000,1.000000,0.000000,0.000000,0.000000,0.000000,4.491292,7.322195,-0.398275
1649345030.236391,9533.000000,1649345030.235902,0.000000,0.000000,1.000000,0.000000,0.000000,0.000000,0.000000,4.498269,7.317876,-0.413923
1649345030.333860,9534.000000,1649345030.333333,0.000000,0.000000,1.000000,0.000000,0.000000,0.000000,0.000000,4.502629,7.314944,-0.445571
1649345030.434093,9535.000000,1649345030.433445,0.000000,0.000000,1.000000,0.000000,0.000000,0.000000,0.000000,4.507777,7.312236,-0.486888
1649345030.536841,9536.000000,1649345030.535803,0.000000,0.000000,1.000000,0.000000,0.000000,0.000000,0.000000,4.502753,7.316290,-0.484201
1649345030.638324,9537.000000,1649345030.637391,0.000000,0.000000,1.000000,0.000000,0.000000,0.000000,0.000000,4.501216,7.317995,-0.485275
1649345030.739423,9538.000000,1649345030.738469,0.000000,0.000000,1.000000,0.000000,0.000000,0.000000,0.000000,4.500804,7.317473,-0.492390
1649345030.836758,9539.000000,1649345030.835314,0.000000,0.000000,1.000000,0.000000,0.000000,0.000000,0.000000,4.503639,7.315933,-0.498050
1649345030.934113,9540.000000,1649345030.933762,0.000000,0.000000,1.000000,0.000000,0.000000,0.000000,0.000000,4.496455,7.321065,-0.468446
1649345031.033882,9541.000000,1649345031.033328,0.000000,0.000000,1.000000,0.000000,0.000000,0.000000,0.000000,4.492907,7.323766,-0.463937
1649345031.133301,9542.000000,1649345031.132900,0.000000,0.000000,1.000000,0.000000,0.000000,0.000000,0.000000,4.492810,7.324156,-0.480306
1649345031.233545,9543.000000,1649345031.233183,0.000000,0.000000,1.000000,0.000000,0.000000,0.000000,0.000000,4.493797,7.323450,-0.497339
1649345031.336127,9544.000000,1649345031.335173,0.000000,0.000000,1.000000,0.000000,0.000000,0.000000,0.000000,4.495805,7.322799,-0.527897
1649345031.442153,9545.000000,1649345031.440655,0.000000,0.000000,1.000000,0.000000,0.000000,0.000000,0.000000,4.500955,7.318930,-0.552847
1649345031.535990,9546.000000,1649345031.534888,0.000000,0.000000,1.000000,0.000000,0.000000,0.000000,0.000000,4.505789,7.315302,-0.569161
1649345031.632839,9547.000000,1649345031.632602,0.000000,0.000000,1.000000,0.000000,0.000000,0.000000,0.000000,4.511401,7.310819,-0.582820
1649345031.734949,9548.000000,1649345031.733620,0.000000,0.000000,1.000000,0.000000,0.000000,0.000000,0.000000,4.517735,7.307722,-0.607635
1649345031.833705,9549.000000,1649345031.833264,0.000000,0.000000,1.000000,0.000000,0.000000,0.000000,0.000000,4.523644,7.305941,-0.622968
1649345031.934686,9550.000000,1649345031.934011,0.000000,0.000000,1.000000,0.000000,0.000000,0.000000,0.000000,4.528047,7.303226,-0.650968
1649345032.032932,9551.000000,1649345032.032629,0.000000,0.000000,1.000000,0.000000,0.000000,0.000000,0.000000,4.531018,7.300725,-0.686255
1649345032.134660,9552.000000,1649345032.134030,0.000000,0.000000,1.000000,0.000000,0.000000,0.000000,0.000000,4.534812,7.298428,-0.705108
1649345032.234251,9553.000000,1649345032.233710,0.000000,0.000000,1.000000,0.000000,0.000000,0.000000,0.000000,4.538288,7.296329,-0.716244
1649345032.337016,9554.000000,1649345032.335867,0.000000,0.000000,1.000000,0.000000,0.000000,0.000000,0.000000,4.531645,7.302052,-0.691748
1649345032.438003,9555.000000,1649345032.436786,0.000000,0.000000,1.000000,0.000000,0.000000,0.000000,0.000000,4.517642,7.311877,-0.638766
1649345032.533518,9556.000000,1649345032.532563,0.000000,0.000000,1.000000,0.000000,0.000000,0.000000,0.000000,4.509816,7.317914,-0.566619
1649345032.634835,9557.000000,1649345032.634110,0.000000,0.000000,1.000000,0.000000,0.000000,0.000000,0.000000,4.493680,7.329072,-0.478634
1649345032.735474,9558.000000,1649345032.733434,0.000000,0.000000,1.000000,0.000000,0.000000,0.000000,0.000000,4.471920,7.345038,-0.424801
1649345032.834310,9559.000000,1649345032.833705,0.000000,0.000000,1.000000,0.000000,0.000000,0.000000,0.000000,4.456903,7.355688,-0.373191
1649345032.933110,9560.000000,1649345032.932706,0.000000,0.000000,1.000000,0.000000,0.000000,0.000000,0.000000,4.448303,7.361282,-0.319768
1649345033.033996,9561.000000,1649345033.033586,0.000000,0.000000,1.000000,0.000000,0.000000,0.000000,0.000000,4.434884,7.371900,-0.252593
1649345033.135417,9562.000000,1649345033.134860,0.000000,0.000000,1.000000,0.000000,0.000000,0.000000,0.000000,4.428937,7.377426,-0.188454
1649345033.235574,9563.000000,1649345033.235125,0.000000,0.000000,1.000000,0.000000,0.000000,0.000000,0.000000,4.425700,7.380311,-0.127322
1649345033.335770,9564.000000,1649345033.334918,0.000000,0.000000,1.000000,0.000000,0.000000,0.000000,0.000000,4.426114,7.380699,-0.103035
1649345033.436854,9565.000000,1649345033.435732,0.000000,0.000000,1.000000,0.000000,0.000000,0.000000,0.000000,4.428877,7.379824,-0.107675
1649345033.532834,9566.000000,1649345033.532478,0.000000,0.000000,1.000000,0.000000,0.000000,0.000000,0.000000,4.422937,7.384309,-0.080368
1649345033.634135,9567.000000,1649345033.633674,0.000000,0.000000,1.000000,0.000000,0.000000,0.000000,0.000000,4.421862,7.386222,-0.030492
1649345033.732919,9568.000000,1649345033.732516,0.000000,0.000000,1.000000,0.000000,0.000000,0.000000,0.000000,4.423199,7.383526,-0.017891
1649345033.836899,9569.000000,1649345033.835982,0.000000,0.000000,1.000000,0.000000,0.000000,0.000000,0.000000,4.426803,7.379760,-0.019284
1649345033.934394,9570.000000,1649345033.933840,0.000000,0.000000,1.000000,0.000000,0.000000,0.000000,0.000000,4.431439,7.373911,-0.033274
1649345034.035165,9571.000000,1649345034.034107,0.000000,0.000000,1.000000,0.000000,0.000000,0.000000,0.000000,4.427215,7.374840,-0.016565
1649345034.134938,9572.000000,1649345034.133933,0.000000,0.000000,1.000000,0.000000,0.000000,0.000000,0.000000,4.427705,7.372365,-0.026851
1649345034.232871,9573.000000,1649345034.232464,0.000000,0.000000,1.000000,0.000000,0.000000,0.000000,0.000000,4.431552,7.368867,-0.055749
1649345034.336983,9574.000000,1649345034.336280,0.000000,0.000000,1.000000,0.000000,0.000000,0.000000,0.000000,4.437466,7.364415,-0.080664
1649345034.432899,9575.000000,1649345034.432638,0.000000,0.000000,1.000000,0.000000,0.000000,0.000000,0.000000,4.444219,7.359078,-0.121052
1649345034.537847,9576.000000,1649345034.536551,0.000000,0.000000,1.000000,0.000000,0.000000,0.000000,0.000000,4.450649,7.352925,-0.172982
1649345034.635215,9577.000000,1649345034.633947,0.000000,0.000000,1.000000,0.000000,0.000000,0.000000,0.000000,4.457843,7.346018,-0.211694
1649345034.737160,9578.000000,1649345034.735761,0.000000,0.000000,1.000000,0.000000,0.000000,0.000000,0.000000,4.465733,7.340603,-0.257811
1649345034.838297,9579.000000,1649345034.837357,0.000000,0.000000,1.000000,0.000000,0.000000,0.000000,0.000000,4.475348,7.334432,-0.312565
1649345034.938267,9580.000000,1649345034.937083,0.000000,0.000000,1.000000,0.000000,0.000000,0.000000,0.000000,4.473481,7.336288,-0.319062
1649345035.035307,9581.000000,1649345035.034720,0.000000,0.000000,1.000000,0.000000,0.000000,0.000000,0.000000,4.473850,7.335909,-0.333272
1649345035.133071,9582.000000,1649345035.132776,0.000000,0.000000,1.000000,0.000000,0.000000,0.000000,0.000000,4.477426,7.333417,-0.362929
1649345035.236152,9583.000000,1649345035.235063,0.000000,0.000000,1.000000,0.000000,0.000000,0.000000,0.000000,4.482935,7.331112,-0.401719
1649345035.333262,9584.000000,1649345035.332537,0.000000,0.000000,1.000000,0.000000,0.000000,0.000000,0.000000,4.489167,7.326807,-0.449215
1649345035.435708,9585.000000,1649345035.434609,0.000000,0.000000,1.000000,0.000000,0.000000,0.000000,0.000000,4.485163,7.330436,-0.454994
1649345035.533339,9586.000000,1649345035.532950,0.000000,0.000000,1.000000,0.000000,0.000000,0.000000,0.000000,4.484582,7.331738,-0.477192
1649345035.636670,9587.000000,1649345035.635975,0.000000,0.000000,1.000000,0.000000,0.000000,0.000000,0.000000,4.487244,7.330831,-0.493347
1649345035.733517,9588.000000,1649345035.733110,0.000000,0.000000,1.000000,0.000000,0.000000,0.000000,0.000000,4.489696,7.328928,-0.523042
1649345035.835502,9589.000000,1649345035.834811,0.000000,0.000000,1.000000,0.000000,0.000000,0.000000,0.000000,4.494127,7.326086,-0.539890
1649345035.934554,9590.000000,1649345035.933573,0.000000,0.000000,1.000000,0.000000,0.000000,0.000000,0.000000,4.499327,7.322362,-0.546814
1649345036.036862,9591.000000,1649345036.036159,0.000000,0.000000,1.000000,0.000000,0.000000,0.000000,0.000000,4.505244,7.317813,-0.570023
1649345036.135613,9592.000000,1649345036.135021,0.000000,0.000000,1.000000,0.000000,0.000000,0.000000,0.000000,4.509644,7.313585,-0.583033
1649345036.236575,9593.000000,1649345036.236002,0.000000,0.000000,1.000000,0.000000,0.000000,0.000000,0.000000,4.515873,7.309670,-0.607215
1649345036.337837,9594.000000,1649345036.336309,0.000000,0.000000,1.000000,0.000000,0.000000,0.000000,0.000000,4.521637,7.304967,-0.638870
1649345036.434549,9595.000000,1649345036.434152,0.000000,0.000000,1.000000,0.000000,0.000000,0.000000,0.000000,4.528042,7.299530,-0.660725
1649345036.539200,9596.000000,1649345036.538338,0.000000,0.000000,1.000000,0.000000,0.000000,0.000000,0.000000,4.535040,7.295590,-0.691706
1649345036.635224,9597.000000,1649345036.634271,0.000000,0.000000,1.000000,0.000000,0.000000,0.000000,0.000000,4.541495,7.291982,-0.709638
1649345036.734202,9598.000000,1649345036.733759,0.000000,0.000000,1.000000,0.000000,0.000000,0.000000,0.000000,4.547426,7.288692,-0.722296
1649345036.833561,9599.000000,1649345036.833241,0.000000,0.000000,1.000000,0.000000,0.000000,0.000000,0.000000,4.551761,7.286796,-0.728280
1649345036.934481,9600.000000,1649345036.934022,0.000000,0.000000,1.000000,0.000000,0.000000,0.000000,0.000000,4.555676,7.285127,-0.744807
1649345037.035650,9601.000000,1649345037.034763,0.000000,0.000000,1.000000,0.000000,0.000000,0.000000,0.000000,4.547197,7.292393,-0.721445
1649345037.134003,9602.000000,1649345037.133612,0.000000,0.000000,1.000000,0.000000,0.000000,0.000000,0.000000,4.542301,7.296085,-0.700184
1649345037.235993,9603.000000,1649345037.235009,0.000000,0.000000,1.000000,0.000000,0.000000,0.000000,0.000000,4.539729,7.298560,-0.699545
1649345037.333806,9604.000000,1649345037.333375,0.000000,0.000000,1.000000,0.000000,0.000000,0.000000,0.000000,4.538277,7.299873,-0.713068
1649345037.436095,9605.000000,1649345037.434964,0.000000,0.000000,1.000000,0.000000,0.000000,0.000000,0.000000,4.536806,7.300078,-0.736143
1649345037.537103,9606.000000,1649345037.536425,0.000000,0.000000,1.000000,0.000000,0.000000,0.000000,0.000000,4.537507,7.299234,-0.766750
1649345037.634607,9607.000000,1649345037.633913,0.000000,0.000000,1.000000,0.000000,0.000000,0.000000,0.000000,4.540265,7.297396,-0.802938
1649345037.733963,9608.000000,1649345037.733386,0.000000,0.000000,1.000000,0.000000,0.000000,0.000000,0.000000,4.543874,7.295712,-0.839600
1649345037.833302,9609.000000,1649345037.832903,0.000000,0.000000,1.000000,0.000000,0.000000,0.000000,0.000000,4.548281,7.294175,-0.861352
1649345037.933455,9610.000000,1649345037.932966,0.000000,0.000000,1.000000,0.000000,0.000000,0.000000,0.000000,4.551255,7.292780,-0.872007
1649345038.036441,9611.000000,1649345038.036007,0.000000,0.000000,1.000000,0.000000,0.000000,0.000000,0.000000,4.553958,7.291519,-0.891372
1649345038.136471,9612.000000,1649345038.135557,0.000000,0.000000,1.000000,0.000000,0.000000,0.000000,0.000000,4.556406,7.289296,-0.912634
1649345038.235487,9613.000000,1649345038.234352,0.000000,0.000000,1.000000,0.000000,0.000000,0.000000,0.000000,4.558609,7.287257,-0.928445
1649345038.333174,9614.000000,1649345038.332905,0.000000,0.000000,1.000000,0.000000,0.000000,0.000000,0.000000,4.560580,7.284304,-0.931763
1649345038.437955,9615.000000,1649345038.436497,0.000000,0.000000,1.000000,0.000000,0.000000,0.000000,0.000000,4.561243,7.283764,-0.930369
1649345038.533727,9616.000000,1649345038.533378,0.000000,0.000000,1.000000,0.000000,0.000000,0.000000,0.000000,4.561762,7.283322,-0.922058
1649345038.635013,9617.000000,1649345038.634111,0.000000,0.000000,1.000000,0.000000,0.000000,0.000000,0.000000,4.562151,7.281880,-0.905532
1649345038.734348,9618.000000,1649345038.733314,0.000000,0.000000,1.000000,0.000000,0.000000,0.000000,0.000000,4.562421,7.281673,-0.879558
1649345038.836303,9619.000000,1649345038.835843,0.000000,0.000000,1.000000,0.000000,0.000000,0.000000,0.000000,4.563674,7.281542,-0.848611
1649345038.936059,9620.000000,1649345038.935145,0.000000,0.000000,1.000000,0.000000,0.000000,0.000000,0.000000,4.565857,7.280388,-0.837154
1649345039.033901,9621.000000,1649345039.033104,0.000000,0.000000,1.000000,0.000000,0.000000,0.000000,0.000000,4.566738,7.279357,-0.823465
1649345039.135913,9622.000000,1649345039.135429,0.000000,0.000000,1.000000,0.000000,0.000000,0.000000,0.000000,4.567481,7.278442,-0.822185
1649345039.232532,9623.000000,1649345039.232281,0.000000,0.000000,1.000000,0.000000,0.000000,0.000000,0.000000,4.567005,7.277637,-0.808633
1649345039.335523,9624.000000,1649345039.334648,0.000000,0.000000,1.000000,0.000000,0.000000,0.000000,0.000000,4.567564,7.276935,-0.797853
1649345039.435007,9625.000000,1649345039.434565,0.000000,0.000000,1.000000,0.000000,0.000000,0.000000,0.000000,4.566925,7.275238,-0.776048
1649345039.532680,9626.000000,1649345039.532414,0.000000,0.000000,1.000000,0.000000,0.000000,0.000000,0.000000,4.566248,7.273694,-0.769515
1649345039.633195,9627.000000,1649345039.632895,0.000000,0.000000,1.000000,0.000000,0.000000,0.000000,0.000000,4.565544,7.273384,-0.776040
1649345039.734427,9628.000000,1649345039.734001,0.000000,0.000000,1.000000,0.000000,0.000000,0.000000,0.000000,4.553914,7.279693,-0.741865
1649345039.834280,9629.000000,1649345039.833868,0.000000,0.000000,1.000000,0.000000,0.000000,0.000000,0.000000,4.534175,7.291145,-0.676759
1649345039.934241,9630.000000,1649345039.933557,0.000000,0.000000,1.000000,0.000000,0.000000,0.000000,0.000000,4.522098,7.298699,-0.641756
1649345040.035468,9631.000000,1649345040.034054,0.000000,0.000000,1.000000,0.000000,0.000000,0.000000,0.000000,4.505307,7.310177,-0.576025
1649345040.137199,9632.000000,1649345040.136178,0.000000,0.000000,1.000000,0.000000,0.000000,0.000000,0.000000,4.493919,7.317697,-0.492199
1649345040.235568,9633.000000,1649345040.234833,0.000000,0.000000,1.000000,0.000000,0.000000,0.000000,0.000000,4.487669,7.322546,-0.446786
1649345040.341636,9634.000000,1649345040.340383,0.000000,0.000000,1.000000,0.000000,0.000000,0.000000,0.000000,4.484108,7.324858,-0.415719
1649345040.436896,9635.000000,1649345040.435770,0.000000,0.000000,1.000000,0.000000,0.000000,0.000000,0.000000,4.472186,7.334583,-0.362166
1649345040.534115,9636.000000,1649345040.533390,0.000000,0.000000,1.000000,0.000000,0.000000,0.000000,0.000000,4.466561,7.340388,-0.286296
1649345040.634157,9637.000000,1649345040.633536,0.000000,0.000000,1.000000,0.000000,0.000000,0.000000,0.000000,4.465807,7.343566,-0.245569
1649345040.743760,9638.000000,1649345040.742574,0.000000,0.000000,1.000000,0.000000,0.000000,0.000000,0.000000,4.468559,7.343166,-0.234577
1649345040.836189,9639.000000,1649345040.835227,0.000000,0.000000,1.000000,0.000000,0.000000,0.000000,0.000000,4.461521,7.350297,-0.193242
1649345040.936341,9640.000000,1649345040.935118,0.000000,0.000000,1.000000,0.000000,0.000000,0.000000,0.000000,4.459413,7.352539,-0.180086
1649345041.032715,9641.000000,1649345041.032318,0.000000,0.000000,1.000000,0.000000,0.000000,0.000000,0.000000,4.448879,7.362153,-0.141548
1649345041.136589,9642.000000,1649345041.136349,0.000000,0.000000,1.000000,0.000000,0.000000,0.000000,0.000000,4.433671,7.375444,-0.131106
1649345041.234560,9643.000000,1649345041.234134,0.000000,0.000000,1.000000,0.000000,0.000000,0.000000,0.000000,4.427165,7.383457,-0.094387
1649345041.334159,9644.000000,1649345041.333763,0.000000,0.000000,1.000000,0.000000,0.000000,0.000000,0.000000,4.425621,7.388645,-0.051032
1649345041.433640,9645.000000,1649345041.433218,0.000000,0.000000,1.000000,0.000000,0.000000,0.000000,0.000000,4.427671,7.390068,0.009941
1649345041.533832,9646.000000,1649345041.532983,0.000000,0.000000,1.000000,0.000000,0.000000,0.000000,0.000000,4.432007,7.387938,0.031299
1649345041.634586,9647.000000,1649345041.633864,0.000000,0.000000,1.000000,0.000000,0.000000,0.000000,0.000000,4.437388,7.382467,0.026738
1649345041.734670,9648.000000,1649345041.734214,0.000000,0.000000,1.000000,0.000000,0.000000,0.000000,0.000000,4.444821,7.376047,0.019118
1649345041.832956,9649.000000,1649345041.832524,0.000000,0.000000,1.000000,0.000000,0.000000,0.000000,0.000000,4.443256,7.376390,0.042483
1649345041.937960,9650.000000,1649345041.937285,0.000000,0.000000,1.000000,0.000000,0.000000,0.000000,0.000000,4.434271,7.382045,0.086706
1649345042.033516,9651.000000,1649345042.033328,0.000000,0.000000,1.000000,0.000000,0.000000,0.000000,0.000000,4.431376,7.392711,0.093645
1649345042.135607,9652.000000,1649345042.134423,0.000000,0.000000,1.000000,0.000000,0.000000,0.000000,0.000000,4.432060,7.399366,0.125310
1649345042.234113,9653.000000,1649345042.233741,0.000000,0.000000,1.000000,0.000000,0.000000,0.000000,0.000000,4.435025,7.402218,0.175040
1649345042.335342,9654.000000,1649345042.334269,0.000000,0.000000,1.000000,0.000000,0.000000,0.000000,0.000000,4.429227,7.411286,0.192055
1649345042.435073,9655.000000,1649345042.434252,0.000000,0.000000,1.000000,0.000000,0.000000,0.000000,0.000000,4.427149,7.416402,0.218813
1649345042.535329,9656.000000,1649345042.533699,0.000000,0.000000,1.000000,0.000000,0.000000,0.000000,0.000000,4.428586,7.417774,0.244426
1649345042.636435,9657.000000,1649345042.635607,0.000000,0.000000,1.000000,0.000000,0.000000,0.000000,0.000000,4.434426,7.415613,0.285064
1649345042.736851,9658.000000,1649345042.736098,0.000000,0.000000,1.000000,0.000000,0.000000,0.000000,0.000000,4.441132,7.411220,0.307024
1649345042.835022,9659.000000,1649345042.834380,0.000000,0.000000,1.000000,0.000000,0.000000,0.000000,0.000000,4.438817,7.412373,0.340899
1649345042.936944,9660.000000,1649345042.935432,0.000000,0.000000,1.000000,0.000000,0.000000,0.000000,0.000000,4.439970,7.410051,0.370060
1649345043.037933,9661.000000,1649345043.036708,0.000000,0.000000,1.000000,0.000000,0.000000,0.000000,0.000000,4.432401,7.413182,0.407591
1649345043.134289,9662.000000,1649345043.133888,0.000000,0.000000,1.000000,0.000000,0.000000,0.000000,0.000000,4.428598,7.413834,0.458775
1649345043.232550,9663.000000,1649345043.232244,0.000000,0.000000,1.000000,0.000000,0.000000,0.000000,0.000000,4.427274,7.411056,0.503660
1649345043.333926,9664.000000,1649345043.333445,0.000000,0.000000,1.000000,0.000000,0.000000,0.000000,0.000000,4.430472,7.405052,0.523112
1649345043.433579,9665.000000,1649345043.433180,0.000000,0.000000,1.000000,0.000000,0.000000,0.000000,0.000000,4.436842,7.398203,0.526231
1649345043.532789,9666.000000,1649345043.532572,0.000000,0.000000,1.000000,0.000000,0.000000,0.000000,0.000000,4.442915,7.390581,0.496779
1649345043.633447,9667.000000,1649345043.632582,0.000000,0.000000,1.000000,0.000000,0.000000,0.000000,0.000000,4.450865,7.382256,0.443417
1649345043.734572,9668.000000,1649345043.734001,0.000000,0.000000,1.000000,0.000000,0.000000,0.000000,0.000000,4.458384,7.373293,0.385786
1649345043.835004,9669.000000,1649345043.834190,0.000000,0.000000,1.000000,0.000000,0.000000,0.000000,0.000000,4.466561,7.364847,0.313705
1649345043.936395,9670.000000,1649345043.934918,0.000000,0.000000,1.000000,0.000000,0.000000,0.000000,0.000000,4.476426,7.355823,0.244034
1649345044.034319,9671.000000,1649345044.033462,0.000000,0.000000,1.000000,0.000000,0.000000,0.000000,0.000000,4.485679,7.347368,0.163913
1649345044.134077,9672.000000,1649345044.133483,0.000000,0.000000,1.000000,0.000000,0.000000,0.000000,0.000000,4.494327,7.339475,0.096493
1649345044.237307,9673.000000,1649345044.236503,0.000000,0.000000,1.000000,0.000000,0.000000,0.000000,0.000000,4.502383,7.333221,0.018805
1649345044.335154,9674.000000,1649345044.334170,0.000000,0.000000,1.000000,0.000000,0.000000,0.000000,0.000000,4.508770,7.326350,-0.047634
1649345044.433670,9675.000000,1649345044.433228,0.000000,0.000000,1.000000,0.000000,0.000000,0.000000,0.000000,4.515747,7.319999,-0.111231
1649345044.532959,9676.000000,1649345044.532552,0.000000,0.000000,1.000000,0.000000,0.000000,0.000000,0.000000,4.512365,7.321785,-0.136517
1649345044.639938,9677.000000,1649345044.639030,0.000000,0.000000,1.000000,0.000000,0.000000,0.000000,0.000000,4.512294,7.321436,-0.162907
1649345044.738621,9678.000000,1649345044.737756,0.000000,0.000000,1.000000,0.000000,0.000000,0.000000,0.000000,4.513181,7.319060,-0.189517
1649345044.834465,9679.000000,1649345044.833756,0.000000,0.000000,1.000000,0.000000,0.000000,0.000000,0.000000,4.514978,7.316950,-0.232436
1649345044.933641,9680.000000,1649345044.933342,0.000000,0.000000,1.000000,0.000000,0.000000,0.000000,0.000000,4.516548,7.312908,-0.285306
1649345045.035591,9681.000000,1649345045.034664,0.000000,0.000000,1.000000,0.000000,0.000000,0.000000,0.000000,4.518997,7.308136,-0.331522
1649345045.136350,9682.000000,1649345045.135562,0.000000,0.000000,1.000000,0.000000,0.000000,0.000000,0.000000,4.511371,7.312492,-0.341457
1649345045.237342,9683.000000,1649345045.235040,0.000000,0.000000,1.000000,0.000000,0.000000,0.000000,0.000000,4.507335,7.314555,-0.368999
1649345045.334664,9684.000000,1649345045.334112,0.000000,0.000000,1.000000,0.000000,0.000000,0.000000,0.000000,4.506713,7.314435,-0.409381
1649345045.436479,9685.000000,1649345045.435772,0.000000,0.000000,1.000000,0.000000,0.000000,0.000000,0.000000,4.508234,7.312246,-0.459623
1649345045.534853,9686.000000,1649345045.534179,0.000000,0.000000,1.000000,0.000000,0.000000,0.000000,0.000000,4.510691,7.308100,-0.512009
1649345045.632480,9687.000000,1649345045.632253,0.000000,0.000000,1.000000,0.000000,0.000000,0.000000,0.000000,4.514029,7.304292,-0.570424
1649345045.733344,9688.000000,1649345045.733118,0.000000,0.000000,1.000000,0.000000,0.000000,0.000000,0.000000,4.518194,7.300810,-0.607945
1649345045.834156,9689.000000,1649345045.833657,0.000000,0.000000,1.000000,0.000000,0.000000,0.000000,0.000000,4.522042,7.297639,-0.639092
1649345045.933586,9690.000000,1649345045.933048,0.000000,0.000000,1.000000,0.000000,0.000000,0.000000,0.000000,4.524493,7.295856,-0.667331
1649345046.035891,9691.000000,1649345046.034870,0.000000,0.000000,1.000000,0.000000,0.000000,0.000000,0.000000,4.517989,7.300836,-0.654863
1649345046.136391,9692.000000,1649345046.134872,0.000000,0.000000,1.000000,0.000000,0.000000,0.000000,0.000000,4.515037,7.303465,-0.663870
1649345046.234078,9693.000000,1649345046.233600,0.000000,0.000000,1.000000,0.000000,0.000000,0.000000,0.000000,4.513277,7.302766,-0.687053
1649345046.335979,9694.000000,1649345046.335462,0.000000,0.000000,1.000000,0.000000,0.000000,0.000000,0.000000,4.512652,7.302188,-0.710125
1649345046.433028,9695.000000,1649345046.432673,0.000000,0.000000,1.000000,0.000000,0.000000,0.000000,0.000000,4.514197,7.300633,-0.742762
1649345046.537756,9696.000000,1649345046.536884,0.000000,0.000000,1.000000,0.000000,0.000000,0.000000,0.000000,4.515610,7.298152,-0.756331
1649345046.633519,9697.000000,1649345046.633098,0.000000,0.000000,1.000000,0.000000,0.000000,0.000000,0.000000,4.517987,7.296981,-0.782256
1649345046.736520,9698.000000,1649345046.733992,0.000000,0.000000,1.000000,0.000000,0.000000,0.000000,0.000000,4.520180,7.294867,-0.795030
1649345046.833540,9699.000000,1649345046.833049,0.000000,0.000000,1.000000,0.000000,0.000000,0.000000,0.000000,4.511292,7.300585,-0.766163
1649345046.936869,9700.000000,1649345046.936218,0.000000,0.000000,1.000000,0.000000,0.000000,0.000000,0.000000,4.506133,7.304963,-0.759512
1649345047.033352,9701.000000,1649345047.033140,0.000000,0.000000,1.000000,0.000000,0.000000,0.000000,0.000000,4.503427,7.305875,-0.768580
1649345047.132897,9702.000000,1649345047.132340,0.000000,0.000000,1.000000,0.000000,0.000000,0.000000,0.000000,4.505230,7.304597,-0.787100
1649345047.235466,9703.000000,1649345047.234429,0.000000,0.000000,1.000000,0.000000,0.000000,0.000000,0.000000,4.508019,7.302339,-0.813881
1649345047.334391,9704.000000,1649345047.333608,0.000000,0.000000,1.000000,0.000000,0.000000,0.000000,0.000000,4.499739,7.308972,-0.798574
1649345047.434032,9705.000000,1649345047.433582,0.000000,0.000000,1.000000,0.000000,0.000000,0.000000,0.000000,4.495195,7.313085,-0.797768
1649345047.533340,9706.000000,1649345047.532772,0.000000,0.000000,1.000000,0.000000,0.000000,0.000000,0.000000,4.494195,7.314801,-0.795583
1649345047.633816,9707.000000,1649345047.633500,0.000000,0.000000,1.000000,0.000000,0.000000,0.000000,0.000000,4.494368,7.316426,-0.806622
1649345047.733257,9708.000000,1649345047.732776,0.000000,0.000000,1.000000,0.000000,0.000000,0.000000,0.000000,4.495649,7.316869,-0.827937
1649345047.834122,9709.000000,1649345047.833754,0.000000,0.000000,1.000000,0.000000,0.000000,0.000000,0.000000,4.496880,7.316192,-0.830875
1649345047.932821,9710.000000,1649345047.932532,0.000000,0.000000,1.000000,0.000000,0.000000,0.000000,0.000000,4.499150,7.315551,-0.823455
1649345048.034228,9711.000000,1649345048.033853,0.000000,0.000000,1.000000,0.000000,0.000000,0.000000,0.000000,4.501303,7.313854,-0.827905
1649345048.133745,9712.000000,1649345048.133360,0.000000,0.000000,1.000000,0.000000,0.000000,0.000000,0.000000,4.503339,7.311165,-0.826020
1649345048.236843,9713.000000,1649345048.235790,0.000000,0.000000,1.000000,0.000000,0.000000,0.000000,0.000000,4.507439,7.307545,-0.815659
1649345048.336735,9714.000000,1649345048.336275,0.000000,0.000000,1.000000,0.000000,0.000000,0.000000,0.000000,4.512387,7.304146,-0.820589
1649345048.439858,9715.000000,1649345048.438752,0.000000,0.000000,1.000000,0.000000,0.000000,0.000000,0.000000,4.518123,7.300967,-0.835366
1649345048.532835,9716.000000,1649345048.532636,0.000000,0.000000,1.000000,0.000000,0.000000,0.000000,0.000000,4.523497,7.298002,-0.857168
1649345048.635999,9717.000000,1649345048.634451,0.000000,0.000000,1.000000,0.000000,0.000000,0.000000,0.000000,4.529605,7.295247,-0.863112
1649345048.732586,9718.000000,1649345048.732330,0.000000,0.000000,1.000000,0.000000,0.000000,0.000000,0.000000,4.526578,7.299238,-0.828039
1649345048.834638,9719.000000,1649345048.833826,0.000000,0.000000,1.000000,0.000000,0.000000,0.000000,0.000000,4.523651,7.303051,-0.798844
1649345048.933895,9720.000000,1649345048.933189,0.000000,0.000000,1.000000,0.000000,0.000000,0.000000,0.000000,4.520831,7.305591,-0.789064
1649345049.035290,9721.000000,1649345049.034849,0.000000,0.000000,1.000000,0.000000,0.000000,0.000000,0.000000,4.509402,7.315640,-0.746333
1649345049.133083,9722.000000,1649345049.132849,0.000000,0.000000,1.000000,0.000000,0.000000,0.000000,0.000000,4.501864,7.321852,-0.674483
1649345049.238288,9723.000000,1649345049.237432,0.000000,0.000000,1.000000,0.000000,0.000000,0.000000,0.000000,4.499121,7.324420,-0.618366
1649345049.336872,9724.000000,1649345049.336384,0.000000,0.000000,1.000000,0.000000,0.000000,0.000000,0.000000,4.487833,7.333347,-0.546801
1649345049.434131,9725.000000,1649345049.433570,0.000000,0.000000,1.000000,0.000000,0.000000,0.000000,0.000000,4.481585,7.339540,-0.456499
1649345049.534103,9726.000000,1649345049.533668,0.000000,0.000000,1.000000,0.000000,0.000000,0.000000,0.000000,4.467034,7.350764,-0.361263
1649345049.634542,9727.000000,1649345049.633956,0.000000,0.000000,1.000000,0.000000,0.000000,0.000000,0.000000,4.458847,7.357992,-0.258217
1649345049.734594,9728.000000,1649345049.734171,0.000000,0.000000,1.000000,0.000000,0.000000,0.000000,0.000000,4.454517,7.361425,-0.166379
1649345049.833470,9729.000000,1649345049.832940,0.000000,0.000000,1.000000,0.000000,0.000000,0.000000,0.000000,4.442935,7.371079,-0.074944
1649345049.936473,9730.000000,1649345049.935491,0.000000,0.000000,1.000000,0.000000,0.000000,0.000000,0.000000,4.437609,7.376781,0.010335
1649345050.034246,9731.000000,1649345050.034058,0.000000,0.000000,1.000000,0.000000,0.000000,0.000000,0.000000,4.434934,7.378736,0.103306
1649345050.134588,9732.000000,1649345050.133814,0.000000,0.000000,1.000000,0.000000,0.000000,0.000000,0.000000,4.424950,7.386965,0.193060
1649345050.234076,9733.000000,1649345050.233455,0.000000,0.000000,1.000000,0.000000,0.000000,0.000000,0.000000,4.421160,7.392387,0.273167
1649345050.334982,9734.000000,1649345050.334390,0.000000,0.000000,1.000000,0.000000,0.000000,0.000000,0.000000,4.410143,7.402780,0.309253
1649345050.433002,9735.000000,1649345050.432647,0.000000,0.000000,1.000000,0.000000,0.000000,0.000000,0.000000,4.396679,7.416762,0.311149
1649345050.533151,9736.000000,1649345050.532838,0.000000,0.000000,1.000000,0.000000,0.000000,0.000000,0.000000,4.390742,7.425381,0.326252
1649345050.632939,9737.000000,1649345050.632649,0.000000,0.000000,1.000000,0.000000,0.000000,0.000000,0.000000,4.389746,7.428917,0.362926
1649345050.734959,9738.000000,1649345050.734194,0.000000,0.000000,1.000000,0.000000,0.000000,0.000000,0.000000,4.394502,7.429831,0.398518
1649345050.835026,9739.000000,1649345050.834387,0.000000,0.000000,1.000000,0.000000,0.000000,0.000000,0.000000,4.401394,7.429366,0.431447
1649345050.934589,9740.000000,1649345050.933567,0.000000,0.000000,1.000000,0.000000,0.000000,0.000000,0.000000,4.410274,7.425434,0.451334
1649345051.032600,9741.000000,1649345051.032403,0.000000,0.000000,1.000000,0.000000,0.000000,0.000000,0.000000,4.410089,7.426970,0.485334
1649345051.136845,9742.000000,1649345051.136569,0.000000,0.000000,1.000000,0.000000,0.000000,0.000000,0.000000,4.403508,7.434775,0.485292
1649345051.232834,9743.000000,1649345051.232547,0.000000,0.000000,1.000000,0.000000,0.000000,0.000000,0.000000,4.401795,7.437588,0.506664
1649345051.332346,9744.000000,1649345051.332121,0.000000,0.000000,1.000000,0.000000,0.000000,0.000000,0.000000,4.395959,7.444409,0.497793
1649345051.434697,9745.000000,1649345051.434186,0.000000,0.000000,1.000000,0.000000,0.000000,0.000000,0.000000,4.393867,7.445195,0.512380
1649345051.532575,9746.000000,1649345051.532315,0.000000,0.000000,1.000000,0.000000,0.000000,0.000000,0.000000,4.396404,7.442465,0.523696
1649345051.635896,9747.000000,1649345051.634883,0.000000,0.000000,1.000000,0.000000,0.000000,0.000000,0.000000,4.402209,7.437523,0.498832
1649345051.735047,9748.000000,1649345051.733339,0.000000,0.000000,1.000000,0.000000,0.000000,0.000000,0.000000,4.411079,7.429423,0.451431
1649345051.832918,9749.000000,1649345051.832639,0.000000,0.000000,1.000000,0.000000,0.000000,0.000000,0.000000,4.420632,7.420553,0.400263
1649345051.935573,9750.000000,1649345051.934730,0.000000,0.000000,1.000000,0.000000,0.000000,0.000000,0.000000,4.430795,7.409900,0.334312
1649345052.033219,9751.000000,1649345052.032547,0.000000,0.000000,1.000000,0.000000,0.000000,0.000000,0.000000,4.429509,7.408503,0.299476
1649345052.137346,9752.000000,1649345052.136288,0.000000,0.000000,1.000000,0.000000,0.000000,0.000000,0.000000,4.420670,7.412594,0.292973
1649345052.238976,9753.000000,1649345052.238181,0.000000,0.000000,1.000000,0.000000,0.000000,0.000000,0.000000,4.417802,7.414230,0.311273
1649345052.339373,9754.000000,1649345052.338639,0.000000,0.000000,1.000000,0.000000,0.000000,0.000000,0.000000,4.419496,7.411363,0.347718
1649345052.432861,9755.000000,1649345052.432456,0.000000,0.000000,1.000000,0.000000,0.000000,0.000000,0.000000,4.425496,7.405339,0.345891
1649345052.536808,9756.000000,1649345052.536165,0.000000,0.000000,1.000000,0.000000,0.000000,0.000000,0.000000,4.434456,7.397444,0.312197
1649345052.633869,9757.000000,1649345052.633391,0.000000,0.000000,1.000000,0.000000,0.000000,0.000000,0.000000,4.445095,7.388895,0.280256
1649345052.734611,9758.000000,1649345052.734039,0.000000,0.000000,1.000000,0.000000,0.000000,0.000000,0.000000,4.455108,7.379754,0.236360
1649345052.834347,9759.000000,1649345052.833799,0.000000,0.000000,1.000000,0.000000,0.000000,0.000000,0.000000,4.454687,7.378803,0.224628
1649345052.935664,9760.000000,1649345052.934156,0.000000,0.000000,1.000000,0.000000,0.000000,0.000000,0.000000,4.446587,7.382325,0.234922
1649345053.033108,9761.000000,1649345053.032640,0.000000,0.000000,1.000000,0.000000,0.000000,0.000000,0.000000,4.434527,7.392243,0.221186
1649345053.136632,9762.000000,1649345053.135345,0.000000,0.000000,1.000000,0.000000,0.000000,0.000000,0.000000,4.419853,7.405993,0.182807
1649345053.234601,9763.000000,1649345053.234168,0.000000,0.000000,1.000000,0.000000,0.000000,0.000000,0.000000,4.413658,7.414599,0.155531
1649345053.334578,9764.000000,1649345053.333249,0.000000,0.000000,1.000000,0.000000,0.000000,0.000000,0.000000,4.413315,7.419408,0.149444
1649345053.433910,9765.000000,1649345053.433345,0.000000,0.000000,1.000000,0.000000,0.000000,0.000000,0.000000,4.417413,7.422794,0.162094
1649345053.535440,9766.000000,1649345053.534005,0.000000,0.000000,1.000000,0.000000,0.000000,0.000000,0.000000,4.422423,7.423738,0.192705
1649345053.632539,9767.000000,1649345053.632160,0.000000,0.000000,1.000000,0.000000,0.000000,0.000000,0.000000,4.429366,7.423466,0.231634
1649345053.737850,9768.000000,1649345053.737267,0.000000,0.000000,1.000000,0.000000,0.000000,0.000000,0.000000,4.438115,7.423139,0.278486
1649345053.835142,9769.000000,1649345053.834087,0.000000,0.000000,1.000000,0.000000,0.000000,0.000000,0.000000,4.446362,7.422764,0.332063
1649345053.934334,9770.000000,1649345053.933602,0.000000,0.000000,1.000000,0.000000,0.000000,0.000000,0.000000,4.446478,7.428893,0.339594
1649345054.035422,9771.000000,1649345054.033935,0.000000,0.000000,1.000000,0.000000,0.000000,0.000000,0.000000,4.438907,7.438973,0.312615
1649345054.133737,9772.000000,1649345054.132999,0.000000,0.000000,1.000000,0.000000,0.000000,0.000000,0.000000,4.428458,7.451672,0.260639
1649345054.235095,9773.000000,1649345054.234054,0.000000,0.000000,1.000000,0.000000,0.000000,0.000000,0.000000,4.425133,7.458091,0.237195
1649345054.333367,9774.000000,1649345054.333073,0.000000,0.000000,1.000000,0.000000,0.000000,0.000000,0.000000,4.417651,7.468372,0.189566
1649345054.432894,9775.000000,1649345054.432715,0.000000,0.000000,1.000000,0.000000,0.000000,0.000000,0.000000,4.407351,7.480101,0.130103
1649345054.533976,9776.000000,1649345054.532977,0.000000,0.000000,1.000000,0.000000,0.000000,0.000000,0.000000,4.404230,7.485538,0.101323
1649345054.633860,9777.000000,1649345054.633333,0.000000,0.000000,1.000000,0.000000,0.000000,0.000000,0.000000,4.395908,7.493745,0.052034
1649345054.743051,9778.000000,1649345054.739603,0.000000,0.000000,1.000000,0.000000,0.000000,0.000000,0.000000,4.385960,7.503466,-0.012020
1649345054.835577,9779.000000,1649345054.834657,0.000000,0.000000,1.000000,0.000000,0.000000,0.000000,0.000000,4.372321,7.514601,-0.082077
1649345054.934426,9780.000000,1649345054.934053,0.000000,0.000000,1.000000,0.000000,0.000000,0.000000,0.000000,4.366130,7.520508,-0.115853
1649345055.036842,9781.000000,1649345055.035874,0.000000,0.000000,1.000000,0.000000,0.000000,0.000000,0.000000,4.356088,7.528012,-0.163157
1649345055.133655,9782.000000,1649345055.133290,0.000000,0.000000,1.000000,0.000000,0.000000,0.000000,0.000000,4.344608,7.537017,-0.221770
1649345055.234623,9783.000000,1649345055.233984,0.000000,0.000000,1.000000,0.000000,0.000000,0.000000,0.000000,4.330701,7.547428,-0.286317
1649345055.334694,9784.000000,1649345055.333988,0.000000,0.000000,1.000000,0.000000,0.000000,0.000000,0.000000,4.327617,7.550430,-0.319378
1649345055.434241,9785.000000,1649345055.433895,0.000000,0.000000,1.000000,0.000000,0.000000,0.000000,0.000000,4.330398,7.548614,-0.322192
1649345055.535688,9786.000000,1649345055.535118,0.000000,0.000000,1.000000,0.000000,0.000000,0.000000,0.000000,4.336523,7.543356,-0.297617
1649345055.635464,9787.000000,1649345055.635273,0.000000,0.000000,1.000000,0.000000,0.000000,0.000000,0.000000,4.345776,7.537057,-0.251665
1649345055.735103,9788.000000,1649345055.734349,0.000000,0.000000,1.000000,0.000000,0.000000,0.000000,0.000000,4.348134,7.535258,-0.243364
1649345055.833485,9789.000000,1649345055.833117,0.000000,0.000000,1.000000,0.000000,0.000000,0.000000,0.000000,4.345046,7.537732,-0.259941
1649345055.936591,9790.000000,1649345055.936047,0.000000,0.000000,1.000000,0.000000,0.000000,0.000000,0.000000,4.348806,7.535526,-0.245546
1649345056.032503,9791.000000,1649345056.032257,0.000000,0.000000,1.000000,0.000000,0.000000,0.000000,0.000000,4.356839,7.530003,-0.214375
1649345056.135557,9792.000000,1649345056.134457,0.000000,0.000000,1.000000,0.000000,0.000000,0.000000,0.000000,4.359068,7.530094,-0.215561
1649345056.237307,9793.000000,1649345056.236097,0.000000,0.000000,1.000000,0.000000,0.000000,0.000000,0.000000,4.365609,7.526777,-0.192168
1649345056.336823,9794.000000,1649345056.335847,0.000000,0.000000,1.000000,0.000000,0.000000,0.000000,0.000000,4.375114,7.521347,-0.146853
1649345056.436561,9795.000000,1649345056.435736,0.000000,0.000000,1.000000,0.000000,0.000000,0.000000,0.000000,4.377575,7.520484,-0.139459
1649345056.532581,9796.000000,1649345056.532357,0.000000,0.000000,1.000000,0.000000,0.000000,0.000000,0.000000,4.385360,7.516315,-0.109608
1649345056.634904,9797.000000,1649345056.633962,0.000000,0.000000,1.000000,0.000000,0.000000,0.000000,0.000000,4.395974,7.509039,-0.070360
1649345056.734551,9798.000000,1649345056.733685,0.000000,0.000000,1.000000,0.000000,0.000000,0.000000,0.000000,4.407050,7.501030,-0.018939
1649345056.833091,9799.000000,1649345056.832332,0.000000,0.000000,1.000000,0.000000,0.000000,0.000000,0.000000,4.417440,7.492358,0.043269
1649345056.933100,9800.000000,1649345056.932694,0.000000,0.000000,1.000000,0.000000,0.000000,0.000000,0.000000,4.431516,7.481995,0.104435
1649345057.032773,9801.000000,1649345057.032398,0.000000,0.000000,1.000000,0.000000,0.000000,0.000000,0.000000,4.435953,7.478789,0.121761
1649345057.140303,9802.000000,1649345057.135775,0.000000,0.000000,1.000000,0.000000,0.000000,0.000000,0.000000,4.442176,7.473633,0.157480
1649345057.234657,9803.000000,1649345057.233766,0.000000,0.000000,1.000000,0.000000,0.000000,0.000000,0.000000,4.451166,7.467737,0.204348
1649345057.336126,9804.000000,1649345057.334306,0.000000,0.000000,1.000000,0.000000,0.000000,0.000000,0.000000,4.462754,7.460066,0.252980
1649345057.432806,9805.000000,1649345057.432447,0.000000,0.000000,1.000000,0.000000,0.000000,0.000000,0.000000,4.473503,7.451826,0.306463
1649345057.537343,9806.000000,1649345057.536145,0.000000,0.000000,1.000000,0.000000,0.000000,0.000000,0.000000,4.473621,7.450701,0.315337
1649345057.633602,9807.000000,1649345057.633238,0.000000,0.000000,1.000000,0.000000,0.000000,0.000000,0.000000,4.475695,7.448666,0.339471
1649345057.736627,9808.000000,1649345057.734944,0.000000,0.000000,1.000000,0.000000,0.000000,0.000000,0.000000,4.470903,7.452314,0.325810
1649345057.837412,9809.000000,1649345057.836428,0.000000,0.000000,1.000000,0.000000,0.000000,0.000000,0.000000,4.460734,7.460225,0.287214
1649345057.936156,9810.000000,1649345057.935405,0.000000,0.000000,1.000000,0.000000,0.000000,0.000000,0.000000,4.455339,7.463415,0.281226
1649345058.036384,9811.000000,1649345058.034628,0.000000,0.000000,1.000000,0.000000,0.000000,0.000000,0.000000,4.454483,7.463215,0.296074
1649345058.136261,9812.000000,1649345058.134531,0.000000,0.000000,1.000000,0.000000,0.000000,0.000000,0.000000,4.449205,7.467442,0.276071
1649345058.236620,9813.000000,1649345058.235155,0.000000,0.000000,1.000000,0.000000,0.000000,0.000000,0.000000,4.438677,7.474746,0.232347
1649345058.334792,9814.000000,1649345058.334170,0.000000,0.000000,1.000000,0.000000,0.000000,0.000000,0.000000,4.435219,7.476213,0.208690
1649345058.437310,9815.000000,1649345058.436576,0.000000,0.000000,1.000000,0.000000,0.000000,0.000000,0.000000,4.435188,7.475426,0.209987
1649345058.537022,9816.000000,1649345058.536623,0.000000,0.000000,1.000000,0.000000,0.000000,0.000000,0.000000,4.436217,7.472510,0.228785
1649345058.635581,9817.000000,1649345058.635037,0.000000,0.000000,1.000000,0.000000,0.000000,0.000000,0.000000,4.430616,7.475222,0.218388
1649345058.737795,9818.000000,1649345058.736354,0.000000,0.000000,1.000000,0.000000,0.000000,0.000000,0.000000,4.430759,7.473433,0.223547
1649345058.833469,9819.000000,1649345058.832726,0.000000,0.000000,1.000000,0.000000,0.000000,0.000000,0.000000,4.436334,7.467393,0.235571
1649345058.937736,9820.000000,1649345058.937005,0.000000,0.000000,1.000000,0.000000,0.000000,0.000000,0.000000,4.443756,7.460622,0.251749
1649345059.033009,9821.000000,1649345059.032722,0.000000,0.000000,1.000000,0.000000,0.000000,0.000000,0.000000,4.452904,7.452091,0.275929
1649345059.133906,9822.000000,1649345059.133538,0.000000,0.000000,1.000000,0.000000,0.000000,0.000000,0.000000,4.463657,7.443009,0.274690
1649345059.233345,9823.000000,1649345059.232752,0.000000,0.000000,1.000000,0.000000,0.000000,0.000000,0.000000,4.463905,7.439972,0.289394
1649345059.337822,9824.000000,1649345059.336608,0.000000,0.000000,1.000000,0.000000,0.000000,0.000000,0.000000,4.465128,7.435024,0.312124
1649345059.433636,9825.000000,1649345059.433214,0.000000,0.000000,1.000000,0.000000,0.000000,0.000000,0.000000,4.470548,7.436999,0.301399
1649345059.532751,9826.000000,1649345059.532466,0.000000,0.000000,1.000000,0.000000,0.000000,0.000000,0.000000,4.476652,7.435696,0.298115
1649345059.635948,9827.000000,1649345059.634562,0.000000,0.000000,1.000000,0.000000,0.000000,0.000000,0.000000,4.483391,7.431290,0.301181
1649345059.735437,9828.000000,1649345059.734796,0.000000,0.000000,1.000000,0.000000,0.000000,0.000000,0.000000,4.490715,7.423960,0.325668
1649345059.833723,9829.000000,1649345059.833238,0.000000,0.000000,1.000000,0.000000,0.000000,0.000000,0.000000,4.499669,7.414972,0.331971
1649345059.935477,9830.000000,1649345059.934442,0.000000,0.000000,1.000000,0.000000,0.000000,0.000000,0.000000,4.509054,7.403347,0.308727
1649345060.034117,9831.000000,1649345060.033119,0.000000,0.000000,1.000000,0.000000,0.000000,0.000000,0.000000,4.515556,7.391437,0.272499
1649345060.136617,9832.000000,1649345060.134910,0.000000,0.000000,1.000000,0.000000,0.000000,0.000000,0.000000,4.522592,7.380377,0.214204
1649345060.234161,9833.000000,1649345060.233569,0.000000,0.000000,1.000000,0.000000,0.000000,0.000000,0.000000,4.527944,7.370142,0.141288
1649345060.332903,9834.000000,1649345060.332582,0.000000,0.000000,1.000000,0.000000,0.000000,0.000000,0.000000,4.532788,7.360708,0.058497
1649345060.440125,9835.000000,1649345060.438269,0.000000,0.000000,1.000000,0.000000,0.000000,0.000000,0.000000,4.536058,7.352047,-0.027990
1649345060.536707,9836.000000,1649345060.534713,0.000000,0.000000,1.000000,0.000000,0.000000,0.000000,0.000000,4.541115,7.343038,-0.113853
1649345060.634966,9837.000000,1649345060.634317,0.000000,0.000000,1.000000,0.000000,0.000000,0.000000,0.000000,4.546767,7.333713,-0.186084
1649345060.735692,9838.000000,1649345060.734397,0.000000,0.000000,1.000000,0.000000,0.000000,0.000000,0.000000,4.550795,7.326283,-0.264486
1649345060.832829,9839.000000,1649345060.832518,0.000000,0.000000,1.000000,0.000000,0.000000,0.000000,0.000000,4.552198,7.318470,-0.331767
1649345060.936742,9840.000000,1649345060.935942,0.000000,0.000000,1.000000,0.000000,0.000000,0.000000,0.000000,4.544586,7.317935,-0.350386
1649345061.033414,9841.000000,1649345061.032513,0.000000,0.000000,1.000000,0.000000,0.000000,0.000000,0.000000,4.540479,7.314452,-0.371501
1649345061.136683,9842.000000,1649345061.135870,0.000000,0.000000,1.000000,0.000000,0.000000,0.000000,0.000000,4.538620,7.309266,-0.404686
1649345061.233506,9843.000000,1649345061.233182,0.000000,0.000000,1.000000,0.000000,0.000000,0.000000,0.000000,4.527998,7.311193,-0.405882
1649345061.338534,9844.000000,1649345061.337864,0.000000,0.000000,1.000000,0.000000,0.000000,0.000000,0.000000,4.521126,7.310008,-0.413508
1649345061.432793,9845.000000,1649345061.432575,0.000000,0.000000,1.000000,0.000000,0.000000,0.000000,0.000000,4.517827,7.308051,-0.439421
1649345061.535504,9846.000000,1649345061.534779,0.000000,0.000000,1.000000,0.000000,0.000000,0.000000,0.000000,4.516830,7.305355,-0.460292
1649345061.635708,9847.000000,1649345061.635272,0.000000,0.000000,1.000000,0.000000,0.000000,0.000000,0.000000,4.516926,7.301954,-0.496482
1649345061.736545,9848.000000,1649345061.734792,0.000000,0.000000,1.000000,0.000000,0.000000,0.000000,0.000000,4.508246,7.305518,-0.491700
1649345061.834589,9849.000000,1649345061.834278,0.000000,0.000000,1.000000,0.000000,0.000000,0.000000,0.000000,4.504380,7.305827,-0.505703
1649345061.936160,9850.000000,1649345061.935248,0.000000,0.000000,1.000000,0.000000,0.000000,0.000000,0.000000,4.502901,7.304137,-0.536130
1649345062.033444,9851.000000,1649345062.033076,0.000000,0.000000,1.000000,0.000000,0.000000,0.000000,0.000000,4.503683,7.300550,-0.575042
1649345062.134560,9852.000000,1649345062.133579,0.000000,0.000000,1.000000,0.000000,0.000000,0.000000,0.000000,4.505509,7.297351,-0.622061
1649345062.234542,9853.000000,1649345062.233964,0.000000,0.000000,1.000000,0.000000,0.000000,0.000000,0.000000,4.497414,7.302150,-0.629236
1649345062.336885,9854.000000,1649345062.336009,0.000000,0.000000,1.000000,0.000000,0.000000,0.000000,0.000000,4.491959,7.303582,-0.640131
1649345062.433533,9855.000000,1649345062.433076,0.000000,0.000000,1.000000,0.000000,0.000000,0.000000,0.000000,4.489015,7.302906,-0.665903
1649345062.537159,9856.000000,1649345062.535281,0.000000,0.000000,1.000000,0.000000,0.000000,0.000000,0.000000,4.488453,7.301321,-0.681749
1649345062.635006,9857.000000,1649345062.633970,0.000000,0.000000,1.000000,0.000000,0.000000,0.000000,0.000000,4.489052,7.298873,-0.693723
1649345062.734432,9858.000000,1649345062.733477,0.000000,0.000000,1.000000,0.000000,0.000000,0.000000,0.000000,4.491836,7.295608,-0.701188
1649345062.833237,9859.000000,1649345062.832958,0.000000,0.000000,1.000000,0.000000,0.000000,0.000000,0.000000,4.484680,7.300297,-0.671281
1649345062.934576,9860.000000,1649345062.934195,0.000000,0.000000,1.000000,0.000000,0.000000,0.000000,0.000000,4.482322,7.302670,-0.660432
1649345063.033446,9861.000000,1649345063.032970,0.000000,0.000000,1.000000,0.000000,0.000000,0.000000,0.000000,4.481233,7.303928,-0.654211
1649345063.133102,9862.000000,1649345063.132773,0.000000,0.000000,1.000000,0.000000,0.000000,0.000000,0.000000,4.481346,7.304123,-0.653274
1649345063.233270,9863.000000,1649345063.232900,0.000000,0.000000,1.000000,0.000000,0.000000,0.000000,0.000000,4.481501,7.303306,-0.654211
1649345063.332618,9864.000000,1649345063.332430,0.000000,0.000000,1.000000,0.000000,0.000000,0.000000,0.000000,4.480603,7.302620,-0.666647
1649345063.434070,9865.000000,1649345063.433566,0.000000,0.000000,1.000000,0.000000,0.000000,0.000000,0.000000,4.469985,7.309688,-0.646572
1649345063.533710,9866.000000,1649345063.533127,0.000000,0.000000,1.000000,0.000000,0.000000,0.000000,0.000000,4.465473,7.314248,-0.644547
1649345063.636532,9867.000000,1649345063.635790,0.000000,0.000000,1.000000,0.000000,0.000000,0.000000,0.000000,4.464564,7.316417,-0.646966
1649345063.738504,9868.000000,1649345063.736722,0.000000,0.000000,1.000000,0.000000,0.000000,0.000000,0.000000,4.465970,7.316317,-0.643182
1649345063.835859,9869.000000,1649345063.834876,0.000000,0.000000,1.000000,0.000000,0.000000,0.000000,0.000000,4.468463,7.315161,-0.639923
1649345063.933908,9870.000000,1649345063.933556,0.000000,0.000000,1.000000,0.000000,0.000000,0.000000,0.000000,4.473064,7.313008,-0.632353
1649345064.034280,9871.000000,1649345064.033419,0.000000,0.000000,1.000000,0.000000,0.000000,0.000000,0.000000,4.479640,7.309918,-0.643255
1649345064.138802,9872.000000,1649345064.137571,0.000000,0.000000,1.000000,0.000000,0.000000,0.000000,0.000000,4.485878,7.305949,-0.649303
1649345064.233375,9873.000000,1649345064.232896,0.000000,0.000000,1.000000,0.000000,0.000000,0.000000,0.000000,4.492867,7.302249,-0.667633
1649345064.342083,9874.000000,1649345064.341230,0.000000,0.000000,1.000000,0.000000,0.000000,0.000000,0.000000,4.498363,7.298813,-0.679186
1649345064.437363,9875.000000,1649345064.435648,0.000000,0.000000,1.000000,0.000000,0.000000,0.000000,0.000000,4.494799,7.303266,-0.651975
1649345064.540800,9876.000000,1649345064.539792,0.000000,0.000000,1.000000,0.000000,0.000000,0.000000,0.000000,4.493585,7.305346,-0.647303
1649345064.638187,9877.000000,1649345064.636173,0.000000,0.000000,1.000000,0.000000,0.000000,0.000000,0.000000,4.494599,7.305174,-0.633636
1649345064.733789,9878.000000,1649345064.732616,0.000000,0.000000,1.000000,0.000000,0.000000,0.000000,0.000000,4.486813,7.312684,-0.593633
1649345064.833183,9879.000000,1649345064.832819,0.000000,0.000000,1.000000,0.000000,0.000000,0.000000,0.000000,4.483817,7.316528,-0.561499
1649345064.934163,9880.000000,1649345064.933828,0.000000,0.000000,1.000000,0.000000,0.000000,0.000000,0.000000,4.483179,7.317982,-0.539398
1649345065.034278,9881.000000,1649345065.033734,0.000000,0.000000,1.000000,0.000000,0.000000,0.000000,0.000000,4.472777,7.325896,-0.488260
1649345065.133685,9882.000000,1649345065.132840,0.000000,0.000000,1.000000,0.000000,0.000000,0.000000,0.000000,4.468440,7.330079,-0.464184
1649345065.234469,9883.000000,1649345065.232773,0.000000,0.000000,1.000000,0.000000,0.000000,0.000000,0.000000,4.467668,7.330723,-0.463701
1649345065.337467,9884.000000,1649345065.335701,0.000000,0.000000,1.000000,0.000000,0.000000,0.000000,0.000000,4.469176,7.330201,-0.480213
1649345065.435403,9885.000000,1649345065.434588,0.000000,0.000000,1.000000,0.000000,0.000000,0.000000,0.000000,4.471741,7.329673,-0.492039
1649345065.538418,9886.000000,1649345065.536583,0.000000,0.000000,1.000000,0.000000,0.000000,0.000000,0.000000,4.474204,7.326960,-0.518702
1649345065.638918,9887.000000,1649345065.638176,0.000000,0.000000,1.000000,0.000000,0.000000,0.000000,0.000000,4.477651,7.323283,-0.552300
1649345065.736125,9888.000000,1649345065.735430,0.000000,0.000000,1.000000,0.000000,0.000000,0.000000,0.000000,4.483107,7.319798,-0.590887
1649345065.835964,9889.000000,1649345065.834695,0.000000,0.000000,1.000000,0.000000,0.000000,0.000000,0.000000,4.489353,7.316505,-0.633394
1649345065.933126,9890.000000,1649345065.932656,0.000000,0.000000,1.000000,0.000000,0.000000,0.000000,0.000000,4.496327,7.313405,-0.680405
1649345066.035968,9891.000000,1649345066.035361,0.000000,0.000000,1.000000,0.000000,0.000000,0.000000,0.000000,4.503969,7.309405,-0.723603
1649345066.133717,9892.000000,1649345066.133230,0.000000,0.000000,1.000000,0.000000,0.000000,0.000000,0.000000,4.511130,7.305656,-0.747760
1649345066.234272,9893.000000,1649345066.233463,0.000000,0.000000,1.000000,0.000000,0.000000,0.000000,0.000000,4.519999,7.301064,-0.774585
1649345066.335577,9894.000000,1649345066.333857,0.000000,0.000000,1.000000,0.000000,0.000000,0.000000,0.000000,4.517374,7.304409,-0.754748
1649345066.435600,9895.000000,1649345066.434469,0.000000,0.000000,1.000000,0.000000,0.000000,0.000000,0.000000,4.506078,7.314157,-0.708729
1649345066.534756,9896.000000,1649345066.534000,0.000000,0.000000,1.000000,0.000000,0.000000,0.000000,0.000000,4.499707,7.321201,-0.635257
1649345066.634896,9897.000000,1649345066.634506,0.000000,0.000000,1.000000,0.000000,0.000000,0.000000,0.000000,4.498016,7.323485,-0.595253
1649345066.733994,9898.000000,1649345066.732873,0.000000,0.000000,1.000000,0.000000,0.000000,0.000000,0.000000,4.498578,7.324534,-0.581796
1649345066.833904,9899.000000,1649345066.833534,0.000000,0.000000,1.000000,0.000000,0.000000,0.000000,0.000000,4.500177,7.323322,-0.585778
1649345066.936533,9900.000000,1649345066.934881,0.000000,0.000000,1.000000,0.000000,0.000000,0.000000,0.000000,4.491850,7.329791,-0.550038
1649345067.033395,9901.000000,1649345067.032670,0.000000,0.000000,1.000000,0.000000,0.000000,0.000000,0.000000,4.488341,7.333690,-0.524628
1649345067.134112,9902.000000,1649345067.133747,0.000000,0.000000,1.000000,0.000000,0.000000,0.000000,0.000000,4.486126,7.336239,-0.511592
1649345067.233289,9903.000000,1649345067.233106,0.000000,0.000000,1.000000,0.000000,0.000000,0.000000,0.000000,4.486233,7.337506,-0.499968
1649345067.334338,9904.000000,1649345067.333386,0.000000,0.000000,1.000000,0.000000,0.000000,0.000000,0.000000,4.487441,7.336470,-0.508264
1649345067.434724,9905.000000,1649345067.434391,0.000000,0.000000,1.000000,0.000000,0.000000,0.000000,0.000000,4.489688,7.334353,-0.530819
1649345067.534285,9906.000000,1649345067.533648,0.000000,0.000000,1.000000,0.000000,0.000000,0.000000,0.000000,4.480913,7.331223,-0.562986
1649345067.634050,9907.000000,1649345067.633598,0.000000,0.000000,1.000000,0.000000,0.000000,0.000000,0.000000,4.475920,7.328238,-0.588192
1649345067.733756,9908.000000,1649345067.732772,0.000000,0.000000,1.000000,0.000000,0.000000,0.000000,0.000000,4.463613,7.331943,-0.572804
1649345067.837615,9909.000000,1649345067.836968,0.000000,0.000000,1.000000,0.000000,0.000000,0.000000,0.000000,4.456420,7.334330,-0.566067
1649345067.935189,9910.000000,1649345067.934441,0.000000,0.000000,1.000000,0.000000,0.000000,0.000000,0.000000,4.452990,7.334375,-0.560389
1649345068.033540,9911.000000,1649345068.033171,0.000000,0.000000,1.000000,0.000000,0.000000,0.000000,0.000000,4.453124,7.333297,-0.569446
1649345068.137013,9912.000000,1649345068.136065,0.000000,0.000000,1.000000,0.000000,0.000000,0.000000,0.000000,4.444627,7.339885,-0.540211
1649345068.235418,9913.000000,1649345068.234512,0.000000,0.000000,1.000000,0.000000,0.000000,0.000000,0.000000,4.442164,7.342799,-0.517018
1649345068.334068,9914.000000,1649345068.333533,0.000000,0.000000,1.000000,0.000000,0.000000,0.000000,0.000000,4.444317,7.343323,-0.516599
1649345068.435370,9915.000000,1649345068.433187,0.000000,0.000000,1.000000,0.000000,0.000000,0.000000,0.000000,4.448641,7.341589,-0.511420
1649345068.533875,9916.000000,1649345068.533509,0.000000,0.000000,1.000000,0.000000,0.000000,0.000000,0.000000,4.454998,7.338817,-0.500067
1649345068.636083,9917.000000,1649345068.635638,0.000000,0.000000,1.000000,0.000000,0.000000,0.000000,0.000000,4.464342,7.335075,-0.504579
1649345068.733494,9918.000000,1649345068.732841,0.000000,0.000000,1.000000,0.000000,0.000000,0.000000,0.000000,4.471025,7.331521,-0.517047
1649345068.834094,9919.000000,1649345068.833386,0.000000,0.000000,1.000000,0.000000,0.000000,0.000000,0.000000,4.478441,7.327066,-0.541160
1649345068.934925,9920.000000,1649345068.934234,0.000000,0.000000,1.000000,0.000000,0.000000,0.000000,0.000000,4.485435,7.323954,-0.556242
1649345069.037098,9921.000000,1649345069.035650,0.000000,0.000000,1.000000,0.000000,0.000000,0.000000,0.000000,4.493101,7.319939,-0.581180
1649345069.135710,9922.000000,1649345069.133633,0.000000,0.000000,1.000000,0.000000,0.000000,0.000000,0.000000,4.490475,7.322717,-0.567956
1649345069.237865,9923.000000,1649345069.237081,0.000000,0.000000,1.000000,0.000000,0.000000,0.000000,0.000000,4.492306,7.323182,-0.571358
1649345069.334652,9924.000000,1649345069.333902,0.000000,0.000000,1.000000,0.000000,0.000000,0.000000,0.000000,4.484172,7.331273,-0.542325
1649345069.436372,9925.000000,1649345069.435278,0.000000,0.000000,1.000000,0.000000,0.000000,0.000000,0.000000,4.479729,7.337823,-0.484634
1649345069.533004,9926.000000,1649345069.532584,0.000000,0.000000,1.000000,0.000000,0.000000,0.000000,0.000000,4.478792,7.340716,-0.443085
1649345069.634672,9927.000000,1649345069.633965,0.000000,0.000000,1.000000,0.000000,0.000000,0.000000,0.000000,4.480082,7.341235,-0.415483
1649345069.733023,9928.000000,1649345069.732462,0.000000,0.000000,1.000000,0.000000,0.000000,0.000000,0.000000,4.482384,7.339508,-0.413400
1649345069.834927,9929.000000,1649345069.834215,0.000000,0.000000,1.000000,0.000000,0.000000,0.000000,0.000000,4.484547,7.336756,-0.429351
1649345069.934874,9930.000000,1649345069.934175,0.000000,0.000000,1.000000,0.000000,0.000000,0.000000,0.000000,4.489842,7.334137,-0.452896
1649345070.034847,9931.000000,1649345070.034220,0.000000,0.000000,1.000000,0.000000,0.000000,0.000000,0.000000,4.494812,7.330560,-0.477230
1649345070.134289,9932.000000,1649345070.133410,0.000000,0.000000,1.000000,0.000000,0.000000,0.000000,0.000000,4.499462,7.326091,-0.510339
1649345070.236405,9933.000000,1649345070.234872,0.000000,0.000000,1.000000,0.000000,0.000000,0.000000,0.000000,4.504887,7.322972,-0.550198
1649345070.334444,9934.000000,1649345070.333937,0.000000,0.000000,1.000000,0.000000,0.000000,0.000000,0.000000,4.499038,7.327682,-0.549691
1649345070.432931,9935.000000,1649345070.432258,0.000000,0.000000,1.000000,0.000000,0.000000,0.000000,0.000000,4.496726,7.329963,-0.545126
1649345070.532801,9936.000000,1649345070.532513,0.000000,0.000000,1.000000,0.000000,0.000000,0.000000,0.000000,4.494498,7.331032,-0.551192
1649345070.635453,9937.000000,1649345070.634536,0.000000,0.000000,1.000000,0.000000,0.000000,0.000000,0.000000,4.494540,7.330950,-0.571485
1649345070.734229,9938.000000,1649345070.733656,0.000000,0.000000,1.000000,0.000000,0.000000,0.000000,0.000000,4.495639,7.328690,-0.582010
1649345070.836111,9939.000000,1649345070.835248,0.000000,0.000000,1.000000,0.000000,0.000000,0.000000,0.000000,4.501007,7.325469,-0.603310
1649345070.934046,9940.000000,1649345070.933614,0.000000,0.000000,1.000000,0.000000,0.000000,0.000000,0.000000,4.507126,7.322438,-0.633304
1649345071.034624,9941.000000,1649345071.034157,0.000000,0.000000,1.000000,0.000000,0.000000,0.000000,0.000000,4.513937,7.319597,-0.669983
1649345071.132452,9942.000000,1649345071.132225,0.000000,0.000000,1.000000,0.000000,0.000000,0.000000,0.000000,4.521386,7.316942,-0.690442
1649345071.233111,9943.000000,1649345071.232869,0.000000,0.000000,1.000000,0.000000,0.000000,0.000000,0.000000,4.526148,7.314471,-0.710633
1649345071.334985,9944.000000,1649345071.334301,0.000000,0.000000,1.000000,0.000000,0.000000,0.000000,0.000000,4.531631,7.311087,-0.733768
1649345071.433690,9945.000000,1649345071.433268,0.000000,0.000000,1.000000,0.000000,0.000000,0.000000,0.000000,4.537786,7.306849,-0.745185
1649345071.535441,9946.000000,1649345071.534688,0.000000,0.000000,1.000000,0.000000,0.000000,0.000000,0.000000,4.543472,7.301814,-0.761478
1649345071.634903,9947.000000,1649345071.633948,0.000000,0.000000,1.000000,0.000000,0.000000,0.000000,0.000000,4.547614,7.298218,-0.765500
1649345071.734913,9948.000000,1649345071.733966,0.000000,0.000000,1.000000,0.000000,0.000000,0.000000,0.000000,4.550292,7.294899,-0.770657
1649345071.833951,9949.000000,1649345071.832366,0.000000,0.000000,1.000000,0.000000,0.000000,0.000000,0.000000,4.541773,7.299482,-0.739810
1649345071.937468,9950.000000,1649345071.934808,0.000000,0.000000,1.000000,0.000000,0.000000,0.000000,0.000000,4.527063,7.309334,-0.681734
1649345072.036260,9951.000000,1649345072.035103,0.000000,0.000000,1.000000,0.000000,0.000000,0.000000,0.000000,4.517456,7.315412,-0.600861
