__time,/dwm1001/id_458E/pose_kf/header/seq,/dwm1001/id_458E/pose_kf/header/stamp,/dwm1001/id_458E/pose_kf/pose/orientation/pitch_deg,/dwm1001/id_458E/pose_kf/pose/orientation/roll_deg,/dwm1001/id_458E/pose_kf/pose/orientation/w,/dwm1001/id_458E/pose_kf/pose/orientation/x,/dwm1001/id_458E/pose_kf/pose/orientation/y,/dwm1001/id_458E/pose_kf/pose/orientation/yaw_deg,/dwm1001/id_458E/pose_kf/pose/orientation/z,/dwm1001/id_458E/pose_kf/pose/position/x,/dwm1001/id_458E/pose_kf/pose/position/y,/dwm1001/id_458E/pose_kf/pose/position/z
1649352262.022176,19933.000000,1649352262.022087,0.000000,0.000000,1.000000,0.000000,0.000000,0.000000,0.000000,4.538944,19.827070,-1.113338
1649352262.122151,19934.000000,1649352262.122037,0.000000,0.000000,1.000000,0.000000,0.000000,0.000000,0.000000,4.543833,19.827238,-1.108077
1649352262.222197,19935.000000,1649352262.222045,0.000000,0.000000,1.000000,0.000000,0.000000,0.000000,0.000000,4.537387,19.826315,-1.118868
1649352262.322132,19936.000000,1649352262.322041,0.000000,0.000000,1.000000,0.000000,0.000000,0.000000,0.000000,4.528975,19.826544,-1.128121
1649352262.422117,19937.000000,1649352262.422024,0.000000,0.000000,1.000000,0.000000,0.000000,0.000000,0.000000,4.527464,19.825678,-1.120574
1649352262.522306,19938.000000,1649352262.522127,0.000000,0.000000,1.000000,0.000000,0.000000,0.000000,0.000000,4.519402,19.823781,-1.130798
1649352262.622146,19939.000000,1649352262.622050,0.000000,0.000000,1.000000,0.000000,0.000000,0.000000,0.000000,4.504086,19.822004,-1.154041
1649352262.723005,19940.000000,1649352262.722650,0.000000,0.000000,1.000000,0.000000,0.000000,0.000000,0.000000,4.499411,19.819255,-1.180072
1649352262.822880,19941.000000,1649352262.822664,0.000000,0.000000,1.000000,0.000000,0.000000,0.000000,0.000000,4.499359,19.818866,-1.216813
1649352262.922617,19942.000000,1649352262.922535,0.000000,0.000000,1.000000,0.000000,0.000000,0.000000,0.000000,4.501497,19.817435,-1.228298
1649352263.022087,19943.000000,1649352263.021944,0.000000,0.000000,1.000000,0.000000,0.000000,0.000000,0.000000,4.507880,19.816114,-1.221996
1649352263.122140,19944.000000,1649352263.122037,0.000000,0.000000,1.000000,0.000000,0.000000,0.000000,0.000000,4.517166,19.817079,-1.158326
1649352263.222147,19945.000000,1649352263.222049,0.000000,0.000000,1.000000,0.000000,0.000000,0.000000,0.000000,4.519356,19.818020,-1.117145
1649352263.322292,19946.000000,1649352263.322141,0.000000,0.000000,1.000000,0.000000,0.000000,0.000000,0.000000,4.522464,19.821115,-1.033108
1649352263.422111,19947.000000,1649352263.422005,0.000000,0.000000,1.000000,0.000000,0.000000,0.000000,0.000000,4.526434,19.825144,-0.929062
1649352263.522244,19948.000000,1649352263.522050,0.000000,0.000000,1.000000,0.000000,0.000000,0.000000,0.000000,4.530119,19.830044,-0.814052
1649352263.622484,19949.000000,1649352263.622341,0.000000,0.000000,1.000000,0.000000,0.000000,0.000000,0.000000,4.531347,19.833570,-0.741936
1649352263.722328,19950.000000,1649352263.722209,0.000000,0.000000,1.000000,0.000000,0.000000,0.000000,0.000000,4.526981,19.835788,-0.713511
1649352263.822414,19951.000000,1649352263.822303,0.000000,0.000000,1.000000,0.000000,0.000000,0.000000,0.000000,4.526066,19.836764,-0.687529
1649352263.922405,19952.000000,1649352263.922279,0.000000,0.000000,1.000000,0.000000,0.000000,0.000000,0.000000,4.526241,19.838743,-0.626011
1649352264.022347,19953.000000,1649352264.022238,0.000000,0.000000,1.000000,0.000000,0.000000,0.000000,0.000000,4.525266,19.841668,-0.545795
1649352264.122594,19954.000000,1649352264.122450,0.000000,0.000000,1.000000,0.000000,0.000000,0.000000,0.000000,4.517760,19.844389,-0.511456
1649352264.222451,19955.000000,1649352264.222306,0.000000,0.000000,1.000000,0.000000,0.000000,0.000000,0.000000,4.504103,19.848003,-0.437301
1649352264.322591,19956.000000,1649352264.322417,0.000000,0.000000,1.000000,0.000000,0.000000,0.000000,0.000000,4.496669,19.849180,-0.411321
1649352264.422481,19957.000000,1649352264.422328,0.000000,0.000000,1.000000,0.000000,0.000000,0.000000,0.000000,4.495142,19.849143,-0.390455
1649352264.522449,19958.000000,1649352264.522313,0.000000,0.000000,1.000000,0.000000,0.000000,0.000000,0.000000,4.489386,19.849053,-0.383366
1649352264.622489,19959.000000,1649352264.622302,0.000000,0.000000,1.000000,0.000000,0.000000,0.000000,0.000000,4.488373,19.847825,-0.370122
1649352264.722405,19960.000000,1649352264.722301,0.000000,0.000000,1.000000,0.000000,0.000000,0.000000,0.000000,4.485299,19.846619,-0.372733
1649352264.822490,19961.000000,1649352264.822380,0.000000,0.000000,1.000000,0.000000,0.000000,0.000000,0.000000,4.481373,19.846530,-0.394554
1649352264.922611,19962.000000,1649352264.922453,0.000000,0.000000,1.000000,0.000000,0.000000,0.000000,0.000000,4.479922,19.845320,-0.437161
1649352265.022418,19963.000000,1649352265.022242,0.000000,0.000000,1.000000,0.000000,0.000000,0.000000,0.000000,4.486263,19.847416,-0.422194
1649352265.122177,19964.000000,1649352265.122079,0.000000,0.000000,1.000000,0.000000,0.000000,0.000000,0.000000,4.483590,19.848273,-0.439879
1649352265.222231,19965.000000,1649352265.222115,0.000000,0.000000,1.000000,0.000000,0.000000,0.000000,0.000000,4.483303,19.851227,-0.404973
1649352265.322155,19966.000000,1649352265.322049,0.000000,0.000000,1.000000,0.000000,0.000000,0.000000,0.000000,4.486362,19.855068,-0.333342
1649352265.422189,19967.000000,1649352265.422083,0.000000,0.000000,1.000000,0.000000,0.000000,0.000000,0.000000,4.481665,19.856467,-0.308821
1649352265.522487,19968.000000,1649352265.522378,0.000000,0.000000,1.000000,0.000000,0.000000,0.000000,0.000000,4.471830,19.856645,-0.320654
1649352265.622271,19969.000000,1649352265.622164,0.000000,0.000000,1.000000,0.000000,0.000000,0.000000,0.000000,4.463705,19.855671,-0.340714
1649352265.722419,19970.000000,1649352265.722288,0.000000,0.000000,1.000000,0.000000,0.000000,0.000000,0.000000,4.461581,19.854704,-0.366995
1649352265.822180,19971.000000,1649352265.822083,0.000000,0.000000,1.000000,0.000000,0.000000,0.000000,0.000000,4.455316,19.851570,-0.414501
1649352265.922398,19972.000000,1649352265.922239,0.000000,0.000000,1.000000,0.000000,0.000000,0.000000,0.000000,4.452784,19.848579,-0.476629
1649352266.022268,19973.000000,1649352266.022124,0.000000,0.000000,1.000000,0.000000,0.000000,0.000000,0.000000,4.448329,19.845734,-0.547827
1649352266.122250,19974.000000,1649352266.122121,0.000000,0.000000,1.000000,0.000000,0.000000,0.000000,0.000000,4.440974,19.843038,-0.618728
1649352266.222105,19975.000000,1649352266.221999,0.000000,0.000000,1.000000,0.000000,0.000000,0.000000,0.000000,4.435253,19.842671,-0.686797
1649352266.322155,19976.000000,1649352266.322049,0.000000,0.000000,1.000000,0.000000,0.000000,0.000000,0.000000,4.431087,19.842327,-0.745579
1649352266.422137,19977.000000,1649352266.422031,0.000000,0.000000,1.000000,0.000000,0.000000,0.000000,0.000000,4.429487,19.842007,-0.812290
1649352266.522186,19978.000000,1649352266.522066,0.000000,0.000000,1.000000,0.000000,0.000000,0.000000,0.000000,4.425946,19.841708,-0.862310
1649352266.622287,19979.000000,1649352266.622143,0.000000,0.000000,1.000000,0.000000,0.000000,0.000000,0.000000,4.431478,19.843612,-0.842207
1649352266.722336,19980.000000,1649352266.722214,0.000000,0.000000,1.000000,0.000000,0.000000,0.000000,0.000000,4.436837,19.844322,-0.849212
1649352266.822372,19981.000000,1649352266.822240,0.000000,0.000000,1.000000,0.000000,0.000000,0.000000,0.000000,4.440919,19.846080,-0.869331
1649352266.922459,19982.000000,1649352266.922322,0.000000,0.000000,1.000000,0.000000,0.000000,0.000000,0.000000,4.449226,19.847734,-0.840723
1649352267.022371,19983.000000,1649352267.022249,0.000000,0.000000,1.000000,0.000000,0.000000,0.000000,0.000000,4.460407,19.847104,-0.831545
1649352267.122370,19984.000000,1649352267.122246,0.000000,0.000000,1.000000,0.000000,0.000000,0.000000,0.000000,4.468815,19.846498,-0.843459
1649352267.222452,19985.000000,1649352267.222340,0.000000,0.000000,1.000000,0.000000,0.000000,0.000000,0.000000,4.477844,19.844827,-0.875606
1649352267.322217,19986.000000,1649352267.322091,0.000000,0.000000,1.000000,0.000000,0.000000,0.000000,0.000000,4.478710,19.844335,-0.904545
1649352267.422216,19987.000000,1649352267.422072,0.000000,0.000000,1.000000,0.000000,0.000000,0.000000,0.000000,4.474038,19.842779,-0.944886
1649352267.522147,19988.000000,1649352267.522031,0.000000,0.000000,1.000000,0.000000,0.000000,0.000000,0.000000,4.463056,19.840222,-0.994502
1649352267.622182,19989.000000,1649352267.622069,0.000000,0.000000,1.000000,0.000000,0.000000,0.000000,0.000000,4.457047,19.838907,-0.994080
1649352267.722069,19990.000000,1649352267.721965,0.000000,0.000000,1.000000,0.000000,0.000000,0.000000,0.000000,4.447036,19.836589,-1.010979
1649352267.822099,19991.000000,1649352267.821995,0.000000,0.000000,1.000000,0.000000,0.000000,0.000000,0.000000,4.437632,19.833328,-1.044491
1649352267.922454,19992.000000,1649352267.922307,0.000000,0.000000,1.000000,0.000000,0.000000,0.000000,0.000000,4.431008,19.831367,-1.085038
1649352268.022208,19993.000000,1649352268.022100,0.000000,0.000000,1.000000,0.000000,0.000000,0.000000,0.000000,4.425939,19.828458,-1.107288
1649352268.122242,19994.000000,1649352268.122128,0.000000,0.000000,1.000000,0.000000,0.000000,0.000000,0.000000,4.419079,19.825750,-1.144220
1649352268.222208,19995.000000,1649352268.222085,0.000000,0.000000,1.000000,0.000000,0.000000,0.000000,0.000000,4.420353,19.823238,-1.176656
1649352268.322431,19996.000000,1649352268.322284,0.000000,0.000000,1.000000,0.000000,0.000000,0.000000,0.000000,4.419495,19.823098,-1.216036
1649352268.422504,19997.000000,1649352268.422391,0.000000,0.000000,1.000000,0.000000,0.000000,0.000000,0.000000,4.424247,19.821925,-1.262040
1649352268.522451,19998.000000,1649352268.522334,0.000000,0.000000,1.000000,0.000000,0.000000,0.000000,0.000000,4.429923,19.823050,-1.244996
1649352268.622630,19999.000000,1649352268.622479,0.000000,0.000000,1.000000,0.000000,0.000000,0.000000,0.000000,4.437539,19.823068,-1.219922
1649352268.722394,20000.000000,1649352268.722286,0.000000,0.000000,1.000000,0.000000,0.000000,0.000000,0.000000,4.437148,19.822037,-1.213827
1649352268.822445,20001.000000,1649352268.822337,0.000000,0.000000,1.000000,0.000000,0.000000,0.000000,0.000000,4.441179,19.824377,-1.168720
1649352268.922544,20002.000000,1649352268.922425,0.000000,0.000000,1.000000,0.000000,0.000000,0.000000,0.000000,4.446105,19.827713,-1.099984
1649352269.022595,20003.000000,1649352269.022480,0.000000,0.000000,1.000000,0.000000,0.000000,0.000000,0.000000,4.454041,19.829799,-1.043383
1649352269.122579,20004.000000,1649352269.122446,0.000000,0.000000,1.000000,0.000000,0.000000,0.000000,0.000000,4.454985,19.830694,-1.017894
1649352269.222202,20005.000000,1649352269.222111,0.000000,0.000000,1.000000,0.000000,0.000000,0.000000,0.000000,4.460219,19.832640,-0.943280
1649352269.322101,20006.000000,1649352269.321986,0.000000,0.000000,1.000000,0.000000,0.000000,0.000000,0.000000,4.465132,19.833393,-0.903108
1649352269.422121,20007.000000,1649352269.422019,0.000000,0.000000,1.000000,0.000000,0.000000,0.000000,0.000000,4.470820,19.834105,-0.892831
1649352269.522181,20008.000000,1649352269.521999,0.000000,0.000000,1.000000,0.000000,0.000000,0.000000,0.000000,4.479405,19.835867,-0.838679
1649352269.622208,20009.000000,1649352269.622078,0.000000,0.000000,1.000000,0.000000,0.000000,0.000000,0.000000,4.488525,19.836436,-0.821543
1649352269.722196,20010.000000,1649352269.722089,0.000000,0.000000,1.000000,0.000000,0.000000,0.000000,0.000000,4.495948,19.839145,-0.773823
1649352269.822158,20011.000000,1649352269.822054,0.000000,0.000000,1.000000,0.000000,0.000000,0.000000,0.000000,4.501748,19.840600,-0.751664
1649352269.922181,20012.000000,1649352269.922063,0.000000,0.000000,1.000000,0.000000,0.000000,0.000000,0.000000,4.509274,19.843046,-0.699225
1649352270.022243,20013.000000,1649352270.022129,0.000000,0.000000,1.000000,0.000000,0.000000,0.000000,0.000000,4.517327,19.844242,-0.681513
1649352270.122126,20014.000000,1649352270.121992,0.000000,0.000000,1.000000,0.000000,0.000000,0.000000,0.000000,4.528040,19.844253,-0.668917
1649352270.222089,20015.000000,1649352270.222000,0.000000,0.000000,1.000000,0.000000,0.000000,0.000000,0.000000,4.540157,19.843146,-0.650754
1649352270.322087,20016.000000,1649352270.321978,0.000000,0.000000,1.000000,0.000000,0.000000,0.000000,0.000000,4.552482,19.842076,-0.645811
1649352270.422153,20017.000000,1649352270.422031,0.000000,0.000000,1.000000,0.000000,0.000000,0.000000,0.000000,4.558436,19.843229,-0.614837
1649352270.522326,20018.000000,1649352270.522172,0.000000,0.000000,1.000000,0.000000,0.000000,0.000000,0.000000,4.563814,19.844298,-0.555692
1649352270.622556,20019.000000,1649352270.622407,0.000000,0.000000,1.000000,0.000000,0.000000,0.000000,0.000000,4.570825,19.843105,-0.537336
1649352270.722196,20020.000000,1649352270.722079,0.000000,0.000000,1.000000,0.000000,0.000000,0.000000,0.000000,4.571740,19.843051,-0.543620
1649352270.822321,20021.000000,1649352270.822153,0.000000,0.000000,1.000000,0.000000,0.000000,0.000000,0.000000,4.575627,19.842983,-0.549324
1649352270.922254,20022.000000,1649352270.922112,0.000000,0.000000,1.000000,0.000000,0.000000,0.000000,0.000000,4.579054,19.841814,-0.579442
1649352271.022208,20023.000000,1649352271.022061,0.000000,0.000000,1.000000,0.000000,0.000000,0.000000,0.000000,4.585323,19.843968,-0.549855
1649352271.122145,20024.000000,1649352271.122003,0.000000,0.000000,1.000000,0.000000,0.000000,0.000000,0.000000,4.591000,19.844899,-0.551714
1649352271.222253,20025.000000,1649352271.222108,0.000000,0.000000,1.000000,0.000000,0.000000,0.000000,0.000000,4.596114,19.844670,-0.580504
1649352271.322325,20026.000000,1649352271.322188,0.000000,0.000000,1.000000,0.000000,0.000000,0.000000,0.000000,4.603967,19.843345,-0.604431
1649352271.422319,20027.000000,1649352271.422185,0.000000,0.000000,1.000000,0.000000,0.000000,0.000000,0.000000,4.602404,19.842082,-0.646215
1649352271.522450,20028.000000,1649352271.522238,0.000000,0.000000,1.000000,0.000000,0.000000,0.000000,0.000000,4.607224,19.839789,-0.692153
1649352271.622264,20029.000000,1649352271.622140,0.000000,0.000000,1.000000,0.000000,0.000000,0.000000,0.000000,4.611536,19.837623,-0.690376
1649352271.722123,20030.000000,1649352271.721989,0.000000,0.000000,1.000000,0.000000,0.000000,0.000000,0.000000,4.616458,19.838852,-0.635550
1649352271.822188,20031.000000,1649352271.822075,0.000000,0.000000,1.000000,0.000000,0.000000,0.000000,0.000000,4.616505,19.840018,-0.610546
1649352271.922260,20032.000000,1649352271.922140,0.000000,0.000000,1.000000,0.000000,0.000000,0.000000,0.000000,4.614136,19.842210,-0.556937
1649352272.022517,20033.000000,1649352272.022367,0.000000,0.000000,1.000000,0.000000,0.000000,0.000000,0.000000,4.611684,19.844274,-0.524347
1649352272.122575,20034.000000,1649352272.122457,0.000000,0.000000,1.000000,0.000000,0.000000,0.000000,0.000000,4.600452,19.844032,-0.528904
1649352272.222644,20035.000000,1649352272.222519,0.000000,0.000000,1.000000,0.000000,0.000000,0.000000,0.000000,4.592957,19.841610,-0.531187
1649352272.322548,20036.000000,1649352272.322333,0.000000,0.000000,1.000000,0.000000,0.000000,0.000000,0.000000,4.579216,19.841497,-0.484495
1649352272.422676,20037.000000,1649352272.422539,0.000000,0.000000,1.000000,0.000000,0.000000,0.000000,0.000000,4.560707,19.840297,-0.477159
1649352272.522459,20038.000000,1649352272.522351,0.000000,0.000000,1.000000,0.000000,0.000000,0.000000,0.000000,4.551929,19.838072,-0.480975
1649352272.622286,20039.000000,1649352272.622135,0.000000,0.000000,1.000000,0.000000,0.000000,0.000000,0.000000,4.544746,19.838157,-0.445473
1649352272.722086,20040.000000,1649352272.721961,0.000000,0.000000,1.000000,0.000000,0.000000,0.000000,0.000000,4.539091,19.840425,-0.389217
1649352272.822135,20041.000000,1649352272.822026,0.000000,0.000000,1.000000,0.000000,0.000000,0.000000,0.000000,4.528356,19.840388,-0.374414
1649352272.922697,20042.000000,1649352272.922559,0.000000,0.000000,1.000000,0.000000,0.000000,0.000000,0.000000,4.512846,19.840352,-0.390527
1649352273.022506,20043.000000,1649352273.022389,0.000000,0.000000,1.000000,0.000000,0.000000,0.000000,0.000000,4.495045,19.838138,-0.428198
1649352273.122705,20044.000000,1649352273.122485,0.000000,0.000000,1.000000,0.000000,0.000000,0.000000,0.000000,4.477309,19.836051,-0.482444
1649352273.222552,20045.000000,1649352273.222421,0.000000,0.000000,1.000000,0.000000,0.000000,0.000000,0.000000,4.464039,19.835181,-0.543618
1649352273.322437,20046.000000,1649352273.322263,0.000000,0.000000,1.000000,0.000000,0.000000,0.000000,0.000000,4.456112,19.834373,-0.586328
1649352273.422300,20047.000000,1649352273.422164,0.000000,0.000000,1.000000,0.000000,0.000000,0.000000,0.000000,4.443433,19.832535,-0.643497
1649352273.522127,20048.000000,1649352273.522017,0.000000,0.000000,1.000000,0.000000,0.000000,0.000000,0.000000,4.431738,19.831909,-0.696703
1649352273.622144,20049.000000,1649352273.622040,0.000000,0.000000,1.000000,0.000000,0.000000,0.000000,0.000000,4.426444,19.832430,-0.696016
1649352273.722250,20050.000000,1649352273.722106,0.000000,0.000000,1.000000,0.000000,0.000000,0.000000,0.000000,4.427201,19.831851,-0.695229
1649352273.822201,20051.000000,1649352273.822098,0.000000,0.000000,1.000000,0.000000,0.000000,0.000000,0.000000,4.433660,19.833505,-0.651609
1649352273.922430,20052.000000,1649352273.922256,0.000000,0.000000,1.000000,0.000000,0.000000,0.000000,0.000000,4.437841,19.833991,-0.641964
1649352274.022436,20053.000000,1649352274.022332,0.000000,0.000000,1.000000,0.000000,0.000000,0.000000,0.000000,4.443110,19.834463,-0.629457
1649352274.122154,20054.000000,1649352274.122001,0.000000,0.000000,1.000000,0.000000,0.000000,0.000000,0.000000,4.450469,19.834917,-0.644065
1649352274.222096,20055.000000,1649352274.221982,0.000000,0.000000,1.000000,0.000000,0.000000,0.000000,0.000000,4.458679,19.837535,-0.627412
1649352274.322522,20056.000000,1649352274.322432,0.000000,0.000000,1.000000,0.000000,0.000000,0.000000,0.000000,4.457846,19.837828,-0.638046
1649352274.422297,20057.000000,1649352274.422165,0.000000,0.000000,1.000000,0.000000,0.000000,0.000000,0.000000,4.460451,19.838103,-0.636139
1649352274.522453,20058.000000,1649352274.522335,0.000000,0.000000,1.000000,0.000000,0.000000,0.000000,0.000000,4.464112,19.840541,-0.582684
1649352274.622668,20059.000000,1649352274.622492,0.000000,0.000000,1.000000,0.000000,0.000000,0.000000,0.000000,4.475294,19.839564,-0.560495
1649352274.722657,20060.000000,1649352274.722470,0.000000,0.000000,1.000000,0.000000,0.000000,0.000000,0.000000,4.488097,19.838633,-0.547379
1649352274.822480,20061.000000,1649352274.822350,0.000000,0.000000,1.000000,0.000000,0.000000,0.000000,0.000000,4.503480,19.836659,-0.542987
1649352274.922400,20062.000000,1649352274.922285,0.000000,0.000000,1.000000,0.000000,0.000000,0.000000,0.000000,4.515800,19.834796,-0.561486
1649352275.022459,20063.000000,1649352275.022290,0.000000,0.000000,1.000000,0.000000,0.000000,0.000000,0.000000,4.527370,19.831952,-0.596272
1649352275.122436,20064.000000,1649352275.122316,0.000000,0.000000,1.000000,0.000000,0.000000,0.000000,0.000000,4.533837,19.830371,-0.642591
1649352275.222457,20065.000000,1649352275.222282,0.000000,0.000000,1.000000,0.000000,0.000000,0.000000,0.000000,4.542007,19.827806,-0.678126
1649352275.322179,20066.000000,1649352275.322055,0.000000,0.000000,1.000000,0.000000,0.000000,0.000000,0.000000,4.550678,19.825409,-0.704060
1649352275.422240,20067.000000,1649352275.422115,0.000000,0.000000,1.000000,0.000000,0.000000,0.000000,0.000000,4.557624,19.825357,-0.736867
1649352275.522318,20068.000000,1649352275.522167,0.000000,0.000000,1.000000,0.000000,0.000000,0.000000,0.000000,4.564016,19.824250,-0.779449
1649352275.622225,20069.000000,1649352275.622101,0.000000,0.000000,1.000000,0.000000,0.000000,0.000000,0.000000,4.567694,19.823236,-0.833766
1649352275.722168,20070.000000,1649352275.722050,0.000000,0.000000,1.000000,0.000000,0.000000,0.000000,0.000000,4.574257,19.821223,-0.876684
1649352275.822097,20071.000000,1649352275.821990,0.000000,0.000000,1.000000,0.000000,0.000000,0.000000,0.000000,4.579176,19.820449,-0.931183
1649352275.922182,20072.000000,1649352275.922067,0.000000,0.000000,1.000000,0.000000,0.000000,0.000000,0.000000,4.575993,19.818665,-0.991883
1649352276.022600,20073.000000,1649352276.022382,0.000000,0.000000,1.000000,0.000000,0.000000,0.000000,0.000000,4.566264,19.818113,-1.041515
1649352276.122253,20074.000000,1649352276.122099,0.000000,0.000000,1.000000,0.000000,0.000000,0.000000,0.000000,4.551474,19.817632,-1.096594
1649352276.222301,20075.000000,1649352276.222171,0.000000,0.000000,1.000000,0.000000,0.000000,0.000000,0.000000,4.543949,19.817219,-1.128607
1649352276.322405,20076.000000,1649352276.322300,0.000000,0.000000,1.000000,0.000000,0.000000,0.000000,0.000000,4.535689,19.816868,-1.172329
1649352276.422317,20077.000000,1649352276.422163,0.000000,0.000000,1.000000,0.000000,0.000000,0.000000,0.000000,4.534396,19.815485,-1.191760
1649352276.522394,20078.000000,1649352276.522284,0.000000,0.000000,1.000000,0.000000,0.000000,0.000000,0.000000,4.535333,19.814218,-1.220135
1649352276.622276,20079.000000,1649352276.622112,0.000000,0.000000,1.000000,0.000000,0.000000,0.000000,0.000000,4.539469,19.811972,-1.237724
1649352276.722183,20080.000000,1649352276.722090,0.000000,0.000000,1.000000,0.000000,0.000000,0.000000,0.000000,4.542256,19.810986,-1.265124
1649352276.822200,20081.000000,1649352276.822087,0.000000,0.000000,1.000000,0.000000,0.000000,0.000000,0.000000,4.545941,19.811192,-1.300314
1649352276.922314,20082.000000,1649352276.922187,0.000000,0.000000,1.000000,0.000000,0.000000,0.000000,0.000000,4.547195,19.811431,-1.342953
1649352277.022281,20083.000000,1649352277.022142,0.000000,0.000000,1.000000,0.000000,0.000000,0.000000,0.000000,4.549420,19.813879,-1.342701
1649352277.122318,20084.000000,1649352277.122188,0.000000,0.000000,1.000000,0.000000,0.000000,0.000000,0.000000,4.551469,19.817314,-1.294873
1649352277.222182,20085.000000,1649352277.222072,0.000000,0.000000,1.000000,0.000000,0.000000,0.000000,0.000000,4.553348,19.819490,-1.249081
1649352277.322110,20086.000000,1649352277.321979,0.000000,0.000000,1.000000,0.000000,0.000000,0.000000,0.000000,4.553974,19.822648,-1.168255
1649352277.422167,20087.000000,1649352277.422060,0.000000,0.000000,1.000000,0.000000,0.000000,0.000000,0.000000,4.557778,19.824544,-1.108805
1649352277.522159,20088.000000,1649352277.522006,0.000000,0.000000,1.000000,0.000000,0.000000,0.000000,0.000000,4.562397,19.829601,-1.011926
1649352277.622190,20089.000000,1649352277.622029,0.000000,0.000000,1.000000,0.000000,0.000000,0.000000,0.000000,4.566687,19.835452,-0.909142
1649352277.722299,20090.000000,1649352277.722145,0.000000,0.000000,1.000000,0.000000,0.000000,0.000000,0.000000,4.571745,19.842035,-0.776677
1649352277.822457,20091.000000,1649352277.822345,0.000000,0.000000,1.000000,0.000000,0.000000,0.000000,0.000000,4.575340,19.848203,-0.644176
1649352277.922887,20092.000000,1649352277.922690,0.000000,0.000000,1.000000,0.000000,0.000000,0.000000,0.000000,4.569912,19.851780,-0.569918
1649352278.022638,20093.000000,1649352278.022524,0.000000,0.000000,1.000000,0.000000,0.000000,0.000000,0.000000,4.566879,19.853991,-0.516177
1649352278.122404,20094.000000,1649352278.122291,0.000000,0.000000,1.000000,0.000000,0.000000,0.000000,0.000000,4.567216,19.853818,-0.485419
1649352278.222350,20095.000000,1649352278.222249,0.000000,0.000000,1.000000,0.000000,0.000000,0.000000,0.000000,4.565290,19.855758,-0.425130
1649352278.322409,20096.000000,1649352278.322262,0.000000,0.000000,1.000000,0.000000,0.000000,0.000000,0.000000,4.564506,19.858603,-0.328507
1649352278.422394,20097.000000,1649352278.422255,0.000000,0.000000,1.000000,0.000000,0.000000,0.000000,0.000000,4.564806,19.860120,-0.285859
1649352278.522451,20098.000000,1649352278.522321,0.000000,0.000000,1.000000,0.000000,0.000000,0.000000,0.000000,4.566133,19.862561,-0.205527
1649352278.622144,20099.000000,1649352278.622030,0.000000,0.000000,1.000000,0.000000,0.000000,0.000000,0.000000,4.570611,19.865873,-0.098000
1649352278.722165,20100.000000,1649352278.722032,0.000000,0.000000,1.000000,0.000000,0.000000,0.000000,0.000000,4.576967,19.866731,-0.024191
1649352278.822057,20101.000000,1649352278.821935,0.000000,0.000000,1.000000,0.000000,0.000000,0.000000,0.000000,4.579629,19.868545,0.055893
1649352278.922015,20102.000000,1649352278.921914,0.000000,0.000000,1.000000,0.000000,0.000000,0.000000,0.000000,4.582067,19.871260,0.155625
1649352279.022032,20103.000000,1649352279.021902,0.000000,0.000000,1.000000,0.000000,0.000000,0.000000,0.000000,4.582107,19.872643,0.196678
1649352279.122007,20104.000000,1649352279.121902,0.000000,0.000000,1.000000,0.000000,0.000000,0.000000,0.000000,4.583158,19.874950,0.268507
1649352279.222107,20105.000000,1649352279.221993,0.000000,0.000000,1.000000,0.000000,0.000000,0.000000,0.000000,4.582983,19.875946,0.343196
1649352279.322114,20106.000000,1649352279.321977,0.000000,0.000000,1.000000,0.000000,0.000000,0.000000,0.000000,4.571842,19.875706,0.356857
1649352279.422277,20107.000000,1649352279.422177,0.000000,0.000000,1.000000,0.000000,0.000000,0.000000,0.000000,4.554733,19.873213,0.331347
1649352279.522354,20108.000000,1649352279.522153,0.000000,0.000000,1.000000,0.000000,0.000000,0.000000,0.000000,4.545121,19.868601,0.289319
1649352279.622652,20109.000000,1649352279.622497,0.000000,0.000000,1.000000,0.000000,0.000000,0.000000,0.000000,4.539355,19.864187,0.221894
1649352279.722493,20110.000000,1649352279.722374,0.000000,0.000000,1.000000,0.000000,0.000000,0.000000,0.000000,4.530699,19.861066,0.153650
1649352279.822461,20111.000000,1649352279.822294,0.000000,0.000000,1.000000,0.000000,0.000000,0.000000,0.000000,4.522606,19.858090,0.073492
1649352279.922500,20112.000000,1649352279.922320,0.000000,0.000000,1.000000,0.000000,0.000000,0.000000,0.000000,4.517244,19.857443,0.040947
1649352280.022223,20113.000000,1649352280.022085,0.000000,0.000000,1.000000,0.000000,0.000000,0.000000,0.000000,4.515567,19.859000,0.055799
1649352280.122286,20114.000000,1649352280.122135,0.000000,0.000000,1.000000,0.000000,0.000000,0.000000,0.000000,4.505377,19.858276,0.035494
1649352280.222171,20115.000000,1649352280.222028,0.000000,0.000000,1.000000,0.000000,0.000000,0.000000,0.000000,4.490435,19.856488,-0.016874
1649352280.322206,20116.000000,1649352280.322098,0.000000,0.000000,1.000000,0.000000,0.000000,0.000000,0.000000,4.476491,19.853701,-0.082962
1649352280.422233,20117.000000,1649352280.422112,0.000000,0.000000,1.000000,0.000000,0.000000,0.000000,0.000000,4.461341,19.852159,-0.154826
1649352280.522132,20118.000000,1649352280.522029,0.000000,0.000000,1.000000,0.000000,0.000000,0.000000,0.000000,4.447269,19.850709,-0.228063
1649352280.622106,20119.000000,1649352280.621991,0.000000,0.000000,1.000000,0.000000,0.000000,0.000000,0.000000,4.439697,19.850440,-0.251677
1649352280.722275,20120.000000,1649352280.722146,0.000000,0.000000,1.000000,0.000000,0.000000,0.000000,0.000000,4.436098,19.851288,-0.244559
1649352280.822212,20121.000000,1649352280.822116,0.000000,0.000000,1.000000,0.000000,0.000000,0.000000,0.000000,4.439521,19.849917,-0.274893
1649352280.922296,20122.000000,1649352280.922202,0.000000,0.000000,1.000000,0.000000,0.000000,0.000000,0.000000,4.447376,19.850815,-0.253212
1649352281.022146,20123.000000,1649352281.022038,0.000000,0.000000,1.000000,0.000000,0.000000,0.000000,0.000000,4.446297,19.849491,-0.270358
1649352281.122214,20124.000000,1649352281.122101,0.000000,0.000000,1.000000,0.000000,0.000000,0.000000,0.000000,4.447666,19.848252,-0.299736
1649352281.222321,20125.000000,1649352281.222214,0.000000,0.000000,1.000000,0.000000,0.000000,0.000000,0.000000,4.451332,19.847096,-0.302091
1649352281.322279,20126.000000,1649352281.322150,0.000000,0.000000,1.000000,0.000000,0.000000,0.000000,0.000000,4.456059,19.846022,-0.338188
1649352281.422463,20127.000000,1649352281.422320,0.000000,0.000000,1.000000,0.000000,0.000000,0.000000,0.000000,4.457401,19.846117,-0.379994
1649352281.522484,20128.000000,1649352281.522349,0.000000,0.000000,1.000000,0.000000,0.000000,0.000000,0.000000,4.459892,19.846227,-0.434471
1649352281.622209,20129.000000,1649352281.622096,0.000000,0.000000,1.000000,0.000000,0.000000,0.000000,0.000000,4.455822,19.846348,-0.503441
1649352281.722160,20130.000000,1649352281.722055,0.000000,0.000000,1.000000,0.000000,0.000000,0.000000,0.000000,4.457548,19.847569,-0.512826
1649352281.822252,20131.000000,1649352281.822110,0.000000,0.000000,1.000000,0.000000,0.000000,0.000000,0.000000,4.460380,19.849826,-0.499704
1649352281.922278,20132.000000,1649352281.922158,0.000000,0.000000,1.000000,0.000000,0.000000,0.000000,0.000000,4.465334,19.849782,-0.521471
1649352282.022210,20133.000000,1649352282.022093,0.000000,0.000000,1.000000,0.000000,0.000000,0.000000,0.000000,4.473363,19.850836,-0.516214
1649352282.122171,20134.000000,1649352282.122039,0.000000,0.000000,1.000000,0.000000,0.000000,0.000000,0.000000,4.480998,19.850741,-0.512464
1649352282.222363,20135.000000,1649352282.222234,0.000000,0.000000,1.000000,0.000000,0.000000,0.000000,0.000000,4.484964,19.850653,-0.512600
1649352282.322393,20136.000000,1649352282.322273,0.000000,0.000000,1.000000,0.000000,0.000000,0.000000,0.000000,4.487628,19.850570,-0.535832
1649352282.422392,20137.000000,1649352282.422247,0.000000,0.000000,1.000000,0.000000,0.000000,0.000000,0.000000,4.494503,19.849402,-0.578783
1649352282.522223,20138.000000,1649352282.522132,0.000000,0.000000,1.000000,0.000000,0.000000,0.000000,0.000000,4.506430,19.847211,-0.620436
1649352282.622154,20139.000000,1649352282.622041,0.000000,0.000000,1.000000,0.000000,0.000000,0.000000,0.000000,4.519826,19.844061,-0.655144
1649352282.722403,20140.000000,1649352282.722161,0.000000,0.000000,1.000000,0.000000,0.000000,0.000000,0.000000,4.534573,19.840013,-0.703308
1649352282.822237,20141.000000,1649352282.822135,0.000000,0.000000,1.000000,0.000000,0.000000,0.000000,0.000000,4.546194,19.837308,-0.757871
1649352282.922498,20142.000000,1649352282.922407,0.000000,0.000000,1.000000,0.000000,0.000000,0.000000,0.000000,4.554832,19.834788,-0.823344
1649352283.022161,20143.000000,1649352283.022019,0.000000,0.000000,1.000000,0.000000,0.000000,0.000000,0.000000,4.552998,19.833541,-0.876621
1649352283.122257,20144.000000,1649352283.122159,0.000000,0.000000,1.000000,0.000000,0.000000,0.000000,0.000000,4.551094,19.831317,-0.939906
1649352283.222286,20145.000000,1649352283.222118,0.000000,0.000000,1.000000,0.000000,0.000000,0.000000,0.000000,4.543687,19.829264,-1.010300
1649352283.322181,20146.000000,1649352283.322078,0.000000,0.000000,1.000000,0.000000,0.000000,0.000000,0.000000,4.539832,19.827377,-1.059207
1649352283.422385,20147.000000,1649352283.422263,0.000000,0.000000,1.000000,0.000000,0.000000,0.000000,0.000000,4.528452,19.824559,-1.113254
1649352283.522908,20148.000000,1649352283.522460,0.000000,0.000000,1.000000,0.000000,0.000000,0.000000,0.000000,4.519810,19.823047,-1.165730
1649352283.622754,20149.000000,1649352283.622647,0.000000,0.000000,1.000000,0.000000,0.000000,0.000000,0.000000,4.514880,19.821680,-1.198911
1649352283.722127,20150.000000,1649352283.722036,0.000000,0.000000,1.000000,0.000000,0.000000,0.000000,0.000000,4.513476,19.819362,-1.238562
1649352283.822225,20151.000000,1649352283.822124,0.000000,0.000000,1.000000,0.000000,0.000000,0.000000,0.000000,4.505598,19.817237,-1.282786
1649352283.922193,20152.000000,1649352283.922069,0.000000,0.000000,1.000000,0.000000,0.000000,0.000000,0.000000,4.501437,19.817480,-1.281371
1649352284.022273,20153.000000,1649352284.022119,0.000000,0.000000,1.000000,0.000000,0.000000,0.000000,0.000000,4.501894,19.816684,-1.299914
1649352284.122249,20154.000000,1649352284.122136,0.000000,0.000000,1.000000,0.000000,0.000000,0.000000,0.000000,4.506714,19.819267,-1.256979
1649352284.222268,20155.000000,1649352284.222124,0.000000,0.000000,1.000000,0.000000,0.000000,0.000000,0.000000,4.513461,19.819581,-1.217258
1649352284.322873,20156.000000,1649352284.322528,0.000000,0.000000,1.000000,0.000000,0.000000,0.000000,0.000000,4.515467,19.821017,-1.191213
1649352284.422198,20157.000000,1649352284.422080,0.000000,0.000000,1.000000,0.000000,0.000000,0.000000,0.000000,4.508622,19.820235,-1.192080
1649352284.522222,20158.000000,1649352284.522101,0.000000,0.000000,1.000000,0.000000,0.000000,0.000000,0.000000,4.509787,19.818446,-1.211547
1649352284.622508,20159.000000,1649352284.622409,0.000000,0.000000,1.000000,0.000000,0.000000,0.000000,0.000000,4.515252,19.816800,-1.224668
1649352284.722495,20160.000000,1649352284.722341,0.000000,0.000000,1.000000,0.000000,0.000000,0.000000,0.000000,4.521492,19.817470,-1.195416
1649352284.822468,20161.000000,1649352284.822312,0.000000,0.000000,1.000000,0.000000,0.000000,0.000000,0.000000,4.526267,19.819237,-1.136063
1649352284.922565,20162.000000,1649352284.922404,0.000000,0.000000,1.000000,0.000000,0.000000,0.000000,0.000000,4.528553,19.820942,-1.102788
1649352285.022493,20163.000000,1649352285.022377,0.000000,0.000000,1.000000,0.000000,0.000000,0.000000,0.000000,4.520848,19.822581,-1.093005
1649352285.122446,20164.000000,1649352285.122263,0.000000,0.000000,1.000000,0.000000,0.000000,0.000000,0.000000,4.517898,19.825241,-1.026770
1649352285.222355,20165.000000,1649352285.222195,0.000000,0.000000,1.000000,0.000000,0.000000,0.000000,0.000000,4.509643,19.826677,-0.996002
1649352285.322718,20166.000000,1649352285.322544,0.000000,0.000000,1.000000,0.000000,0.000000,0.000000,0.000000,4.505121,19.826949,-0.960626
1649352285.422578,20167.000000,1649352285.422469,0.000000,0.000000,1.000000,0.000000,0.000000,0.000000,0.000000,4.505233,19.829392,-0.893477
1649352285.522178,20168.000000,1649352285.522081,0.000000,0.000000,1.000000,0.000000,0.000000,0.000000,0.000000,4.504272,19.832788,-0.859665
1649352285.622111,20169.000000,1649352285.621977,0.000000,0.000000,1.000000,0.000000,0.000000,0.000000,0.000000,4.507750,19.833805,-0.836129
1649352285.722248,20170.000000,1649352285.722150,0.000000,0.000000,1.000000,0.000000,0.000000,0.000000,0.000000,4.514324,19.833659,-0.818462
1649352285.822062,20171.000000,1649352285.821927,0.000000,0.000000,1.000000,0.000000,0.000000,0.000000,0.000000,4.522711,19.836777,-0.749196
1649352285.922423,20172.000000,1649352285.922215,0.000000,0.000000,1.000000,0.000000,0.000000,0.000000,0.000000,4.530608,19.837521,-0.724070
1649352286.022509,20173.000000,1649352286.022388,0.000000,0.000000,1.000000,0.000000,0.000000,0.000000,0.000000,4.541288,19.838199,-0.711502
1649352286.122392,20174.000000,1649352286.122272,0.000000,0.000000,1.000000,0.000000,0.000000,0.000000,0.000000,4.549119,19.837724,-0.723092
1649352286.222399,20175.000000,1649352286.222253,0.000000,0.000000,1.000000,0.000000,0.000000,0.000000,0.000000,4.552054,19.838343,-0.744933
1649352286.322382,20176.000000,1649352286.322274,0.000000,0.000000,1.000000,0.000000,0.000000,0.000000,0.000000,4.548177,19.838905,-0.762855
1649352286.422415,20177.000000,1649352286.422310,0.000000,0.000000,1.000000,0.000000,0.000000,0.000000,0.000000,4.543329,19.840503,-0.789074
1649352286.522178,20178.000000,1649352286.522077,0.000000,0.000000,1.000000,0.000000,0.000000,0.000000,0.000000,4.540855,19.841986,-0.769980
1649352286.622332,20179.000000,1649352286.622175,0.000000,0.000000,1.000000,0.000000,0.000000,0.000000,0.000000,4.531914,19.842267,-0.780007
1649352286.722505,20180.000000,1649352286.722361,0.000000,0.000000,1.000000,0.000000,0.000000,0.000000,0.000000,4.521252,19.842504,-0.803443
1649352286.822239,20181.000000,1649352286.822142,0.000000,0.000000,1.000000,0.000000,0.000000,0.000000,0.000000,4.515539,19.841609,-0.843737
1649352286.922093,20182.000000,1649352286.922000,0.000000,0.000000,1.000000,0.000000,0.000000,0.000000,0.000000,4.515615,19.840738,-0.865461
1649352287.022293,20183.000000,1649352287.022200,0.000000,0.000000,1.000000,0.000000,0.000000,0.000000,0.000000,4.518982,19.839895,-0.885455
1649352287.122185,20184.000000,1649352287.122100,0.000000,0.000000,1.000000,0.000000,0.000000,0.000000,0.000000,4.524357,19.840171,-0.851338
1649352287.222174,20185.000000,1649352287.222078,0.000000,0.000000,1.000000,0.000000,0.000000,0.000000,0.000000,4.533795,19.839326,-0.831481
1649352287.322215,20186.000000,1649352287.322110,0.000000,0.000000,1.000000,0.000000,0.000000,0.000000,0.000000,4.542683,19.839605,-0.776957
1649352287.422341,20187.000000,1649352287.422177,0.000000,0.000000,1.000000,0.000000,0.000000,0.000000,0.000000,4.551026,19.838766,-0.728771
1649352287.522884,20188.000000,1649352287.522512,0.000000,0.000000,1.000000,0.000000,0.000000,0.000000,0.000000,4.558830,19.836872,-0.700454
1649352287.622437,20189.000000,1649352287.622317,0.000000,0.000000,1.000000,0.000000,0.000000,0.000000,0.000000,4.565015,19.835079,-0.704955
1649352287.722209,20190.000000,1649352287.722106,0.000000,0.000000,1.000000,0.000000,0.000000,0.000000,0.000000,4.568565,19.834477,-0.663516
1649352287.822232,20191.000000,1649352287.822110,0.000000,0.000000,1.000000,0.000000,0.000000,0.000000,0.000000,4.570709,19.833913,-0.639340
1649352287.922345,20192.000000,1649352287.922230,0.000000,0.000000,1.000000,0.000000,0.000000,0.000000,0.000000,4.572615,19.833385,-0.569663
1649352288.022176,20193.000000,1649352288.022049,0.000000,0.000000,1.000000,0.000000,0.000000,0.000000,0.000000,4.574297,19.831803,-0.545941
1649352288.122191,20194.000000,1649352288.122064,0.000000,0.000000,1.000000,0.000000,0.000000,0.000000,0.000000,4.576859,19.832500,-0.489733
1649352288.222457,20195.000000,1649352288.222341,0.000000,0.000000,1.000000,0.000000,0.000000,0.000000,0.000000,4.579161,19.830988,-0.442747
1649352288.322526,20196.000000,1649352288.322386,0.000000,0.000000,1.000000,0.000000,0.000000,0.000000,0.000000,4.579037,19.830661,-0.432897
1649352288.421784,20197.000000,1649352288.421574,0.000000,0.000000,1.000000,0.000000,0.000000,0.000000,0.000000,4.578806,19.830366,-0.424001
1649352288.522800,20198.000000,1649352288.522654,0.000000,0.000000,1.000000,0.000000,0.000000,0.000000,0.000000,4.576302,19.830101,-0.441819
1649352288.622495,20199.000000,1649352288.622369,0.000000,0.000000,1.000000,0.000000,0.000000,0.000000,0.000000,4.576023,19.828774,-0.475543
1649352288.722545,20200.000000,1649352288.722356,0.000000,0.000000,1.000000,0.000000,0.000000,0.000000,0.000000,4.568040,19.826446,-0.529293
1649352288.822376,20201.000000,1649352288.822268,0.000000,0.000000,1.000000,0.000000,0.000000,0.000000,0.000000,4.563709,19.824269,-0.590863
1649352288.922460,20202.000000,1649352288.922314,0.000000,0.000000,1.000000,0.000000,0.000000,0.000000,0.000000,4.562845,19.823329,-0.597723
1649352289.022332,20203.000000,1649352289.022204,0.000000,0.000000,1.000000,0.000000,0.000000,0.000000,0.000000,4.566357,19.821380,-0.620608
1649352289.122272,20204.000000,1649352289.122159,0.000000,0.000000,1.000000,0.000000,0.000000,0.000000,0.000000,4.559821,19.819573,-0.658825
1649352289.223071,20205.000000,1649352289.222915,0.000000,0.000000,1.000000,0.000000,0.000000,0.000000,0.000000,4.554711,19.818992,-0.708460
1649352289.322316,20206.000000,1649352289.322149,0.000000,0.000000,1.000000,0.000000,0.000000,0.000000,0.000000,4.552059,19.818482,-0.769774
1649352289.422193,20207.000000,1649352289.422036,0.000000,0.000000,1.000000,0.000000,0.000000,0.000000,0.000000,4.549556,19.818036,-0.777676
1649352289.522333,20208.000000,1649352289.522168,0.000000,0.000000,1.000000,0.000000,0.000000,0.000000,0.000000,4.545023,19.818742,-0.798021
1649352289.622741,20209.000000,1649352289.622485,0.000000,0.000000,1.000000,0.000000,0.000000,0.000000,0.000000,4.532040,19.819441,-0.829474
1649352289.722477,20210.000000,1649352289.722345,0.000000,0.000000,1.000000,0.000000,0.000000,0.000000,0.000000,4.520921,19.822312,-0.812668
1649352289.822153,20211.000000,1649352289.822048,0.000000,0.000000,1.000000,0.000000,0.000000,0.000000,0.000000,4.508325,19.826134,-0.759264
1649352289.922490,20212.000000,1649352289.922327,0.000000,0.000000,1.000000,0.000000,0.000000,0.000000,0.000000,4.505270,19.830843,-0.681319
1649352290.022385,20213.000000,1649352290.022234,0.000000,0.000000,1.000000,0.000000,0.000000,0.000000,0.000000,4.505785,19.836375,-0.584796
1649352290.122440,20214.000000,1649352290.122332,0.000000,0.000000,1.000000,0.000000,0.000000,0.000000,0.000000,4.506397,19.841579,-0.482703
1649352290.222243,20215.000000,1649352290.222125,0.000000,0.000000,1.000000,0.000000,0.000000,0.000000,0.000000,4.508181,19.847547,-0.372201
1649352290.322096,20216.000000,1649352290.321967,0.000000,0.000000,1.000000,0.000000,0.000000,0.000000,0.000000,4.506700,19.852042,-0.302189
1649352290.422117,20217.000000,1649352290.422017,0.000000,0.000000,1.000000,0.000000,0.000000,0.000000,0.000000,4.499948,19.854041,-0.273550
1649352290.522349,20218.000000,1649352290.522161,0.000000,0.000000,1.000000,0.000000,0.000000,0.000000,0.000000,4.489321,19.856950,-0.270121
1649352290.622458,20219.000000,1649352290.622261,0.000000,0.000000,1.000000,0.000000,0.000000,0.000000,0.000000,4.484867,19.857444,-0.295702
1649352290.723328,20220.000000,1649352290.722916,0.000000,0.000000,1.000000,0.000000,0.000000,0.000000,0.000000,4.484077,19.858927,-0.281312
1649352290.822644,20221.000000,1649352290.822367,0.000000,0.000000,1.000000,0.000000,0.000000,0.000000,0.000000,4.486744,19.862436,-0.222110
1649352290.922470,20222.000000,1649352290.922360,0.000000,0.000000,1.000000,0.000000,0.000000,0.000000,0.000000,4.493755,19.862402,-0.192559
1649352291.022482,20223.000000,1649352291.022356,0.000000,0.000000,1.000000,0.000000,0.000000,0.000000,0.000000,4.498300,19.863383,-0.196326
1649352291.122414,20224.000000,1649352291.122314,0.000000,0.000000,1.000000,0.000000,0.000000,0.000000,0.000000,4.495042,19.863146,-0.232839
1649352291.222245,20225.000000,1649352291.222105,0.000000,0.000000,1.000000,0.000000,0.000000,0.000000,0.000000,4.494225,19.861762,-0.288594
1649352291.322355,20226.000000,1649352291.322227,0.000000,0.000000,1.000000,0.000000,0.000000,0.000000,0.000000,4.488082,19.860392,-0.331245
1649352291.422439,20227.000000,1649352291.422326,0.000000,0.000000,1.000000,0.000000,0.000000,0.000000,0.000000,4.483459,19.860133,-0.325745
1649352291.522766,20228.000000,1649352291.522522,0.000000,0.000000,1.000000,0.000000,0.000000,0.000000,0.000000,4.474831,19.858749,-0.353870
1649352291.622574,20229.000000,1649352291.622421,0.000000,0.000000,1.000000,0.000000,0.000000,0.000000,0.000000,4.471161,19.856306,-0.402911
1649352291.722887,20230.000000,1649352291.722744,0.000000,0.000000,1.000000,0.000000,0.000000,0.000000,0.000000,4.477634,19.852875,-0.459835
1649352291.822307,20231.000000,1649352291.822167,0.000000,0.000000,1.000000,0.000000,0.000000,0.000000,0.000000,4.479495,19.850701,-0.519381
1649352291.922587,20232.000000,1649352291.922472,0.000000,0.000000,1.000000,0.000000,0.000000,0.000000,0.000000,4.483526,19.847543,-0.586983
1649352292.022523,20233.000000,1649352292.022319,0.000000,0.000000,1.000000,0.000000,0.000000,0.000000,0.000000,4.491771,19.845647,-0.651720
1649352292.122457,20234.000000,1649352292.122324,0.000000,0.000000,1.000000,0.000000,0.000000,0.000000,0.000000,4.499610,19.844949,-0.661184
1649352292.222781,20235.000000,1649352292.222681,0.000000,0.000000,1.000000,0.000000,0.000000,0.000000,0.000000,4.510307,19.846477,-0.617597
1649352292.322048,20236.000000,1649352292.321903,0.000000,0.000000,1.000000,0.000000,0.000000,0.000000,0.000000,4.520403,19.849014,-0.549794
1649352292.422100,20237.000000,1649352292.421961,0.000000,0.000000,1.000000,0.000000,0.000000,0.000000,0.000000,4.529899,19.849226,-0.501615
1649352292.522253,20238.000000,1649352292.522127,0.000000,0.000000,1.000000,0.000000,0.000000,0.000000,0.000000,4.531168,19.848329,-0.494128
1649352292.622270,20239.000000,1649352292.622129,0.000000,0.000000,1.000000,0.000000,0.000000,0.000000,0.000000,4.523568,19.846387,-0.516026
1649352292.722321,20240.000000,1649352292.722199,0.000000,0.000000,1.000000,0.000000,0.000000,0.000000,0.000000,4.519605,19.846735,-0.497537
1649352292.822403,20241.000000,1649352292.822289,0.000000,0.000000,1.000000,0.000000,0.000000,0.000000,0.000000,4.509283,19.847065,-0.514512
1649352292.922780,20242.000000,1649352292.922674,0.000000,0.000000,1.000000,0.000000,0.000000,0.000000,0.000000,4.506066,19.846287,-0.502589
1649352293.022174,20243.000000,1649352293.022052,0.000000,0.000000,1.000000,0.000000,0.000000,0.000000,0.000000,4.506308,19.846645,-0.464566
1649352293.122152,20244.000000,1649352293.122038,0.000000,0.000000,1.000000,0.000000,0.000000,0.000000,0.000000,4.510908,19.845894,-0.433008
1649352293.222231,20245.000000,1649352293.222133,0.000000,0.000000,1.000000,0.000000,0.000000,0.000000,0.000000,4.515252,19.847369,-0.381898
1649352293.322232,20246.000000,1649352293.322056,0.000000,0.000000,1.000000,0.000000,0.000000,0.000000,0.000000,4.511709,19.846582,-0.375816
1649352293.422245,20247.000000,1649352293.422047,0.000000,0.000000,1.000000,0.000000,0.000000,0.000000,0.000000,4.510533,19.845840,-0.381494
1649352293.522455,20248.000000,1649352293.522353,0.000000,0.000000,1.000000,0.000000,0.000000,0.000000,0.000000,4.512690,19.846232,-0.358118
1649352293.622131,20249.000000,1649352293.622037,0.000000,0.000000,1.000000,0.000000,0.000000,0.000000,0.000000,4.519083,19.845514,-0.352050
1649352293.722178,20250.000000,1649352293.722095,0.000000,0.000000,1.000000,0.000000,0.000000,0.000000,0.000000,4.524008,19.844840,-0.374691
1649352293.822084,20251.000000,1649352293.822001,0.000000,0.000000,1.000000,0.000000,0.000000,0.000000,0.000000,4.529713,19.843119,-0.422416
1649352293.922152,20252.000000,1649352293.922062,0.000000,0.000000,1.000000,0.000000,0.000000,0.000000,0.000000,4.537231,19.840412,-0.449769
1649352294.022182,20253.000000,1649352294.022059,0.000000,0.000000,1.000000,0.000000,0.000000,0.000000,0.000000,4.544261,19.837873,-0.494617
1649352294.122255,20254.000000,1649352294.122140,0.000000,0.000000,1.000000,0.000000,0.000000,0.000000,0.000000,4.551902,19.835497,-0.555372
1649352294.222139,20255.000000,1649352294.222038,0.000000,0.000000,1.000000,0.000000,0.000000,0.000000,0.000000,4.557923,19.833283,-0.624033
1649352294.322330,20256.000000,1649352294.322218,0.000000,0.000000,1.000000,0.000000,0.000000,0.000000,0.000000,4.562399,19.833408,-0.634845
1649352294.422067,20257.000000,1649352294.421959,0.000000,0.000000,1.000000,0.000000,0.000000,0.000000,0.000000,4.564316,19.832470,-0.669973
1649352294.522183,20258.000000,1649352294.522061,0.000000,0.000000,1.000000,0.000000,0.000000,0.000000,0.000000,4.564907,19.833800,-0.660645
1649352294.622284,20259.000000,1649352294.622159,0.000000,0.000000,1.000000,0.000000,0.000000,0.000000,0.000000,4.568611,19.833996,-0.665133
1649352294.722515,20260.000000,1649352294.722384,0.000000,0.000000,1.000000,0.000000,0.000000,0.000000,0.000000,4.567621,19.835299,-0.679657
1649352294.822615,20261.000000,1649352294.822468,0.000000,0.000000,1.000000,0.000000,0.000000,0.000000,0.000000,4.557842,19.835462,-0.718316
1649352294.922625,20262.000000,1649352294.922472,0.000000,0.000000,1.000000,0.000000,0.000000,0.000000,0.000000,4.548514,19.834545,-0.755084
1649352295.022496,20263.000000,1649352295.022367,0.000000,0.000000,1.000000,0.000000,0.000000,0.000000,0.000000,4.542917,19.832610,-0.806924
1649352295.122168,20264.000000,1649352295.122060,0.000000,0.000000,1.000000,0.000000,0.000000,0.000000,0.000000,4.537597,19.834077,-0.805414
1649352295.222166,20265.000000,1649352295.222053,0.000000,0.000000,1.000000,0.000000,0.000000,0.000000,0.000000,4.534739,19.834394,-0.827726
1649352295.322248,20266.000000,1649352295.322134,0.000000,0.000000,1.000000,0.000000,0.000000,0.000000,0.000000,4.532037,19.835802,-0.805945
1649352295.422281,20267.000000,1649352295.422141,0.000000,0.000000,1.000000,0.000000,0.000000,0.000000,0.000000,4.524038,19.837146,-0.802389
1649352295.522500,20268.000000,1649352295.522389,0.000000,0.000000,1.000000,0.000000,0.000000,0.000000,0.000000,4.512148,19.837334,-0.802635
1649352295.622167,20269.000000,1649352295.622025,0.000000,0.000000,1.000000,0.000000,0.000000,0.000000,0.000000,4.499883,19.837518,-0.827513
1649352295.722076,20270.000000,1649352295.721974,0.000000,0.000000,1.000000,0.000000,0.000000,0.000000,0.000000,4.490571,19.839879,-0.817939
1649352295.822472,20271.000000,1649352295.822290,0.000000,0.000000,1.000000,0.000000,0.000000,0.000000,0.000000,4.476442,19.841018,-0.832592
1649352295.922169,20272.000000,1649352295.922074,0.000000,0.000000,1.000000,0.000000,0.000000,0.000000,0.000000,4.467607,19.842090,-0.848711
1649352296.022332,20273.000000,1649352296.022212,0.000000,0.000000,1.000000,0.000000,0.000000,0.000000,0.000000,4.463798,19.843095,-0.812999
1649352296.122107,20274.000000,1649352296.122020,0.000000,0.000000,1.000000,0.000000,0.000000,0.000000,0.000000,4.464742,19.846214,-0.746976
1649352296.222233,20275.000000,1649352296.222102,0.000000,0.000000,1.000000,0.000000,0.000000,0.000000,0.000000,4.469076,19.846962,-0.692311
1649352296.322150,20276.000000,1649352296.322053,0.000000,0.000000,1.000000,0.000000,0.000000,0.000000,0.000000,4.472230,19.848738,-0.631711
1649352296.422366,20277.000000,1649352296.422254,0.000000,0.000000,1.000000,0.000000,0.000000,0.000000,0.000000,4.474251,19.850391,-0.596973
1649352296.522511,20278.000000,1649352296.522271,0.000000,0.000000,1.000000,0.000000,0.000000,0.000000,0.000000,4.471915,19.851924,-0.522595
1649352296.622601,20279.000000,1649352296.622439,0.000000,0.000000,1.000000,0.000000,0.000000,0.000000,0.000000,4.472002,19.852251,-0.477234
1649352296.722543,20280.000000,1649352296.722434,0.000000,0.000000,1.000000,0.000000,0.000000,0.000000,0.000000,4.475464,19.851438,-0.474303
1649352296.822184,20281.000000,1649352296.822075,0.000000,0.000000,1.000000,0.000000,0.000000,0.000000,0.000000,4.478829,19.850641,-0.498377
1649352296.922154,20282.000000,1649352296.922047,0.000000,0.000000,1.000000,0.000000,0.000000,0.000000,0.000000,4.483177,19.848773,-0.537024
1649352297.022218,20283.000000,1649352297.022118,0.000000,0.000000,1.000000,0.000000,0.000000,0.000000,0.000000,4.490616,19.845901,-0.592807
1649352297.122272,20284.000000,1649352297.122113,0.000000,0.000000,1.000000,0.000000,0.000000,0.000000,0.000000,4.496590,19.844270,-0.584291
1649352297.222219,20285.000000,1649352297.222107,0.000000,0.000000,1.000000,0.000000,0.000000,0.000000,0.000000,4.498978,19.843817,-0.592305
1649352297.322140,20286.000000,1649352297.322028,0.000000,0.000000,1.000000,0.000000,0.000000,0.000000,0.000000,4.502328,19.843389,-0.599231
1649352297.422273,20287.000000,1649352297.422137,0.000000,0.000000,1.000000,0.000000,0.000000,0.000000,0.000000,4.502216,19.842986,-0.605100
1649352297.522155,20288.000000,1649352297.522035,0.000000,0.000000,1.000000,0.000000,0.000000,0.000000,0.000000,4.503192,19.844790,-0.576878
1649352297.622173,20289.000000,1649352297.621999,0.000000,0.000000,1.000000,0.000000,0.000000,0.000000,0.000000,4.501924,19.846492,-0.583729
1649352297.722216,20290.000000,1649352297.722111,0.000000,0.000000,1.000000,0.000000,0.000000,0.000000,0.000000,4.506171,19.847004,-0.591967
1649352297.822097,20291.000000,1649352297.821979,0.000000,0.000000,1.000000,0.000000,0.000000,0.000000,0.000000,4.511259,19.846388,-0.598294
1649352297.922480,20292.000000,1649352297.922347,0.000000,0.000000,1.000000,0.000000,0.000000,0.000000,0.000000,4.508402,19.844709,-0.622936
1649352298.022674,20293.000000,1649352298.022447,0.000000,0.000000,1.000000,0.000000,0.000000,0.000000,0.000000,4.508950,19.845301,-0.602209
1649352298.122338,20294.000000,1649352298.122206,0.000000,0.000000,1.000000,0.000000,0.000000,0.000000,0.000000,4.512716,19.846948,-0.565397
1649352298.222508,20295.000000,1649352298.222220,0.000000,0.000000,1.000000,0.000000,0.000000,0.000000,0.000000,4.518423,19.849589,-0.504339
1649352298.322563,20296.000000,1649352298.322430,0.000000,0.000000,1.000000,0.000000,0.000000,0.000000,0.000000,4.527041,19.849889,-0.487048
1649352298.422468,20297.000000,1649352298.422330,0.000000,0.000000,1.000000,0.000000,0.000000,0.000000,0.000000,4.535116,19.849067,-0.467427
1649352298.522150,20298.000000,1649352298.522037,0.000000,0.000000,1.000000,0.000000,0.000000,0.000000,0.000000,4.538293,19.848277,-0.463337
1649352298.622191,20299.000000,1649352298.622094,0.000000,0.000000,1.000000,0.000000,0.000000,0.000000,0.000000,4.540108,19.846431,-0.484634
1649352298.722656,20300.000000,1649352298.722508,0.000000,0.000000,1.000000,0.000000,0.000000,0.000000,0.000000,4.537363,19.844683,-0.519764
1649352298.822251,20301.000000,1649352298.822140,0.000000,0.000000,1.000000,0.000000,0.000000,0.000000,0.000000,4.540133,19.843033,-0.539878
1649352298.922373,20302.000000,1649352298.922200,0.000000,0.000000,1.000000,0.000000,0.000000,0.000000,0.000000,4.542664,19.842571,-0.519736
1649352299.022244,20303.000000,1649352299.022063,0.000000,0.000000,1.000000,0.000000,0.000000,0.000000,0.000000,4.537332,19.841053,-0.531152
1649352299.122162,20304.000000,1649352299.122035,0.000000,0.000000,1.000000,0.000000,0.000000,0.000000,0.000000,4.535492,19.841812,-0.488960
1649352299.222095,20305.000000,1649352299.222015,0.000000,0.000000,1.000000,0.000000,0.000000,0.000000,0.000000,4.533692,19.841449,-0.473614
1649352299.322144,20306.000000,1649352299.322054,0.000000,0.000000,1.000000,0.000000,0.000000,0.000000,0.000000,4.524307,19.840027,-0.490505
1649352299.422160,20307.000000,1649352299.422027,0.000000,0.000000,1.000000,0.000000,0.000000,0.000000,0.000000,4.521957,19.840877,-0.452814
1649352299.522144,20308.000000,1649352299.522038,0.000000,0.000000,1.000000,0.000000,0.000000,0.000000,0.000000,4.520815,19.843872,-0.378927
1649352299.622118,20309.000000,1649352299.622000,0.000000,0.000000,1.000000,0.000000,0.000000,0.000000,0.000000,4.519730,19.846706,-0.293807
1649352299.722163,20310.000000,1649352299.722006,0.000000,0.000000,1.000000,0.000000,0.000000,0.000000,0.000000,4.517611,19.847196,-0.239976
1649352299.822423,20311.000000,1649352299.822237,0.000000,0.000000,1.000000,0.000000,0.000000,0.000000,0.000000,4.516703,19.849831,-0.166245
1649352299.922616,20312.000000,1649352299.922487,0.000000,0.000000,1.000000,0.000000,0.000000,0.000000,0.000000,4.507129,19.851215,-0.144486
1649352300.022374,20313.000000,1649352300.022266,0.000000,0.000000,1.000000,0.000000,0.000000,0.000000,0.000000,4.501385,19.853595,-0.101649
1649352300.122382,20314.000000,1649352300.122269,0.000000,0.000000,1.000000,0.000000,0.000000,0.000000,0.000000,4.501458,19.855817,-0.053146
1649352300.222376,20315.000000,1649352300.222271,0.000000,0.000000,1.000000,0.000000,0.000000,0.000000,0.000000,4.500487,19.857887,-0.046032
1649352300.322487,20316.000000,1649352300.322383,0.000000,0.000000,1.000000,0.000000,0.000000,0.000000,0.000000,4.495257,19.859808,-0.062494
1649352300.422479,20317.000000,1649352300.422343,0.000000,0.000000,1.000000,0.000000,0.000000,0.000000,0.000000,4.489285,19.860492,-0.078942
1649352300.522300,20318.000000,1649352300.522184,0.000000,0.000000,1.000000,0.000000,0.000000,0.000000,0.000000,4.489169,19.858918,-0.099353
1649352300.622379,20319.000000,1649352300.622204,0.000000,0.000000,1.000000,0.000000,0.000000,0.000000,0.000000,4.491314,19.856307,-0.149315
1649352300.722304,20320.000000,1649352300.722157,0.000000,0.000000,1.000000,0.000000,0.000000,0.000000,0.000000,4.494497,19.855995,-0.162207
1649352300.822312,20321.000000,1649352300.822147,0.000000,0.000000,1.000000,0.000000,0.000000,0.000000,0.000000,4.493194,19.855680,-0.193516
1649352300.922522,20322.000000,1649352300.922373,0.000000,0.000000,1.000000,0.000000,0.000000,0.000000,0.000000,4.495285,19.854273,-0.250494
1649352301.022434,20323.000000,1649352301.022231,0.000000,0.000000,1.000000,0.000000,0.000000,0.000000,0.000000,4.503845,19.855110,-0.244900
1649352301.122142,20324.000000,1649352301.122043,0.000000,0.000000,1.000000,0.000000,0.000000,0.000000,0.000000,4.504318,19.854796,-0.269579
1649352301.222138,20325.000000,1649352301.222035,0.000000,0.000000,1.000000,0.000000,0.000000,0.000000,0.000000,4.499324,19.852306,-0.316810
1649352301.322239,20326.000000,1649352301.322095,0.000000,0.000000,1.000000,0.000000,0.000000,0.000000,0.000000,4.489175,19.849947,-0.375111
1649352301.422523,20327.000000,1649352301.422260,0.000000,0.000000,1.000000,0.000000,0.000000,0.000000,0.000000,4.477453,19.848809,-0.447162
1649352301.522529,20328.000000,1649352301.522419,0.000000,0.000000,1.000000,0.000000,0.000000,0.000000,0.000000,4.459917,19.847741,-0.530674
1649352301.622152,20329.000000,1649352301.622043,0.000000,0.000000,1.000000,0.000000,0.000000,0.000000,0.000000,4.445657,19.846740,-0.596017
1649352301.722147,20330.000000,1649352301.722013,0.000000,0.000000,1.000000,0.000000,0.000000,0.000000,0.000000,4.433439,19.846896,-0.650277
1649352301.822332,20331.000000,1649352301.822195,0.000000,0.000000,1.000000,0.000000,0.000000,0.000000,0.000000,4.421002,19.845965,-0.704309
1649352301.922391,20332.000000,1649352301.922261,0.000000,0.000000,1.000000,0.000000,0.000000,0.000000,0.000000,4.419287,19.844007,-0.755629
1649352302.022442,20333.000000,1649352302.022328,0.000000,0.000000,1.000000,0.000000,0.000000,0.000000,0.000000,4.424432,19.843265,-0.742187
1649352302.122716,20334.000000,1649352302.122602,0.000000,0.000000,1.000000,0.000000,0.000000,0.000000,0.000000,4.434943,19.842583,-0.698897
1649352302.222501,20335.000000,1649352302.222272,0.000000,0.000000,1.000000,0.000000,0.000000,0.000000,0.000000,4.446123,19.844140,-0.615770
1649352302.322222,20336.000000,1649352302.322072,0.000000,0.000000,1.000000,0.000000,0.000000,0.000000,0.000000,4.460071,19.846718,-0.512312
1649352302.422184,20337.000000,1649352302.422036,0.000000,0.000000,1.000000,0.000000,0.000000,0.000000,0.000000,4.464593,19.846980,-0.462112
1649352302.522144,20338.000000,1649352302.522031,0.000000,0.000000,1.000000,0.000000,0.000000,0.000000,0.000000,4.472179,19.845052,-0.436501
1649352302.622224,20339.000000,1649352302.622120,0.000000,0.000000,1.000000,0.000000,0.000000,0.000000,0.000000,4.483726,19.842148,-0.436143
1649352302.722201,20340.000000,1649352302.722059,0.000000,0.000000,1.000000,0.000000,0.000000,0.000000,0.000000,4.492439,19.840513,-0.455988
1649352302.822689,20341.000000,1649352302.822492,0.000000,0.000000,1.000000,0.000000,0.000000,0.000000,0.000000,4.499536,19.837899,-0.501640
1649352302.922738,20342.000000,1649352302.922628,0.000000,0.000000,1.000000,0.000000,0.000000,0.000000,0.000000,4.501816,19.836548,-0.544560
1649352303.022228,20343.000000,1649352303.022107,0.000000,0.000000,1.000000,0.000000,0.000000,0.000000,0.000000,4.498447,19.835304,-0.600920
1649352303.122085,20344.000000,1649352303.121992,0.000000,0.000000,1.000000,0.000000,0.000000,0.000000,0.000000,4.489751,19.834161,-0.669282
1649352303.222132,20345.000000,1649352303.222023,0.000000,0.000000,1.000000,0.000000,0.000000,0.000000,0.000000,4.488044,19.832027,-0.724056
1649352303.322413,20346.000000,1649352303.322256,0.000000,0.000000,1.000000,0.000000,0.000000,0.000000,0.000000,4.490771,19.828959,-0.761679
1649352303.422467,20347.000000,1649352303.422340,0.000000,0.000000,1.000000,0.000000,0.000000,0.000000,0.000000,4.495502,19.828287,-0.743281
1649352303.522640,20348.000000,1649352303.522414,0.000000,0.000000,1.000000,0.000000,0.000000,0.000000,0.000000,4.498845,19.827699,-0.750203
1649352303.622584,20349.000000,1649352303.622445,0.000000,0.000000,1.000000,0.000000,0.000000,0.000000,0.000000,4.504136,19.827190,-0.758850
1649352303.722515,20350.000000,1649352303.722353,0.000000,0.000000,1.000000,0.000000,0.000000,0.000000,0.000000,4.510167,19.826754,-0.787704
1649352303.823512,20351.000000,1649352303.823188,0.000000,0.000000,1.000000,0.000000,0.000000,0.000000,0.000000,4.522333,19.825295,-0.822208
1649352303.922509,20352.000000,1649352303.922315,0.000000,0.000000,1.000000,0.000000,0.000000,0.000000,0.000000,4.531544,19.822872,-0.873386
1649352304.022512,20353.000000,1649352304.022300,0.000000,0.000000,1.000000,0.000000,0.000000,0.000000,0.000000,4.541208,19.821723,-0.865499
