__time,/dwm1001/id_458E/pose_kf/header/seq,/dwm1001/id_458E/pose_kf/header/stamp,/dwm1001/id_458E/pose_kf/pose/orientation/pitch_deg,/dwm1001/id_458E/pose_kf/pose/orientation/roll_deg,/dwm1001/id_458E/pose_kf/pose/orientation/w,/dwm1001/id_458E/pose_kf/pose/orientation/x,/dwm1001/id_458E/pose_kf/pose/orientation/y,/dwm1001/id_458E/pose_kf/pose/orientation/yaw_deg,/dwm1001/id_458E/pose_kf/pose/orientation/z,/dwm1001/id_458E/pose_kf/pose/position/x,/dwm1001/id_458E/pose_kf/pose/position/y,/dwm1001/id_458E/pose_kf/pose/position/z
1649347003.139628,29167.000000,1649347003.136999,0.000000,0.000000,1.000000,0.000000,0.000000,0.000000,0.000000,4.415949,15.179721,0.385580
1649347003.236348,29168.000000,1649347003.234374,0.000000,0.000000,1.000000,0.000000,0.000000,0.000000,0.000000,4.397034,15.187016,0.310251
1649347003.334002,29169.000000,1649347003.333530,0.000000,0.000000,1.000000,0.000000,0.000000,0.000000,0.000000,4.390285,15.190578,0.279277
1649347003.435419,29170.000000,1649347003.434743,0.000000,0.000000,1.000000,0.000000,0.000000,0.000000,0.000000,4.392868,15.190602,0.278819
1649347003.532834,29171.000000,1649347003.532649,0.000000,0.000000,1.000000,0.000000,0.000000,0.000000,0.000000,4.386806,15.192738,0.236670
1649347003.634493,29172.000000,1649347003.634087,0.000000,0.000000,1.000000,0.000000,0.000000,0.000000,0.000000,4.371486,15.197958,0.176347
1649347003.734155,29173.000000,1649347003.733774,0.000000,0.000000,1.000000,0.000000,0.000000,0.000000,0.000000,4.371435,15.199539,0.156735
1649347003.836153,29174.000000,1649347003.834841,0.000000,0.000000,1.000000,0.000000,0.000000,0.000000,0.000000,4.378175,15.197680,0.164923
1649347003.933267,29175.000000,1649347003.932873,0.000000,0.000000,1.000000,0.000000,0.000000,0.000000,0.000000,4.391300,15.194758,0.195726
1649347004.034102,29176.000000,1649347004.032925,0.000000,0.000000,1.000000,0.000000,0.000000,0.000000,0.000000,4.396234,15.195208,0.182844
1649347004.132799,29177.000000,1649347004.132303,0.000000,0.000000,1.000000,0.000000,0.000000,0.000000,0.000000,4.407574,15.192305,0.199012
1649347004.233930,29178.000000,1649347004.233327,0.000000,0.000000,1.000000,0.000000,0.000000,0.000000,0.000000,4.421656,15.187334,0.234151
1649347004.336847,29179.000000,1649347004.335891,0.000000,0.000000,1.000000,0.000000,0.000000,0.000000,0.000000,4.421925,15.186969,0.218875
1649347004.436835,29180.000000,1649347004.436123,0.000000,0.000000,1.000000,0.000000,0.000000,0.000000,0.000000,4.412402,15.189871,0.168944
1649347004.541993,29181.000000,1649347004.538969,0.000000,0.000000,1.000000,0.000000,0.000000,0.000000,0.000000,4.412186,15.189312,0.157605
1649347004.637676,29182.000000,1649347004.636382,0.000000,0.000000,1.000000,0.000000,0.000000,0.000000,0.000000,4.417493,15.186575,0.178471
1649347004.736380,29183.000000,1649347004.735860,0.000000,0.000000,1.000000,0.000000,0.000000,0.000000,0.000000,4.411649,15.188330,0.154389
1649347004.834240,29184.000000,1649347004.833756,0.000000,0.000000,1.000000,0.000000,0.000000,0.000000,0.000000,4.413813,15.185606,0.163008
1649347004.935611,29185.000000,1649347004.934443,0.000000,0.000000,1.000000,0.000000,0.000000,0.000000,0.000000,4.407182,15.187379,0.138467
1649347005.033802,29186.000000,1649347005.033427,0.000000,0.000000,1.000000,0.000000,0.000000,0.000000,0.000000,4.409701,15.186858,0.145844
1649347005.133293,29187.000000,1649347005.132657,0.000000,0.000000,1.000000,0.000000,0.000000,0.000000,0.000000,4.400141,15.190712,0.114473
1649347005.233494,29188.000000,1649347005.232856,0.000000,0.000000,1.000000,0.000000,0.000000,0.000000,0.000000,4.384640,15.197601,0.054021
1649347005.333917,29189.000000,1649347005.333563,0.000000,0.000000,1.000000,0.000000,0.000000,0.000000,0.000000,4.369017,15.206250,-0.021344
1649347005.432668,29190.000000,1649347005.432350,0.000000,0.000000,1.000000,0.000000,0.000000,0.000000,0.000000,4.365316,15.208904,-0.046395
1649347005.534602,29191.000000,1649347005.534076,0.000000,0.000000,1.000000,0.000000,0.000000,0.000000,0.000000,4.354352,15.213520,-0.095720
1649347005.635593,29192.000000,1649347005.634948,0.000000,0.000000,1.000000,0.000000,0.000000,0.000000,0.000000,4.356173,15.214528,-0.103761
1649347005.736743,29193.000000,1649347005.736111,0.000000,0.000000,1.000000,0.000000,0.000000,0.000000,0.000000,4.365704,15.211036,-0.079452
1649347005.836354,29194.000000,1649347005.835836,0.000000,0.000000,1.000000,0.000000,0.000000,0.000000,0.000000,4.362858,15.212028,-0.097549
1649347005.934418,29195.000000,1649347005.933946,0.000000,0.000000,1.000000,0.000000,0.000000,0.000000,0.000000,4.366846,15.209628,-0.083753
1649347006.035520,29196.000000,1649347006.034791,0.000000,0.000000,1.000000,0.000000,0.000000,0.000000,0.000000,4.378367,15.204032,-0.046653
1649347006.133707,29197.000000,1649347006.133216,0.000000,0.000000,1.000000,0.000000,0.000000,0.000000,0.000000,4.382792,15.203068,-0.055012
1649347006.237790,29198.000000,1649347006.236945,0.000000,0.000000,1.000000,0.000000,0.000000,0.000000,0.000000,4.376127,15.205398,-0.096518
1649347006.333250,29199.000000,1649347006.332863,0.000000,0.000000,1.000000,0.000000,0.000000,0.000000,0.000000,4.380803,15.204294,-0.098006
1649347006.435606,29200.000000,1649347006.434752,0.000000,0.000000,1.000000,0.000000,0.000000,0.000000,0.000000,4.391820,15.201041,-0.071587
1649347006.534175,29201.000000,1649347006.533861,0.000000,0.000000,1.000000,0.000000,0.000000,0.000000,0.000000,4.394622,15.200127,-0.087806
1649347006.638524,29202.000000,1649347006.636794,0.000000,0.000000,1.000000,0.000000,0.000000,0.000000,0.000000,4.387464,15.202520,-0.129609
1649347006.736441,29203.000000,1649347006.735522,0.000000,0.000000,1.000000,0.000000,0.000000,0.000000,0.000000,4.389448,15.201492,-0.128166
1649347006.837481,29204.000000,1649347006.836123,0.000000,0.000000,1.000000,0.000000,0.000000,0.000000,0.000000,4.398978,15.198322,-0.095727
1649347006.938327,29205.000000,1649347006.937680,0.000000,0.000000,1.000000,0.000000,0.000000,0.000000,0.000000,4.413431,15.192049,-0.047321
1649347007.037099,29206.000000,1649347007.035343,0.000000,0.000000,1.000000,0.000000,0.000000,0.000000,0.000000,4.432493,15.185041,0.017924
1649347007.139556,29207.000000,1649347007.137864,0.000000,0.000000,1.000000,0.000000,0.000000,0.000000,0.000000,4.441682,15.182813,0.032273
1649347007.239459,29208.000000,1649347007.237785,0.000000,0.000000,1.000000,0.000000,0.000000,0.000000,0.000000,4.452416,15.178567,0.069522
1649347007.334799,29209.000000,1649347007.333701,0.000000,0.000000,1.000000,0.000000,0.000000,0.000000,0.000000,4.453683,15.177875,0.067390
1649347007.434099,29210.000000,1649347007.433407,0.000000,0.000000,1.000000,0.000000,0.000000,0.000000,0.000000,4.448182,15.179452,0.028275
1649347007.534568,29211.000000,1649347007.534155,0.000000,0.000000,1.000000,0.000000,0.000000,0.000000,0.000000,4.436311,15.184258,-0.032558
1649347007.633479,29212.000000,1649347007.633027,0.000000,0.000000,1.000000,0.000000,0.000000,0.000000,0.000000,4.419549,15.191009,-0.110910
1649347007.736822,29213.000000,1649347007.735896,0.000000,0.000000,1.000000,0.000000,0.000000,0.000000,0.000000,4.411307,15.193033,-0.134174
1649347007.835320,29214.000000,1649347007.833865,0.000000,0.000000,1.000000,0.000000,0.000000,0.000000,0.000000,4.412239,15.190582,-0.121481
1649347007.939871,29215.000000,1649347007.938860,0.000000,0.000000,1.000000,0.000000,0.000000,0.000000,0.000000,4.418569,15.187178,-0.077541
1649347008.035467,29216.000000,1649347008.034738,0.000000,0.000000,1.000000,0.000000,0.000000,0.000000,0.000000,4.432165,15.181793,-0.009346
1649347008.134013,29217.000000,1649347008.132708,0.000000,0.000000,1.000000,0.000000,0.000000,0.000000,0.000000,4.448229,15.175642,0.074743
1649347008.237279,29218.000000,1649347008.235109,0.000000,0.000000,1.000000,0.000000,0.000000,0.000000,0.000000,4.467669,15.167694,0.163455
1649347008.334459,29219.000000,1649347008.333627,0.000000,0.000000,1.000000,0.000000,0.000000,0.000000,0.000000,4.489156,15.159159,0.254843
1649347008.434002,29220.000000,1649347008.433023,0.000000,0.000000,1.000000,0.000000,0.000000,0.000000,0.000000,4.495074,15.157725,0.288974
1649347008.532480,29221.000000,1649347008.532230,0.000000,0.000000,1.000000,0.000000,0.000000,0.000000,0.000000,4.491718,15.159733,0.277791
1649347008.635451,29222.000000,1649347008.633763,0.000000,0.000000,1.000000,0.000000,0.000000,0.000000,0.000000,4.494882,15.158441,0.298962
1649347008.741233,29223.000000,1649347008.739851,0.000000,0.000000,1.000000,0.000000,0.000000,0.000000,0.000000,4.485675,15.161661,0.276968
1649347008.838675,29224.000000,1649347008.838085,0.000000,0.000000,1.000000,0.000000,0.000000,0.000000,0.000000,4.471356,15.166952,0.222473
1649347008.933159,29225.000000,1649347008.932694,0.000000,0.000000,1.000000,0.000000,0.000000,0.000000,0.000000,4.450076,15.175271,0.151409
1649347009.034652,29226.000000,1649347009.033857,0.000000,0.000000,1.000000,0.000000,0.000000,0.000000,0.000000,4.424468,15.184244,0.065380
1649347009.133297,29227.000000,1649347009.132490,0.000000,0.000000,1.000000,0.000000,0.000000,0.000000,0.000000,4.411207,15.188354,0.029655
1649347009.234149,29228.000000,1649347009.233069,0.000000,0.000000,1.000000,0.000000,0.000000,0.000000,0.000000,4.391122,15.194395,-0.025478
1649347009.336755,29229.000000,1649347009.336225,0.000000,0.000000,1.000000,0.000000,0.000000,0.000000,0.000000,4.372276,15.201155,-0.089470
1649347009.432988,29230.000000,1649347009.432615,0.000000,0.000000,1.000000,0.000000,0.000000,0.000000,0.000000,4.345930,15.210756,-0.149768
1649347009.535019,29231.000000,1649347009.533951,0.000000,0.000000,1.000000,0.000000,0.000000,0.000000,0.000000,4.319106,15.220837,-0.223368
1649347009.634000,29232.000000,1649347009.633089,0.000000,0.000000,1.000000,0.000000,0.000000,0.000000,0.000000,4.310435,15.223711,-0.246720
1649347009.738328,29233.000000,1649347009.737352,0.000000,0.000000,1.000000,0.000000,0.000000,0.000000,0.000000,4.313485,15.221950,-0.231511
1649347009.835639,29234.000000,1649347009.835113,0.000000,0.000000,1.000000,0.000000,0.000000,0.000000,0.000000,4.324316,15.216909,-0.189019
1649347009.933149,29235.000000,1649347009.932776,0.000000,0.000000,1.000000,0.000000,0.000000,0.000000,0.000000,4.326098,15.216421,-0.189790
1649347010.037873,29236.000000,1649347010.036262,0.000000,0.000000,1.000000,0.000000,0.000000,0.000000,0.000000,4.319301,15.218063,-0.219194
1649347010.134352,29237.000000,1649347010.133558,0.000000,0.000000,1.000000,0.000000,0.000000,0.000000,0.000000,4.322937,15.216268,-0.205073
1649347010.234632,29238.000000,1649347010.233457,0.000000,0.000000,1.000000,0.000000,0.000000,0.000000,0.000000,4.315695,15.217774,-0.224223
1649347010.339509,29239.000000,1649347010.338275,0.000000,0.000000,1.000000,0.000000,0.000000,0.000000,0.000000,4.318894,15.215858,-0.200285
1649347010.435040,29240.000000,1649347010.434665,0.000000,0.000000,1.000000,0.000000,0.000000,0.000000,0.000000,4.315587,15.217260,-0.214892
1649347010.533437,29241.000000,1649347010.532979,0.000000,0.000000,1.000000,0.000000,0.000000,0.000000,0.000000,4.323572,15.214165,-0.188253
1649347010.641287,29242.000000,1649347010.639729,0.000000,0.000000,1.000000,0.000000,0.000000,0.000000,0.000000,4.320389,15.216645,-0.193864
1649347010.736232,29243.000000,1649347010.735159,0.000000,0.000000,1.000000,0.000000,0.000000,0.000000,0.000000,4.325184,15.214576,-0.164298
1649347010.835094,29244.000000,1649347010.833515,0.000000,0.000000,1.000000,0.000000,0.000000,0.000000,0.000000,4.322231,15.216940,-0.171196
1649347010.937594,29245.000000,1649347010.936553,0.000000,0.000000,1.000000,0.000000,0.000000,0.000000,0.000000,4.329399,15.215857,-0.144537
1649347011.034518,29246.000000,1649347011.033814,0.000000,0.000000,1.000000,0.000000,0.000000,0.000000,0.000000,4.341745,15.211521,-0.095405
1649347011.135393,29247.000000,1649347011.133840,0.000000,0.000000,1.000000,0.000000,0.000000,0.000000,0.000000,4.358941,15.204126,-0.030440
1649347011.233559,29248.000000,1649347011.232756,0.000000,0.000000,1.000000,0.000000,0.000000,0.000000,0.000000,4.381754,15.197133,0.047186
1649347011.335774,29249.000000,1649347011.334799,0.000000,0.000000,1.000000,0.000000,0.000000,0.000000,0.000000,4.406536,15.187273,0.132800
1649347011.433239,29250.000000,1649347011.432826,0.000000,0.000000,1.000000,0.000000,0.000000,0.000000,0.000000,4.415658,15.184543,0.166267
1649347011.535464,29251.000000,1649347011.534729,0.000000,0.000000,1.000000,0.000000,0.000000,0.000000,0.000000,4.416495,15.185291,0.155288
1649347011.633248,29252.000000,1649347011.632595,0.000000,0.000000,1.000000,0.000000,0.000000,0.000000,0.000000,4.409504,15.188230,0.111366
1649347011.736910,29253.000000,1649347011.735551,0.000000,0.000000,1.000000,0.000000,0.000000,0.000000,0.000000,4.411498,15.187778,0.109304
1649347011.833625,29254.000000,1649347011.833327,0.000000,0.000000,1.000000,0.000000,0.000000,0.000000,0.000000,4.404542,15.190660,0.070815
1649347011.939159,29255.000000,1649347011.938139,0.000000,0.000000,1.000000,0.000000,0.000000,0.000000,0.000000,4.393514,15.194503,0.009539
1649347012.034260,29256.000000,1649347012.033929,0.000000,0.000000,1.000000,0.000000,0.000000,0.000000,0.000000,4.395031,15.193789,-0.008980
1649347012.133021,29257.000000,1649347012.132405,0.000000,0.000000,1.000000,0.000000,0.000000,0.000000,0.000000,4.405137,15.189858,0.007923
1649347012.232528,29258.000000,1649347012.232220,0.000000,0.000000,1.000000,0.000000,0.000000,0.000000,0.000000,4.418974,15.185077,0.055566
1649347012.338953,29259.000000,1649347012.337047,0.000000,0.000000,1.000000,0.000000,0.000000,0.000000,0.000000,4.418853,15.184958,0.056016
1649347012.437036,29260.000000,1649347012.435374,0.000000,0.000000,1.000000,0.000000,0.000000,0.000000,0.000000,4.412085,15.188155,0.020052
1649347012.537630,29261.000000,1649347012.536268,0.000000,0.000000,1.000000,0.000000,0.000000,0.000000,0.000000,4.396877,15.193385,-0.039504
1649347012.637819,29262.000000,1649347012.636880,0.000000,0.000000,1.000000,0.000000,0.000000,0.000000,0.000000,4.394461,15.195066,-0.053855
1649347012.735920,29263.000000,1649347012.735400,0.000000,0.000000,1.000000,0.000000,0.000000,0.000000,0.000000,4.386703,15.198839,-0.098997
1649347012.836790,29264.000000,1649347012.835443,0.000000,0.000000,1.000000,0.000000,0.000000,0.000000,0.000000,4.388093,15.198035,-0.094581
1649347012.935531,29265.000000,1649347012.934854,0.000000,0.000000,1.000000,0.000000,0.000000,0.000000,0.000000,4.380684,15.201630,-0.120846
1649347013.035393,29266.000000,1649347013.034771,0.000000,0.000000,1.000000,0.000000,0.000000,0.000000,0.000000,4.384605,15.200650,-0.109582
1649347013.133600,29267.000000,1649347013.133100,0.000000,0.000000,1.000000,0.000000,0.000000,0.000000,0.000000,4.391592,15.197528,-0.068778
1649347013.235331,29268.000000,1649347013.234446,0.000000,0.000000,1.000000,0.000000,0.000000,0.000000,0.000000,4.404728,15.192394,-0.008572
1649347013.333207,29269.000000,1649347013.332256,0.000000,0.000000,1.000000,0.000000,0.000000,0.000000,0.000000,4.421455,15.185371,0.068536
1649347013.438032,29270.000000,1649347013.437221,0.000000,0.000000,1.000000,0.000000,0.000000,0.000000,0.000000,4.440438,15.177676,0.157702
1649347013.535962,29271.000000,1649347013.534578,0.000000,0.000000,1.000000,0.000000,0.000000,0.000000,0.000000,4.461500,15.170456,0.249425
1649347013.636847,29272.000000,1649347013.635972,0.000000,0.000000,1.000000,0.000000,0.000000,0.000000,0.000000,4.467026,15.168068,0.278942
1649347013.738094,29273.000000,1649347013.736997,0.000000,0.000000,1.000000,0.000000,0.000000,0.000000,0.000000,4.476392,15.164799,0.326150
1649347013.839653,29274.000000,1649347013.838498,0.000000,0.000000,1.000000,0.000000,0.000000,0.000000,0.000000,4.477378,15.163974,0.333016
1649347013.934053,29275.000000,1649347013.932743,0.000000,0.000000,1.000000,0.000000,0.000000,0.000000,0.000000,4.484627,15.161096,0.360048
1649347014.033364,29276.000000,1649347014.032797,0.000000,0.000000,1.000000,0.000000,0.000000,0.000000,0.000000,4.497788,15.156282,0.408024
1649347014.133415,29277.000000,1649347014.132968,0.000000,0.000000,1.000000,0.000000,0.000000,0.000000,0.000000,4.513239,15.150737,0.464749
1649347014.239969,29278.000000,1649347014.238399,0.000000,0.000000,1.000000,0.000000,0.000000,0.000000,0.000000,4.530822,15.145602,0.530608
1649347014.332797,29279.000000,1649347014.332493,0.000000,0.000000,1.000000,0.000000,0.000000,0.000000,0.000000,4.529667,15.146319,0.547084
1649347014.433509,29280.000000,1649347014.433242,0.000000,0.000000,1.000000,0.000000,0.000000,0.000000,0.000000,4.531532,15.144926,0.585527
1649347014.532774,29281.000000,1649347014.532473,0.000000,0.000000,1.000000,0.000000,0.000000,0.000000,0.000000,4.519912,15.149168,0.573243
1649347014.639070,29282.000000,1649347014.634498,0.000000,0.000000,1.000000,0.000000,0.000000,0.000000,0.000000,4.515220,15.149996,0.588945
1649347014.732489,29283.000000,1649347014.732206,0.000000,0.000000,1.000000,0.000000,0.000000,0.000000,0.000000,4.517109,15.149770,0.625056
1649347014.834428,29284.000000,1649347014.834068,0.000000,0.000000,1.000000,0.000000,0.000000,0.000000,0.000000,4.521956,15.147452,0.673466
1649347014.932793,29285.000000,1649347014.932298,0.000000,0.000000,1.000000,0.000000,0.000000,0.000000,0.000000,4.529595,15.144250,0.732016
1649347015.036385,29286.000000,1649347015.035746,0.000000,0.000000,1.000000,0.000000,0.000000,0.000000,0.000000,4.540955,15.140216,0.794587
1649347015.132246,29287.000000,1649347015.132029,0.000000,0.000000,1.000000,0.000000,0.000000,0.000000,0.000000,4.539453,15.140857,0.798044
1649347015.236631,29288.000000,1649347015.234307,0.000000,0.000000,1.000000,0.000000,0.000000,0.000000,0.000000,4.529081,15.145910,0.758514
1649347015.333123,29289.000000,1649347015.332402,0.000000,0.000000,1.000000,0.000000,0.000000,0.000000,0.000000,4.509277,15.154023,0.683480
1649347015.433614,29290.000000,1649347015.433331,0.000000,0.000000,1.000000,0.000000,0.000000,0.000000,0.000000,4.483899,15.165001,0.583404
1649347015.533580,29291.000000,1649347015.533011,0.000000,0.000000,1.000000,0.000000,0.000000,0.000000,0.000000,4.469692,15.171018,0.534493
1649347015.632446,29292.000000,1649347015.632133,0.000000,0.000000,1.000000,0.000000,0.000000,0.000000,0.000000,4.462824,15.174507,0.523497
1649347015.734244,29293.000000,1649347015.733788,0.000000,0.000000,1.000000,0.000000,0.000000,0.000000,0.000000,4.447649,15.179956,0.477953
1649347015.833788,29294.000000,1649347015.833162,0.000000,0.000000,1.000000,0.000000,0.000000,0.000000,0.000000,4.441022,15.180702,0.465472
1649347015.932729,29295.000000,1649347015.932308,0.000000,0.000000,1.000000,0.000000,0.000000,0.000000,0.000000,4.426135,15.185724,0.416204
1649347016.035305,29296.000000,1649347016.032520,0.000000,0.000000,1.000000,0.000000,0.000000,0.000000,0.000000,4.425289,15.186052,0.402692
1649347016.134736,29297.000000,1649347016.133753,0.000000,0.000000,1.000000,0.000000,0.000000,0.000000,0.000000,4.431170,15.184125,0.415456
1649347016.237422,29298.000000,1649347016.236385,0.000000,0.000000,1.000000,0.000000,0.000000,0.000000,0.000000,4.443385,15.180076,0.446969
1649347016.335062,29299.000000,1649347016.334044,0.000000,0.000000,1.000000,0.000000,0.000000,0.000000,0.000000,4.458273,15.175126,0.493198
1649347016.439875,29300.000000,1649347016.437910,0.000000,0.000000,1.000000,0.000000,0.000000,0.000000,0.000000,4.459282,15.174793,0.482510
1649347016.538809,29301.000000,1649347016.537755,0.000000,0.000000,1.000000,0.000000,0.000000,0.000000,0.000000,4.465700,15.172286,0.492227
1649347016.642062,29302.000000,1649347016.641173,0.000000,0.000000,1.000000,0.000000,0.000000,0.000000,0.000000,4.459766,15.174273,0.457001
1649347016.736283,29303.000000,1649347016.735078,0.000000,0.000000,1.000000,0.000000,0.000000,0.000000,0.000000,4.446533,15.179414,0.388389
1649347016.834650,29304.000000,1649347016.834008,0.000000,0.000000,1.000000,0.000000,0.000000,0.000000,0.000000,4.443886,15.180978,0.363665
1649347016.936625,29305.000000,1649347016.934285,0.000000,0.000000,1.000000,0.000000,0.000000,0.000000,0.000000,4.447983,15.180248,0.364974
1649347017.034968,29306.000000,1649347017.033934,0.000000,0.000000,1.000000,0.000000,0.000000,0.000000,0.000000,4.440994,15.183894,0.325939
1649347017.133471,29307.000000,1649347017.132829,0.000000,0.000000,1.000000,0.000000,0.000000,0.000000,0.000000,4.427903,15.188398,0.255509
1649347017.233334,29308.000000,1649347017.232988,0.000000,0.000000,1.000000,0.000000,0.000000,0.000000,0.000000,4.426528,15.189338,0.228454
1649347017.335823,29309.000000,1649347017.335537,0.000000,0.000000,1.000000,0.000000,0.000000,0.000000,0.000000,4.418782,15.192361,0.168060
1649347017.432553,29310.000000,1649347017.432218,0.000000,0.000000,1.000000,0.000000,0.000000,0.000000,0.000000,4.405031,15.197346,0.087861
1649347017.536806,29311.000000,1649347017.536180,0.000000,0.000000,1.000000,0.000000,0.000000,0.000000,0.000000,4.401995,15.197631,0.055712
1649347017.635985,29312.000000,1649347017.635085,0.000000,0.000000,1.000000,0.000000,0.000000,0.000000,0.000000,4.405820,15.194566,0.048744
1649347017.734759,29313.000000,1649347017.733978,0.000000,0.000000,1.000000,0.000000,0.000000,0.000000,0.000000,4.398665,15.197069,0.007061
1649347017.836201,29314.000000,1649347017.834948,0.000000,0.000000,1.000000,0.000000,0.000000,0.000000,0.000000,4.384414,15.201562,-0.054177
1649347017.934516,29315.000000,1649347017.933887,0.000000,0.000000,1.000000,0.000000,0.000000,0.000000,0.000000,4.365672,15.209015,-0.135714
1649347018.035546,29316.000000,1649347018.034545,0.000000,0.000000,1.000000,0.000000,0.000000,0.000000,0.000000,4.343820,15.217066,-0.228555
1649347018.136701,29317.000000,1649347018.136347,0.000000,0.000000,1.000000,0.000000,0.000000,0.000000,0.000000,4.325627,15.223483,-0.325666
1649347018.233412,29318.000000,1649347018.233074,0.000000,0.000000,1.000000,0.000000,0.000000,0.000000,0.000000,4.320747,15.223977,-0.361424
1649347018.341717,29319.000000,1649347018.340266,0.000000,0.000000,1.000000,0.000000,0.000000,0.000000,0.000000,4.312096,15.226511,-0.415701
1649347018.436166,29320.000000,1649347018.435462,0.000000,0.000000,1.000000,0.000000,0.000000,0.000000,0.000000,4.314062,15.225519,-0.416735
1649347018.539198,29321.000000,1649347018.538116,0.000000,0.000000,1.000000,0.000000,0.000000,0.000000,0.000000,4.307506,15.227745,-0.448165
1649347018.635097,29322.000000,1649347018.634082,0.000000,0.000000,1.000000,0.000000,0.000000,0.000000,0.000000,4.311431,15.225382,-0.434562
1649347018.735297,29323.000000,1649347018.734881,0.000000,0.000000,1.000000,0.000000,0.000000,0.000000,0.000000,4.308881,15.227415,-0.453613
1649347018.833172,29324.000000,1649347018.832822,0.000000,0.000000,1.000000,0.000000,0.000000,0.000000,0.000000,4.317645,15.225972,-0.430624
1649347018.934458,29325.000000,1649347018.933858,0.000000,0.000000,1.000000,0.000000,0.000000,0.000000,0.000000,4.318528,15.226703,-0.444786
1649347019.033377,29326.000000,1649347019.032885,0.000000,0.000000,1.000000,0.000000,0.000000,0.000000,0.000000,4.329389,15.222951,-0.422842
1649347019.134049,29327.000000,1649347019.133506,0.000000,0.000000,1.000000,0.000000,0.000000,0.000000,0.000000,4.345276,15.217157,-0.371964
1649347019.236220,29328.000000,1649347019.234972,0.000000,0.000000,1.000000,0.000000,0.000000,0.000000,0.000000,4.349501,15.214906,-0.361180
1649347019.334122,29329.000000,1649347019.333402,0.000000,0.000000,1.000000,0.000000,0.000000,0.000000,0.000000,4.361216,15.210563,-0.321179
1649347019.437405,29330.000000,1649347019.436164,0.000000,0.000000,1.000000,0.000000,0.000000,0.000000,0.000000,4.364705,15.209710,-0.324199
1649347019.535776,29331.000000,1649347019.534983,0.000000,0.000000,1.000000,0.000000,0.000000,0.000000,0.000000,4.374579,15.205617,-0.297557
1649347019.635790,29332.000000,1649347019.635123,0.000000,0.000000,1.000000,0.000000,0.000000,0.000000,0.000000,4.388274,15.200656,-0.258643
1649347019.734489,29333.000000,1649347019.733183,0.000000,0.000000,1.000000,0.000000,0.000000,0.000000,0.000000,4.404451,15.193800,-0.203197
1649347019.836087,29334.000000,1649347019.835355,0.000000,0.000000,1.000000,0.000000,0.000000,0.000000,0.000000,4.424015,15.186262,-0.131995
1649347019.935413,29335.000000,1649347019.934617,0.000000,0.000000,1.000000,0.000000,0.000000,0.000000,0.000000,4.444546,15.178101,-0.051448
1649347020.034948,29336.000000,1649347020.034370,0.000000,0.000000,1.000000,0.000000,0.000000,0.000000,0.000000,4.448487,15.175917,-0.020947
1649347020.134051,29337.000000,1649347020.133321,0.000000,0.000000,1.000000,0.000000,0.000000,0.000000,0.000000,4.441105,15.178295,-0.028846
1649347020.232480,29338.000000,1649347020.232199,0.000000,0.000000,1.000000,0.000000,0.000000,0.000000,0.000000,4.443768,15.176252,-0.004226
1649347020.338743,29339.000000,1649347020.336268,0.000000,0.000000,1.000000,0.000000,0.000000,0.000000,0.000000,4.438484,15.178754,-0.021020
1649347020.438019,29340.000000,1649347020.437406,0.000000,0.000000,1.000000,0.000000,0.000000,0.000000,0.000000,4.425712,15.184451,-0.067846
1649347020.538546,29341.000000,1649347020.536659,0.000000,0.000000,1.000000,0.000000,0.000000,0.000000,0.000000,4.423356,15.185514,-0.074865
1649347020.638207,29342.000000,1649347020.636583,0.000000,0.000000,1.000000,0.000000,0.000000,0.000000,0.000000,4.429769,15.183282,-0.050120
1649347020.734220,29343.000000,1649347020.733304,0.000000,0.000000,1.000000,0.000000,0.000000,0.000000,0.000000,4.440098,15.179029,-0.000581
1649347020.834460,29344.000000,1649347020.833860,0.000000,0.000000,1.000000,0.000000,0.000000,0.000000,0.000000,4.457374,15.173966,0.063799
1649347020.934518,29345.000000,1649347020.933746,0.000000,0.000000,1.000000,0.000000,0.000000,0.000000,0.000000,4.476808,15.168152,0.139090
1649347021.033204,29346.000000,1649347021.032715,0.000000,0.000000,1.000000,0.000000,0.000000,0.000000,0.000000,4.479696,15.169273,0.165057
1649347021.135003,29347.000000,1649347021.134392,0.000000,0.000000,1.000000,0.000000,0.000000,0.000000,0.000000,4.488751,15.168222,0.210592
1649347021.235190,29348.000000,1649347021.233750,0.000000,0.000000,1.000000,0.000000,0.000000,0.000000,0.000000,4.501439,15.164026,0.270813
1649347021.335185,29349.000000,1649347021.334512,0.000000,0.000000,1.000000,0.000000,0.000000,0.000000,0.000000,4.516446,15.159045,0.344235
1649347021.436642,29350.000000,1649347021.435956,0.000000,0.000000,1.000000,0.000000,0.000000,0.000000,0.000000,4.532524,15.153335,0.422160
1649347021.533706,29351.000000,1649347021.532999,0.000000,0.000000,1.000000,0.000000,0.000000,0.000000,0.000000,4.548489,15.148037,0.501879
1649347021.633440,29352.000000,1649347021.633084,0.000000,0.000000,1.000000,0.000000,0.000000,0.000000,0.000000,4.547961,15.148593,0.522730
1649347021.736424,29353.000000,1649347021.735486,0.000000,0.000000,1.000000,0.000000,0.000000,0.000000,0.000000,4.538403,15.151403,0.500796
1649347021.834606,29354.000000,1649347021.834255,0.000000,0.000000,1.000000,0.000000,0.000000,0.000000,0.000000,4.538893,15.151969,0.512871
1649347021.933584,29355.000000,1649347021.933188,0.000000,0.000000,1.000000,0.000000,0.000000,0.000000,0.000000,4.544536,15.149316,0.544694
1649347022.035452,29356.000000,1649347022.034671,0.000000,0.000000,1.000000,0.000000,0.000000,0.000000,0.000000,4.551779,15.145803,0.589799
1649347022.135846,29357.000000,1649347022.135131,0.000000,0.000000,1.000000,0.000000,0.000000,0.000000,0.000000,4.562708,15.140393,0.644381
1649347022.235751,29358.000000,1649347022.234651,0.000000,0.000000,1.000000,0.000000,0.000000,0.000000,0.000000,4.560749,15.140833,0.639451
1649347022.335977,29359.000000,1649347022.335424,0.000000,0.000000,1.000000,0.000000,0.000000,0.000000,0.000000,4.549899,15.145708,0.600032
1649347022.445875,29360.000000,1649347022.444812,0.000000,0.000000,1.000000,0.000000,0.000000,0.000000,0.000000,4.547047,15.147121,0.591325
1649347022.532581,29361.000000,1649347022.532249,0.000000,0.000000,1.000000,0.000000,0.000000,0.000000,0.000000,4.548508,15.147434,0.612139
1649347022.636018,29362.000000,1649347022.635654,0.000000,0.000000,1.000000,0.000000,0.000000,0.000000,0.000000,4.550784,15.146702,0.653210
1649347022.734012,29363.000000,1649347022.733555,0.000000,0.000000,1.000000,0.000000,0.000000,0.000000,0.000000,4.557105,15.143889,0.704004
1649347022.836612,29364.000000,1649347022.834928,0.000000,0.000000,1.000000,0.000000,0.000000,0.000000,0.000000,4.566153,15.139115,0.756815
1649347022.935695,29365.000000,1649347022.934650,0.000000,0.000000,1.000000,0.000000,0.000000,0.000000,0.000000,4.558134,15.141221,0.754246
1649347023.033978,29366.000000,1649347023.033000,0.000000,0.000000,1.000000,0.000000,0.000000,0.000000,0.000000,4.539468,15.146549,0.710666
1649347023.136738,29367.000000,1649347023.135732,0.000000,0.000000,1.000000,0.000000,0.000000,0.000000,0.000000,4.517346,15.153813,0.634287
1649347023.235710,29368.000000,1649347023.235209,0.000000,0.000000,1.000000,0.000000,0.000000,0.000000,0.000000,4.490943,15.162883,0.533846
1649347023.336509,29369.000000,1649347023.335854,0.000000,0.000000,1.000000,0.000000,0.000000,0.000000,0.000000,4.476932,15.168177,0.482281
1649347023.435799,29370.000000,1649347023.434675,0.000000,0.000000,1.000000,0.000000,0.000000,0.000000,0.000000,4.473590,15.169887,0.465626
1649347023.538647,29371.000000,1649347023.536723,0.000000,0.000000,1.000000,0.000000,0.000000,0.000000,0.000000,4.458532,15.175835,0.411544
1649347023.634006,29372.000000,1649347023.633291,0.000000,0.000000,1.000000,0.000000,0.000000,0.000000,0.000000,4.441162,15.182503,0.339386
1649347023.734383,29373.000000,1649347023.733983,0.000000,0.000000,1.000000,0.000000,0.000000,0.000000,0.000000,4.434737,15.184381,0.312910
1649347023.834303,29374.000000,1649347023.833798,0.000000,0.000000,1.000000,0.000000,0.000000,0.000000,0.000000,4.423405,15.188271,0.259350
1649347023.933319,29375.000000,1649347023.933031,0.000000,0.000000,1.000000,0.000000,0.000000,0.000000,0.000000,4.421633,15.188602,0.246014
1649347024.037237,29376.000000,1649347024.036159,0.000000,0.000000,1.000000,0.000000,0.000000,0.000000,0.000000,4.428892,15.186662,0.260008
1649347024.136235,29377.000000,1649347024.135054,0.000000,0.000000,1.000000,0.000000,0.000000,0.000000,0.000000,4.440295,15.182585,0.292940
1649347024.236133,29378.000000,1649347024.234796,0.000000,0.000000,1.000000,0.000000,0.000000,0.000000,0.000000,4.441395,15.183046,0.277856
1649347024.334846,29379.000000,1649347024.334022,0.000000,0.000000,1.000000,0.000000,0.000000,0.000000,0.000000,4.446916,15.181257,0.288487
1649347024.440427,29380.000000,1649347024.438925,0.000000,0.000000,1.000000,0.000000,0.000000,0.000000,0.000000,4.440237,15.182800,0.255226
1649347024.536867,29381.000000,1649347024.535426,0.000000,0.000000,1.000000,0.000000,0.000000,0.000000,0.000000,4.441667,15.182040,0.254895
1649347024.634694,29382.000000,1649347024.633613,0.000000,0.000000,1.000000,0.000000,0.000000,0.000000,0.000000,4.433305,15.184558,0.216806
1649347024.733772,29383.000000,1649347024.733309,0.000000,0.000000,1.000000,0.000000,0.000000,0.000000,0.000000,4.434243,15.184718,0.215928
1649347024.834982,29384.000000,1649347024.834105,0.000000,0.000000,1.000000,0.000000,0.000000,0.000000,0.000000,4.428698,15.187011,0.175753
1649347024.932918,29385.000000,1649347024.932562,0.000000,0.000000,1.000000,0.000000,0.000000,0.000000,0.000000,4.429030,15.185865,0.171314
1649347025.034430,29386.000000,1649347025.033545,0.000000,0.000000,1.000000,0.000000,0.000000,0.000000,0.000000,4.417462,15.189106,0.131813
1649347025.135942,29387.000000,1649347025.134743,0.000000,0.000000,1.000000,0.000000,0.000000,0.000000,0.000000,4.401217,15.194305,0.065976
1649347025.232769,29388.000000,1649347025.232431,0.000000,0.000000,1.000000,0.000000,0.000000,0.000000,0.000000,4.383863,15.200253,-0.011324
1649347025.333230,29389.000000,1649347025.332652,0.000000,0.000000,1.000000,0.000000,0.000000,0.000000,0.000000,4.360051,15.207983,-0.099513
1649347025.435608,29390.000000,1649347025.435079,0.000000,0.000000,1.000000,0.000000,0.000000,0.000000,0.000000,4.336739,15.216287,-0.194797
1649347025.534525,29391.000000,1649347025.533047,0.000000,0.000000,1.000000,0.000000,0.000000,0.000000,0.000000,4.317225,15.224025,-0.287885
1649347025.635176,29392.000000,1649347025.634079,0.000000,0.000000,1.000000,0.000000,0.000000,0.000000,0.000000,4.294803,15.231208,-0.387611
1649347025.734098,29393.000000,1649347025.733397,0.000000,0.000000,1.000000,0.000000,0.000000,0.000000,0.000000,4.289307,15.233490,-0.420995
1649347025.833500,29394.000000,1649347025.832954,0.000000,0.000000,1.000000,0.000000,0.000000,0.000000,0.000000,4.294353,15.231140,-0.409246
1649347025.937146,29395.000000,1649347025.935969,0.000000,0.000000,1.000000,0.000000,0.000000,0.000000,0.000000,4.290790,15.232058,-0.432474
1649347026.033651,29396.000000,1649347026.033078,0.000000,0.000000,1.000000,0.000000,0.000000,0.000000,0.000000,4.281258,15.234981,-0.473141
1649347026.135019,29397.000000,1649347026.133969,0.000000,0.000000,1.000000,0.000000,0.000000,0.000000,0.000000,4.269360,15.239798,-0.529711
1649347026.239623,29398.000000,1649347026.238366,0.000000,0.000000,1.000000,0.000000,0.000000,0.000000,0.000000,4.268325,15.240946,-0.537778
1649347026.340489,29399.000000,1649347026.337856,0.000000,0.000000,1.000000,0.000000,0.000000,0.000000,0.000000,4.276451,15.237538,-0.508200
1649347026.438415,29400.000000,1649347026.437473,0.000000,0.000000,1.000000,0.000000,0.000000,0.000000,0.000000,4.294282,15.230931,-0.450652
1649347026.539717,29401.000000,1649347026.538700,0.000000,0.000000,1.000000,0.000000,0.000000,0.000000,0.000000,4.303768,15.228960,-0.439785
1649347026.633995,29402.000000,1649347026.633642,0.000000,0.000000,1.000000,0.000000,0.000000,0.000000,0.000000,4.307499,15.228112,-0.439093
1649347026.736441,29403.000000,1649347026.735617,0.000000,0.000000,1.000000,0.000000,0.000000,0.000000,0.000000,4.304674,15.230513,-0.469165
1649347026.835079,29404.000000,1649347026.834251,0.000000,0.000000,1.000000,0.000000,0.000000,0.000000,0.000000,4.313094,15.228351,-0.458580
1649347026.933453,29405.000000,1649347026.933052,0.000000,0.000000,1.000000,0.000000,0.000000,0.000000,0.000000,4.327749,15.222975,-0.416283
1649347027.037665,29406.000000,1649347027.036820,0.000000,0.000000,1.000000,0.000000,0.000000,0.000000,0.000000,4.348243,15.215672,-0.346072
1649347027.132728,29407.000000,1649347027.132268,0.000000,0.000000,1.000000,0.000000,0.000000,0.000000,0.000000,4.372008,15.207661,-0.260507
1649347027.239127,29408.000000,1649347027.237835,0.000000,0.000000,1.000000,0.000000,0.000000,0.000000,0.000000,4.381342,15.204459,-0.229724
1649347027.335499,29409.000000,1649347027.334620,0.000000,0.000000,1.000000,0.000000,0.000000,0.000000,0.000000,4.379187,15.205814,-0.237064
1649347027.434134,29410.000000,1649347027.433223,0.000000,0.000000,1.000000,0.000000,0.000000,0.000000,0.000000,4.370541,15.210381,-0.272922
1649347027.535938,29411.000000,1649347027.534807,0.000000,0.000000,1.000000,0.000000,0.000000,0.000000,0.000000,4.357970,15.215791,-0.329646
1649347027.636658,29412.000000,1649347027.635978,0.000000,0.000000,1.000000,0.000000,0.000000,0.000000,0.000000,4.338457,15.223069,-0.399051
1649347027.735801,29413.000000,1649347027.733982,0.000000,0.000000,1.000000,0.000000,0.000000,0.000000,0.000000,4.317894,15.231002,-0.478104
1649347027.837251,29414.000000,1649347027.836534,0.000000,0.000000,1.000000,0.000000,0.000000,0.000000,0.000000,4.313844,15.232990,-0.496947
1649347027.936975,29415.000000,1649347027.934512,0.000000,0.000000,1.000000,0.000000,0.000000,0.000000,0.000000,4.305788,15.235896,-0.537838
1649347028.038622,29416.000000,1649347028.036355,0.000000,0.000000,1.000000,0.000000,0.000000,0.000000,0.000000,4.292870,15.241844,-0.592584
1649347028.134216,29417.000000,1649347028.133766,0.000000,0.000000,1.000000,0.000000,0.000000,0.000000,0.000000,4.281930,15.246294,-0.652497
1649347028.237686,29418.000000,1649347028.236920,0.000000,0.000000,1.000000,0.000000,0.000000,0.000000,0.000000,4.268521,15.251498,-0.715682
1649347028.335158,29419.000000,1649347028.333908,0.000000,0.000000,1.000000,0.000000,0.000000,0.000000,0.000000,4.250629,15.258495,-0.775481
1649347028.434281,29420.000000,1649347028.433671,0.000000,0.000000,1.000000,0.000000,0.000000,0.000000,0.000000,4.249257,15.259538,-0.776319
1649347028.540716,29421.000000,1649347028.539031,0.000000,0.000000,1.000000,0.000000,0.000000,0.000000,0.000000,4.242776,15.262588,-0.797223
1649347028.633776,29422.000000,1649347028.633305,0.000000,0.000000,1.000000,0.000000,0.000000,0.000000,0.000000,4.247825,15.259900,-0.765609
1649347028.735346,29423.000000,1649347028.733907,0.000000,0.000000,1.000000,0.000000,0.000000,0.000000,0.000000,4.263744,15.251802,-0.698202
1649347028.835407,29424.000000,1649347028.834856,0.000000,0.000000,1.000000,0.000000,0.000000,0.000000,0.000000,4.271341,15.246254,-0.671590
1649347028.933090,29425.000000,1649347028.932730,0.000000,0.000000,1.000000,0.000000,0.000000,0.000000,0.000000,4.273216,15.243137,-0.676138
1649347029.032760,29426.000000,1649347029.032336,0.000000,0.000000,1.000000,0.000000,0.000000,0.000000,0.000000,4.270756,15.242332,-0.704152
1649347029.133788,29427.000000,1649347029.133363,0.000000,0.000000,1.000000,0.000000,0.000000,0.000000,0.000000,4.262018,15.243718,-0.747405
1649347029.234404,29428.000000,1649347029.233716,0.000000,0.000000,1.000000,0.000000,0.000000,0.000000,0.000000,4.252814,15.246083,-0.800394
1649347029.333700,29429.000000,1649347029.333314,0.000000,0.000000,1.000000,0.000000,0.000000,0.000000,0.000000,4.259547,15.242826,-0.797340
1649347029.433729,29430.000000,1649347029.433449,0.000000,0.000000,1.000000,0.000000,0.000000,0.000000,0.000000,4.259510,15.241898,-0.816343
1649347029.534463,29431.000000,1649347029.533385,0.000000,0.000000,1.000000,0.000000,0.000000,0.000000,0.000000,4.266149,15.237725,-0.786346
1649347029.632812,29432.000000,1649347029.632449,0.000000,0.000000,1.000000,0.000000,0.000000,0.000000,0.000000,4.284522,15.230498,-0.720693
1649347029.734373,29433.000000,1649347029.733915,0.000000,0.000000,1.000000,0.000000,0.000000,0.000000,0.000000,4.291029,15.226951,-0.697571
1649347029.835627,29434.000000,1649347029.834990,0.000000,0.000000,1.000000,0.000000,0.000000,0.000000,0.000000,4.291746,15.226891,-0.702419
1649347029.934210,29435.000000,1649347029.933485,0.000000,0.000000,1.000000,0.000000,0.000000,0.000000,0.000000,4.305522,15.221406,-0.660730
1649347030.035049,29436.000000,1649347030.033732,0.000000,0.000000,1.000000,0.000000,0.000000,0.000000,0.000000,4.310883,15.219529,-0.651080
1649347030.132967,29437.000000,1649347030.132720,0.000000,0.000000,1.000000,0.000000,0.000000,0.000000,0.000000,4.323538,15.214526,-0.598819
1649347030.235962,29438.000000,1649347030.235214,0.000000,0.000000,1.000000,0.000000,0.000000,0.000000,0.000000,4.344143,15.206580,-0.521085
1649347030.333714,29439.000000,1649347030.333310,0.000000,0.000000,1.000000,0.000000,0.000000,0.000000,0.000000,4.352579,15.203506,-0.489206
1649347030.435380,29440.000000,1649347030.434811,0.000000,0.000000,1.000000,0.000000,0.000000,0.000000,0.000000,4.369116,15.197411,-0.423969
1649347030.535690,29441.000000,1649347030.534203,0.000000,0.000000,1.000000,0.000000,0.000000,0.000000,0.000000,4.391090,15.190654,-0.337311
1649347030.634831,29442.000000,1649347030.634325,0.000000,0.000000,1.000000,0.000000,0.000000,0.000000,0.000000,4.417058,15.181108,-0.236688
1649347030.734001,29443.000000,1649347030.733340,0.000000,0.000000,1.000000,0.000000,0.000000,0.000000,0.000000,4.442372,15.171127,-0.122822
1649347030.833812,29444.000000,1649347030.833252,0.000000,0.000000,1.000000,0.000000,0.000000,0.000000,0.000000,4.450652,15.168393,-0.070615
1649347030.935151,29445.000000,1649347030.934377,0.000000,0.000000,1.000000,0.000000,0.000000,0.000000,0.000000,4.447185,15.169238,-0.058289
1649347031.035420,29446.000000,1649347031.034818,0.000000,0.000000,1.000000,0.000000,0.000000,0.000000,0.000000,4.437005,15.174545,-0.076971
1649347031.134181,29447.000000,1649347031.133344,0.000000,0.000000,1.000000,0.000000,0.000000,0.000000,0.000000,4.436886,15.175325,-0.055996
1649347031.234316,29448.000000,1649347031.233746,0.000000,0.000000,1.000000,0.000000,0.000000,0.000000,0.000000,4.444118,15.173994,-0.012296
1649347031.333352,29449.000000,1649347031.332780,0.000000,0.000000,1.000000,0.000000,0.000000,0.000000,0.000000,4.445209,15.175026,0.003973
1649347031.434448,29450.000000,1649347031.434033,0.000000,0.000000,1.000000,0.000000,0.000000,0.000000,0.000000,4.436146,15.180465,-0.013342
1649347031.534849,29451.000000,1649347031.533805,0.000000,0.000000,1.000000,0.000000,0.000000,0.000000,0.000000,4.419708,15.187866,-0.050733
1649347031.632752,29452.000000,1649347031.632230,0.000000,0.000000,1.000000,0.000000,0.000000,0.000000,0.000000,4.417079,15.190553,-0.046011
1649347031.740157,29453.000000,1649347031.734771,0.000000,0.000000,1.000000,0.000000,0.000000,0.000000,0.000000,4.405718,15.195312,-0.072633
1649347031.834193,29454.000000,1649347031.833110,0.000000,0.000000,1.000000,0.000000,0.000000,0.000000,0.000000,4.406861,15.195473,-0.055883
1649347031.936706,29455.000000,1649347031.935524,0.000000,0.000000,1.000000,0.000000,0.000000,0.000000,0.000000,4.415469,15.192373,-0.011228
1649347032.033270,29456.000000,1649347032.032736,0.000000,0.000000,1.000000,0.000000,0.000000,0.000000,0.000000,4.430024,15.187289,0.055311
1649347032.135399,29457.000000,1649347032.134056,0.000000,0.000000,1.000000,0.000000,0.000000,0.000000,0.000000,4.431627,15.186887,0.073407
1649347032.236155,29458.000000,1649347032.234796,0.000000,0.000000,1.000000,0.000000,0.000000,0.000000,0.000000,4.441704,15.184368,0.115975
1649347032.336039,29459.000000,1649347032.334717,0.000000,0.000000,1.000000,0.000000,0.000000,0.000000,0.000000,4.454321,15.178761,0.181173
1649347032.433074,29460.000000,1649347032.432629,0.000000,0.000000,1.000000,0.000000,0.000000,0.000000,0.000000,4.470401,15.172432,0.252686
1649347032.537189,29461.000000,1649347032.536040,0.000000,0.000000,1.000000,0.000000,0.000000,0.000000,0.000000,4.476630,15.169797,0.280168
1649347032.637164,29462.000000,1649347032.636355,0.000000,0.000000,1.000000,0.000000,0.000000,0.000000,0.000000,4.473541,15.171749,0.263768
1649347032.735702,29463.000000,1649347032.734820,0.000000,0.000000,1.000000,0.000000,0.000000,0.000000,0.000000,4.478022,15.170395,0.279513
1649347032.834545,29464.000000,1649347032.833158,0.000000,0.000000,1.000000,0.000000,0.000000,0.000000,0.000000,4.468942,15.173547,0.260789
1649347032.935321,29465.000000,1649347032.934180,0.000000,0.000000,1.000000,0.000000,0.000000,0.000000,0.000000,4.468890,15.174405,0.276793
1649347033.033168,29466.000000,1649347033.032761,0.000000,0.000000,1.000000,0.000000,0.000000,0.000000,0.000000,4.457758,15.179629,0.251932
1649347033.134367,29467.000000,1649347033.133936,0.000000,0.000000,1.000000,0.000000,0.000000,0.000000,0.000000,4.441647,15.186780,0.195991
1649347033.234232,29468.000000,1649347033.233689,0.000000,0.000000,1.000000,0.000000,0.000000,0.000000,0.000000,4.419795,15.195731,0.123247
1649347033.332870,29469.000000,1649347033.332595,0.000000,0.000000,1.000000,0.000000,0.000000,0.000000,0.000000,4.411127,15.199811,0.101457
1649347033.433706,29470.000000,1649347033.432961,0.000000,0.000000,1.000000,0.000000,0.000000,0.000000,0.000000,4.411679,15.199275,0.116524
1649347033.533300,29471.000000,1649347033.532959,0.000000,0.000000,1.000000,0.000000,0.000000,0.000000,0.000000,4.403500,15.202011,0.091142
1649347033.634630,29472.000000,1649347033.633909,0.000000,0.000000,1.000000,0.000000,0.000000,0.000000,0.000000,4.407808,15.201290,0.101193
1649347033.735917,29473.000000,1649347033.734390,0.000000,0.000000,1.000000,0.000000,0.000000,0.000000,0.000000,4.404278,15.202757,0.071854
1649347033.833096,29474.000000,1649347033.832638,0.000000,0.000000,1.000000,0.000000,0.000000,0.000000,0.000000,4.391168,15.207381,0.019292
1649347033.935778,29475.000000,1649347033.935286,0.000000,0.000000,1.000000,0.000000,0.000000,0.000000,0.000000,4.391935,15.207344,0.011476
1649347034.033557,29476.000000,1649347034.033165,0.000000,0.000000,1.000000,0.000000,0.000000,0.000000,0.000000,4.385099,15.210537,-0.029992
1649347034.134404,29477.000000,1649347034.133347,0.000000,0.000000,1.000000,0.000000,0.000000,0.000000,0.000000,4.386357,15.209142,-0.027070
1649347034.233218,29478.000000,1649347034.232781,0.000000,0.000000,1.000000,0.000000,0.000000,0.000000,0.000000,4.378904,15.211050,-0.057355
1649347034.343854,29479.000000,1649347034.341230,0.000000,0.000000,1.000000,0.000000,0.000000,0.000000,0.000000,4.381770,15.208445,-0.050910
1649347034.435143,29480.000000,1649347034.434267,0.000000,0.000000,1.000000,0.000000,0.000000,0.000000,0.000000,4.372569,15.210307,-0.070517
1649347034.536988,29481.000000,1649347034.534960,0.000000,0.000000,1.000000,0.000000,0.000000,0.000000,0.000000,4.357436,15.214207,-0.111061
1649347034.633208,29482.000000,1649347034.632559,0.000000,0.000000,1.000000,0.000000,0.000000,0.000000,0.000000,4.341095,15.218935,-0.165987
1649347034.734972,29483.000000,1649347034.734422,0.000000,0.000000,1.000000,0.000000,0.000000,0.000000,0.000000,4.340013,15.217890,-0.172528
1649347034.833380,29484.000000,1649347034.832898,0.000000,0.000000,1.000000,0.000000,0.000000,0.000000,0.000000,4.327180,15.221209,-0.190698
1649347034.932643,29485.000000,1649347034.932273,0.000000,0.000000,1.000000,0.000000,0.000000,0.000000,0.000000,4.327255,15.219922,-0.174038
1649347035.032610,29486.000000,1649347035.032386,0.000000,0.000000,1.000000,0.000000,0.000000,0.000000,0.000000,4.317714,15.221922,-0.194957
1649347035.133067,29487.000000,1649347035.132095,0.000000,0.000000,1.000000,0.000000,0.000000,0.000000,0.000000,4.303461,15.227025,-0.243042
1649347035.233422,29488.000000,1649347035.232973,0.000000,0.000000,1.000000,0.000000,0.000000,0.000000,0.000000,4.302232,15.227418,-0.241320
1649347035.334141,29489.000000,1649347035.333703,0.000000,0.000000,1.000000,0.000000,0.000000,0.000000,0.000000,4.311125,15.224450,-0.203102
1649347035.433135,29490.000000,1649347035.432801,0.000000,0.000000,1.000000,0.000000,0.000000,0.000000,0.000000,4.316462,15.223770,-0.192034
1649347035.533702,29491.000000,1649347035.532880,0.000000,0.000000,1.000000,0.000000,0.000000,0.000000,0.000000,4.328222,15.219806,-0.147370
1649347035.635806,29492.000000,1649347035.634851,0.000000,0.000000,1.000000,0.000000,0.000000,0.000000,0.000000,4.328562,15.219295,-0.145547
1649347035.732962,29493.000000,1649347035.732517,0.000000,0.000000,1.000000,0.000000,0.000000,0.000000,0.000000,4.338814,15.215511,-0.106621
1649347035.834203,29494.000000,1649347035.833325,0.000000,0.000000,1.000000,0.000000,0.000000,0.000000,0.000000,4.356217,15.209734,-0.046671
1649347035.934701,29495.000000,1649347035.933175,0.000000,0.000000,1.000000,0.000000,0.000000,0.000000,0.000000,4.363967,15.207546,-0.038421
1649347036.034680,29496.000000,1649347036.034097,0.000000,0.000000,1.000000,0.000000,0.000000,0.000000,0.000000,4.362565,15.207666,-0.064477
1649347036.133541,29497.000000,1649347036.132287,0.000000,0.000000,1.000000,0.000000,0.000000,0.000000,0.000000,4.354694,15.211060,-0.113728
1649347036.232913,29498.000000,1649347036.232616,0.000000,0.000000,1.000000,0.000000,0.000000,0.000000,0.000000,4.358178,15.209904,-0.119831
1649347036.338151,29499.000000,1649347036.337490,0.000000,0.000000,1.000000,0.000000,0.000000,0.000000,0.000000,4.352760,15.212082,-0.151453
1649347036.439527,29500.000000,1649347036.438609,0.000000,0.000000,1.000000,0.000000,0.000000,0.000000,0.000000,4.356386,15.210865,-0.147028
1649347036.535949,29501.000000,1649347036.534865,0.000000,0.000000,1.000000,0.000000,0.000000,0.000000,0.000000,4.369642,15.205351,-0.112055
1649347036.633723,29502.000000,1649347036.633036,0.000000,0.000000,1.000000,0.000000,0.000000,0.000000,0.000000,4.372333,15.204514,-0.118793
1649347036.742078,29503.000000,1649347036.740835,0.000000,0.000000,1.000000,0.000000,0.000000,0.000000,0.000000,4.383565,15.200469,-0.088133
1649347036.837869,29504.000000,1649347036.836545,0.000000,0.000000,1.000000,0.000000,0.000000,0.000000,0.000000,4.382122,15.202125,-0.094215
1649347036.935248,29505.000000,1649347036.934202,0.000000,0.000000,1.000000,0.000000,0.000000,0.000000,0.000000,4.374155,15.205893,-0.131515
1649347037.034846,29506.000000,1649347037.033354,0.000000,0.000000,1.000000,0.000000,0.000000,0.000000,0.000000,4.377494,15.205104,-0.126937
1649347037.134911,29507.000000,1649347037.134341,0.000000,0.000000,1.000000,0.000000,0.000000,0.000000,0.000000,4.376249,15.205459,-0.146695
1649347037.233768,29508.000000,1649347037.233071,0.000000,0.000000,1.000000,0.000000,0.000000,0.000000,0.000000,4.382670,15.202533,-0.130099
1649347037.333646,29509.000000,1649347037.332827,0.000000,0.000000,1.000000,0.000000,0.000000,0.000000,0.000000,4.396322,15.197604,-0.086709
1649347037.434615,29510.000000,1649347037.433294,0.000000,0.000000,1.000000,0.000000,0.000000,0.000000,0.000000,4.397143,15.197336,-0.087843
1649347037.535332,29511.000000,1649347037.533226,0.000000,0.000000,1.000000,0.000000,0.000000,0.000000,0.000000,4.405462,15.194934,-0.058315
1649347037.637211,29512.000000,1649347037.636326,0.000000,0.000000,1.000000,0.000000,0.000000,0.000000,0.000000,4.418669,15.189429,-0.005862
1649347037.735550,29513.000000,1649347037.733879,0.000000,0.000000,1.000000,0.000000,0.000000,0.000000,0.000000,4.433192,15.183186,0.061248
1649347037.833428,29514.000000,1649347037.833164,0.000000,0.000000,1.000000,0.000000,0.000000,0.000000,0.000000,4.450012,15.176261,0.143126
1649347037.932984,29515.000000,1649347037.932511,0.000000,0.000000,1.000000,0.000000,0.000000,0.000000,0.000000,4.467870,15.168709,0.234208
1649347038.035292,29516.000000,1649347038.034581,0.000000,0.000000,1.000000,0.000000,0.000000,0.000000,0.000000,4.472493,15.167127,0.264631
1649347038.134502,29517.000000,1649347038.134037,0.000000,0.000000,1.000000,0.000000,0.000000,0.000000,0.000000,4.466782,15.169006,0.254553
1649347038.233015,29518.000000,1649347038.232764,0.000000,0.000000,1.000000,0.000000,0.000000,0.000000,0.000000,4.466600,15.167604,0.272583
1649347038.332552,29519.000000,1649347038.332094,0.000000,0.000000,1.000000,0.000000,0.000000,0.000000,0.000000,4.471659,15.163099,0.310322
1649347038.436484,29520.000000,1649347038.435770,0.000000,0.000000,1.000000,0.000000,0.000000,0.000000,0.000000,4.481671,15.157850,0.369352
1649347038.533814,29521.000000,1649347038.533267,0.000000,0.000000,1.000000,0.000000,0.000000,0.000000,0.000000,4.494167,15.152998,0.435837
1649347038.635583,29522.000000,1649347038.634035,0.000000,0.000000,1.000000,0.000000,0.000000,0.000000,0.000000,4.493720,15.152891,0.443262
1649347038.736770,29523.000000,1649347038.734784,0.000000,0.000000,1.000000,0.000000,0.000000,0.000000,0.000000,4.499589,15.149633,0.469024
1649347038.833934,29524.000000,1649347038.833385,0.000000,0.000000,1.000000,0.000000,0.000000,0.000000,0.000000,4.491799,15.144488,0.513985
1649347038.938006,29525.000000,1649347038.937497,0.000000,0.000000,1.000000,0.000000,0.000000,0.000000,0.000000,4.492941,15.138660,0.568455
1649347039.035598,29526.000000,1649347039.034964,0.000000,0.000000,1.000000,0.000000,0.000000,0.000000,0.000000,4.498176,15.132197,0.631989
1649347039.132900,29527.000000,1649347039.132550,0.000000,0.000000,1.000000,0.000000,0.000000,0.000000,0.000000,4.508366,15.126236,0.696893
1649347039.233293,29528.000000,1649347039.232897,0.000000,0.000000,1.000000,0.000000,0.000000,0.000000,0.000000,4.522131,15.119670,0.763040
1649347039.335789,29529.000000,1649347039.335147,0.000000,0.000000,1.000000,0.000000,0.000000,0.000000,0.000000,4.519621,15.119084,0.777081
1649347039.434108,29530.000000,1649347039.433613,0.000000,0.000000,1.000000,0.000000,0.000000,0.000000,0.000000,4.505014,15.124146,0.744364
1649347039.537161,29531.000000,1649347039.535800,0.000000,0.000000,1.000000,0.000000,0.000000,0.000000,0.000000,4.499748,15.127980,0.743485
1649347039.633553,29532.000000,1649347039.633044,0.000000,0.000000,1.000000,0.000000,0.000000,0.000000,0.000000,4.490255,15.134995,0.706266
1649347039.734380,29533.000000,1649347039.733803,0.000000,0.000000,1.000000,0.000000,0.000000,0.000000,0.000000,4.470263,15.146078,0.644756
1649347039.836000,29534.000000,1649347039.835237,0.000000,0.000000,1.000000,0.000000,0.000000,0.000000,0.000000,4.462221,15.152245,0.620555
1649347039.933937,29535.000000,1649347039.933428,0.000000,0.000000,1.000000,0.000000,0.000000,0.000000,0.000000,4.462233,15.154832,0.626583
1649347040.036282,29536.000000,1649347040.035546,0.000000,0.000000,1.000000,0.000000,0.000000,0.000000,0.000000,4.470953,15.155114,0.654379
1649347040.133255,29537.000000,1649347040.132616,0.000000,0.000000,1.000000,0.000000,0.000000,0.000000,0.000000,4.467163,15.158668,0.633686
1649347040.235528,29538.000000,1649347040.232678,0.000000,0.000000,1.000000,0.000000,0.000000,0.000000,0.000000,4.469004,15.159850,0.639907
1649347040.333918,29539.000000,1649347040.333095,0.000000,0.000000,1.000000,0.000000,0.000000,0.000000,0.000000,4.460900,15.164239,0.598581
1649347040.448363,29540.000000,1649347040.445063,0.000000,0.000000,1.000000,0.000000,0.000000,0.000000,0.000000,4.461956,15.165103,0.586716
1649347040.533590,29541.000000,1649347040.532788,0.000000,0.000000,1.000000,0.000000,0.000000,0.000000,0.000000,4.468400,15.164813,0.597519
1649347040.638881,29542.000000,1649347040.638257,0.000000,0.000000,1.000000,0.000000,0.000000,0.000000,0.000000,4.479918,15.162344,0.624428
1649347040.734436,29543.000000,1649347040.733872,0.000000,0.000000,1.000000,0.000000,0.000000,0.000000,0.000000,4.478753,15.164365,0.598217
1649347040.835327,29544.000000,1649347040.834469,0.000000,0.000000,1.000000,0.000000,0.000000,0.000000,0.000000,4.484139,15.162992,0.594477
1649347040.933516,29545.000000,1649347040.933163,0.000000,0.000000,1.000000,0.000000,0.000000,0.000000,0.000000,4.494615,15.160598,0.614742
1649347041.035101,29546.000000,1649347041.034739,0.000000,0.000000,1.000000,0.000000,0.000000,0.000000,0.000000,4.490248,15.163786,0.587056
1649347041.133308,29547.000000,1649347041.132748,0.000000,0.000000,1.000000,0.000000,0.000000,0.000000,0.000000,4.492584,15.164612,0.585997
1649347041.234647,29548.000000,1649347041.233859,0.000000,0.000000,1.000000,0.000000,0.000000,0.000000,0.000000,4.479446,15.169742,0.547600
1649347041.333054,29549.000000,1649347041.332724,0.000000,0.000000,1.000000,0.000000,0.000000,0.000000,0.000000,4.475712,15.171296,0.538771
1649347041.433410,29550.000000,1649347041.433089,0.000000,0.000000,1.000000,0.000000,0.000000,0.000000,0.000000,4.478703,15.169463,0.554310
1649347041.534825,29551.000000,1649347041.533739,0.000000,0.000000,1.000000,0.000000,0.000000,0.000000,0.000000,4.485863,15.165527,0.579505
1649347041.633111,29552.000000,1649347041.632782,0.000000,0.000000,1.000000,0.000000,0.000000,0.000000,0.000000,4.496945,15.160707,0.613934
1649347041.734229,29553.000000,1649347041.733108,0.000000,0.000000,1.000000,0.000000,0.000000,0.000000,0.000000,4.492076,15.162698,0.593466
1649347041.835324,29554.000000,1649347041.834497,0.000000,0.000000,1.000000,0.000000,0.000000,0.000000,0.000000,4.484139,15.166762,0.545360
1649347041.935730,29555.000000,1649347041.934313,0.000000,0.000000,1.000000,0.000000,0.000000,0.000000,0.000000,4.486414,15.167320,0.529692
1649347042.036090,29556.000000,1649347042.035195,0.000000,0.000000,1.000000,0.000000,0.000000,0.000000,0.000000,4.481984,15.170016,0.486317
1649347042.135575,29557.000000,1649347042.133429,0.000000,0.000000,1.000000,0.000000,0.000000,0.000000,0.000000,4.486496,15.168181,0.473689
1649347042.237768,29558.000000,1649347042.236625,0.000000,0.000000,1.000000,0.000000,0.000000,0.000000,0.000000,4.497270,15.165342,0.484139
1649347042.335382,29559.000000,1649347042.332450,0.000000,0.000000,1.000000,0.000000,0.000000,0.000000,0.000000,4.493214,15.167015,0.448170
1649347042.439081,29560.000000,1649347042.438336,0.000000,0.000000,1.000000,0.000000,0.000000,0.000000,0.000000,4.478424,15.172948,0.377395
1649347042.540074,29561.000000,1649347042.539502,0.000000,0.000000,1.000000,0.000000,0.000000,0.000000,0.000000,4.475343,15.175259,0.351560
1649347042.634719,29562.000000,1649347042.634250,0.000000,0.000000,1.000000,0.000000,0.000000,0.000000,0.000000,4.461535,15.181773,0.294697
1649347042.734177,29563.000000,1649347042.733226,0.000000,0.000000,1.000000,0.000000,0.000000,0.000000,0.000000,4.458344,15.183518,0.277501
1649347042.833320,29564.000000,1649347042.832704,0.000000,0.000000,1.000000,0.000000,0.000000,0.000000,0.000000,4.448843,15.187295,0.221777
1649347042.937601,29565.000000,1649347042.936531,0.000000,0.000000,1.000000,0.000000,0.000000,0.000000,0.000000,4.432312,15.195164,0.142063
1649347043.032943,29566.000000,1649347043.032643,0.000000,0.000000,1.000000,0.000000,0.000000,0.000000,0.000000,4.413543,15.203611,0.051543
1649347043.133136,29567.000000,1649347043.132678,0.000000,0.000000,1.000000,0.000000,0.000000,0.000000,0.000000,4.404703,15.207130,0.012075
1649347043.236595,29568.000000,1649347043.235475,0.000000,0.000000,1.000000,0.000000,0.000000,0.000000,0.000000,4.405269,15.207075,0.015190
1649347043.334842,29569.000000,1649347043.334442,0.000000,0.000000,1.000000,0.000000,0.000000,0.000000,0.000000,4.396178,15.210189,-0.022313
1649347043.435395,29570.000000,1649347043.434796,0.000000,0.000000,1.000000,0.000000,0.000000,0.000000,0.000000,4.380155,15.215207,-0.084244
1649347043.538497,29571.000000,1649347043.537879,0.000000,0.000000,1.000000,0.000000,0.000000,0.000000,0.000000,4.357616,15.223105,-0.159059
1649347043.635725,29572.000000,1649347043.634344,0.000000,0.000000,1.000000,0.000000,0.000000,0.000000,0.000000,4.348601,15.224984,-0.180012
1649347043.734713,29573.000000,1649347043.734044,0.000000,0.000000,1.000000,0.000000,0.000000,0.000000,0.000000,4.333846,15.229899,-0.226695
1649347043.838022,29574.000000,1649347043.837283,0.000000,0.000000,1.000000,0.000000,0.000000,0.000000,0.000000,4.331139,15.228952,-0.233511
1649347043.935652,29575.000000,1649347043.934270,0.000000,0.000000,1.000000,0.000000,0.000000,0.000000,0.000000,4.337631,15.224655,-0.211769
1649347044.033021,29576.000000,1649347044.032624,0.000000,0.000000,1.000000,0.000000,0.000000,0.000000,0.000000,4.333157,15.224845,-0.221566
1649347044.135729,29577.000000,1649347044.134325,0.000000,0.000000,1.000000,0.000000,0.000000,0.000000,0.000000,4.337936,15.221649,-0.196323
1649347044.234424,29578.000000,1649347044.233715,0.000000,0.000000,1.000000,0.000000,0.000000,0.000000,0.000000,4.349253,15.216358,-0.147206
1649347044.334189,29579.000000,1649347044.333241,0.000000,0.000000,1.000000,0.000000,0.000000,0.000000,0.000000,4.367791,15.209109,-0.080934
1649347044.432984,29580.000000,1649347044.432522,0.000000,0.000000,1.000000,0.000000,0.000000,0.000000,0.000000,4.387635,15.201126,-0.003982
1649347044.534602,29581.000000,1649347044.534153,0.000000,0.000000,1.000000,0.000000,0.000000,0.000000,0.000000,4.410825,15.192474,0.079039
1649347044.633081,29582.000000,1649347044.632767,0.000000,0.000000,1.000000,0.000000,0.000000,0.000000,0.000000,4.419655,15.188672,0.100795
1649347044.741912,29583.000000,1649347044.741032,0.000000,0.000000,1.000000,0.000000,0.000000,0.000000,0.000000,4.432326,15.184014,0.146777
1649347044.838601,29584.000000,1649347044.836051,0.000000,0.000000,1.000000,0.000000,0.000000,0.000000,0.000000,4.448592,15.178558,0.207055
1649347044.935770,29585.000000,1649347044.933788,0.000000,0.000000,1.000000,0.000000,0.000000,0.000000,0.000000,4.450763,15.178908,0.212401
1649347045.033858,29586.000000,1649347045.033122,0.000000,0.000000,1.000000,0.000000,0.000000,0.000000,0.000000,4.457055,15.176017,0.244864
1649347045.132703,29587.000000,1649347045.132359,0.000000,0.000000,1.000000,0.000000,0.000000,0.000000,0.000000,4.450873,15.177703,0.231523
1649347045.238458,29588.000000,1649347045.237003,0.000000,0.000000,1.000000,0.000000,0.000000,0.000000,0.000000,4.437287,15.181526,0.182318
1649347045.335927,29589.000000,1649347045.335321,0.000000,0.000000,1.000000,0.000000,0.000000,0.000000,0.000000,4.416749,15.188445,0.111687
