__time,/dwm1001/id_458E/pose_kf/header/seq,/dwm1001/id_458E/pose_kf/header/stamp,/dwm1001/id_458E/pose_kf/pose/orientation/pitch_deg,/dwm1001/id_458E/pose_kf/pose/orientation/roll_deg,/dwm1001/id_458E/pose_kf/pose/orientation/w,/dwm1001/id_458E/pose_kf/pose/orientation/x,/dwm1001/id_458E/pose_kf/pose/orientation/y,/dwm1001/id_458E/pose_kf/pose/orientation/yaw_deg,/dwm1001/id_458E/pose_kf/pose/orientation/z,/dwm1001/id_458E/pose_kf/pose/position/x,/dwm1001/id_458E/pose_kf/pose/position/y,/dwm1001/id_458E/pose_kf/pose/position/z
1649351966.022075,17438.000000,1649351966.021943,0.000000,0.000000,1.000000,0.000000,0.000000,0.000000,0.000000,7.842412,6.475959,-0.918421
1649351966.122099,17439.000000,1649351966.121996,0.000000,0.000000,1.000000,0.000000,0.000000,0.000000,0.000000,7.843149,6.476430,-0.919424
1649351966.222140,17440.000000,1649351966.222015,0.000000,0.000000,1.000000,0.000000,0.000000,0.000000,0.000000,7.842757,6.477963,-0.913056
1649351966.322363,17441.000000,1649351966.322145,0.000000,0.000000,1.000000,0.000000,0.000000,0.000000,0.000000,7.841301,6.479404,-0.906887
1649351966.422404,17442.000000,1649351966.422221,0.000000,0.000000,1.000000,0.000000,0.000000,0.000000,0.000000,7.837751,6.480755,-0.905759
1649351966.521990,17443.000000,1649351966.521849,0.000000,0.000000,1.000000,0.000000,0.000000,0.000000,0.000000,7.835504,6.482016,-0.907054
1649351966.622001,17444.000000,1649351966.621863,0.000000,0.000000,1.000000,0.000000,0.000000,0.000000,0.000000,7.834495,6.482100,-0.910674
1649351966.722048,17445.000000,1649351966.721949,0.000000,0.000000,1.000000,0.000000,0.000000,0.000000,0.000000,7.833568,6.483252,-0.910069
1649351966.822329,17446.000000,1649351966.822215,0.000000,0.000000,1.000000,0.000000,0.000000,0.000000,0.000000,7.832720,6.485411,-0.908639
1649351966.922745,17447.000000,1649351966.922605,0.000000,0.000000,1.000000,0.000000,0.000000,0.000000,0.000000,7.837398,6.483065,-0.863678
1649351967.022133,17448.000000,1649351967.022011,0.000000,0.000000,1.000000,0.000000,0.000000,0.000000,0.000000,7.840745,6.480830,-0.830245
1649351967.122039,17449.000000,1649351967.121936,0.000000,0.000000,1.000000,0.000000,0.000000,0.000000,0.000000,7.842820,6.479798,-0.803092
1649351967.222004,17450.000000,1649351967.221913,0.000000,0.000000,1.000000,0.000000,0.000000,0.000000,0.000000,7.843686,6.478816,-0.788460
1649351967.321987,17451.000000,1649351967.321883,0.000000,0.000000,1.000000,0.000000,0.000000,0.000000,0.000000,7.845589,6.478977,-0.775378
1649351967.421996,17452.000000,1649351967.421879,0.000000,0.000000,1.000000,0.000000,0.000000,0.000000,0.000000,7.845193,6.480217,-0.757350
1649351967.522013,17453.000000,1649351967.521889,0.000000,0.000000,1.000000,0.000000,0.000000,0.000000,0.000000,7.844808,6.482473,-0.741048
1649351967.622332,17454.000000,1649351967.622220,0.000000,0.000000,1.000000,0.000000,0.000000,0.000000,0.000000,7.845526,6.482413,-0.732068
1649351967.722718,17455.000000,1649351967.722595,0.000000,0.000000,1.000000,0.000000,0.000000,0.000000,0.000000,7.847283,6.482345,-0.730928
1649351967.822288,17456.000000,1649351967.822163,0.000000,0.000000,1.000000,0.000000,0.000000,0.000000,0.000000,7.848929,6.483359,-0.728433
1649351967.922619,17457.000000,1649351967.922484,0.000000,0.000000,1.000000,0.000000,0.000000,0.000000,0.000000,7.850465,6.482124,-0.741569
1649351968.022760,17458.000000,1649351968.022652,0.000000,0.000000,1.000000,0.000000,0.000000,0.000000,0.000000,7.850804,6.480947,-0.753546
1649351968.122057,17459.000000,1649351968.121938,0.000000,0.000000,1.000000,0.000000,0.000000,0.000000,0.000000,7.852190,6.477649,-0.777286
1649351968.222011,17460.000000,1649351968.221904,0.000000,0.000000,1.000000,0.000000,0.000000,0.000000,0.000000,7.852385,6.474537,-0.801784
1649351968.322308,17461.000000,1649351968.322028,0.000000,0.000000,1.000000,0.000000,0.000000,0.000000,0.000000,7.850362,6.470519,-0.829384
1649351968.422179,17462.000000,1649351968.422049,0.000000,0.000000,1.000000,0.000000,0.000000,0.000000,0.000000,7.849522,6.467838,-0.850233
1649351968.522010,17463.000000,1649351968.521871,0.000000,0.000000,1.000000,0.000000,0.000000,0.000000,0.000000,7.848714,6.467517,-0.866989
1649351968.622146,17464.000000,1649351968.622011,0.000000,0.000000,1.000000,0.000000,0.000000,0.000000,0.000000,7.847939,6.467247,-0.881400
1649351968.721978,17465.000000,1649351968.721886,0.000000,0.000000,1.000000,0.000000,0.000000,0.000000,0.000000,7.847198,6.467024,-0.888701
1649351968.821957,17466.000000,1649351968.821879,0.000000,0.000000,1.000000,0.000000,0.000000,0.000000,0.000000,7.846493,6.469025,-0.889976
1649351968.921956,17467.000000,1649351968.921876,0.000000,0.000000,1.000000,0.000000,0.000000,0.000000,0.000000,7.845824,6.472030,-0.887889
1649351969.022166,17468.000000,1649351969.022068,0.000000,0.000000,1.000000,0.000000,0.000000,0.000000,0.000000,7.843011,6.473792,-0.864840
1649351969.122097,17469.000000,1649351969.121953,0.000000,0.000000,1.000000,0.000000,0.000000,0.000000,0.000000,7.842540,6.476555,-0.839458
1649351969.222069,17470.000000,1649351969.221947,0.000000,0.000000,1.000000,0.000000,0.000000,0.000000,0.000000,7.841015,6.480255,-0.815915
1649351969.321973,17471.000000,1649351969.321862,0.000000,0.000000,1.000000,0.000000,0.000000,0.000000,0.000000,7.840676,6.482648,-0.804659
1649351969.422201,17472.000000,1649351969.422074,0.000000,0.000000,1.000000,0.000000,0.000000,0.000000,0.000000,7.842551,6.483799,-0.803599
1649351969.522196,17473.000000,1649351969.522099,0.000000,0.000000,1.000000,0.000000,0.000000,0.000000,0.000000,7.839970,6.482683,-0.755872
1649351969.622081,17474.000000,1649351969.621961,0.000000,0.000000,1.000000,0.000000,0.000000,0.000000,0.000000,7.836455,6.483789,-0.709406
1649351969.722113,17475.000000,1649351969.722007,0.000000,0.000000,1.000000,0.000000,0.000000,0.000000,0.000000,7.834246,6.483724,-0.685188
1649351969.822055,17476.000000,1649351969.821947,0.000000,0.000000,1.000000,0.000000,0.000000,0.000000,0.000000,7.832189,6.483642,-0.670259
1649351969.922061,17477.000000,1649351969.921917,0.000000,0.000000,1.000000,0.000000,0.000000,0.000000,0.000000,7.831370,6.482455,-0.657000
1649351970.022246,17478.000000,1649351970.022093,0.000000,0.000000,1.000000,0.000000,0.000000,0.000000,0.000000,7.830631,6.481320,-0.611485
1649351970.122319,17479.000000,1649351970.122190,0.000000,0.000000,1.000000,0.000000,0.000000,0.000000,0.000000,7.832150,6.481328,-0.572177
1649351970.222408,17480.000000,1649351970.222245,0.000000,0.000000,1.000000,0.000000,0.000000,0.000000,0.000000,7.833615,6.482417,-0.546941
1649351970.322417,17481.000000,1649351970.322273,0.000000,0.000000,1.000000,0.000000,0.000000,0.000000,0.000000,7.836114,6.482344,-0.507818
1649351970.422299,17482.000000,1649351970.422143,0.000000,0.000000,1.000000,0.000000,0.000000,0.000000,0.000000,7.836311,6.482265,-0.476384
1649351970.522387,17483.000000,1649351970.522213,0.000000,0.000000,1.000000,0.000000,0.000000,0.000000,0.000000,7.836509,6.482180,-0.462846
1649351970.622355,17484.000000,1649351970.622233,0.000000,0.000000,1.000000,0.000000,0.000000,0.000000,0.000000,7.837797,6.481000,-0.458421
1649351970.722327,17485.000000,1649351970.722078,0.000000,0.000000,1.000000,0.000000,0.000000,0.000000,0.000000,7.837932,6.480970,-0.456277
1649351970.822440,17486.000000,1649351970.822253,0.000000,0.000000,1.000000,0.000000,0.000000,0.000000,0.000000,7.838065,6.480937,-0.463562
1649351970.922856,17487.000000,1649351970.922741,0.000000,0.000000,1.000000,0.000000,0.000000,0.000000,0.000000,7.838196,6.480902,-0.472606
1649351971.022011,17488.000000,1649351971.021900,0.000000,0.000000,1.000000,0.000000,0.000000,0.000000,0.000000,7.840504,6.478684,-0.436530
1649351971.122005,17489.000000,1649351971.121907,0.000000,0.000000,1.000000,0.000000,0.000000,0.000000,0.000000,7.841593,6.475500,-0.422520
1649351971.221960,17490.000000,1649351971.221845,0.000000,0.000000,1.000000,0.000000,0.000000,0.000000,0.000000,7.842617,6.473594,-0.420819
1649351971.321992,17491.000000,1649351971.321910,0.000000,0.000000,1.000000,0.000000,0.000000,0.000000,0.000000,7.841394,6.473990,-0.429304
1649351971.422001,17492.000000,1649351971.421873,0.000000,0.000000,1.000000,0.000000,0.000000,0.000000,0.000000,7.840233,6.473290,-0.445916
1649351971.522059,17493.000000,1649351971.521954,0.000000,0.000000,1.000000,0.000000,0.000000,0.000000,0.000000,7.840225,6.473737,-0.464640
1649351971.622093,17494.000000,1649351971.621998,0.000000,0.000000,1.000000,0.000000,0.000000,0.000000,0.000000,7.841306,6.473084,-0.481309
1649351971.722020,17495.000000,1649351971.721926,0.000000,0.000000,1.000000,0.000000,0.000000,0.000000,0.000000,7.841234,6.474663,-0.494353
1649351971.822298,17496.000000,1649351971.822174,0.000000,0.000000,1.000000,0.000000,0.000000,0.000000,0.000000,7.841162,6.475077,-0.522433
1649351971.922360,17497.000000,1649351971.922245,0.000000,0.000000,1.000000,0.000000,0.000000,0.000000,0.000000,7.840000,6.475476,-0.547949
1649351972.022279,17498.000000,1649351972.022151,0.000000,0.000000,1.000000,0.000000,0.000000,0.000000,0.000000,7.838902,6.476950,-0.569341
1649351972.122258,17499.000000,1649351972.122152,0.000000,0.000000,1.000000,0.000000,0.000000,0.000000,0.000000,7.838958,6.478346,-0.589153
1649351972.222263,17500.000000,1649351972.222129,0.000000,0.000000,1.000000,0.000000,0.000000,0.000000,0.000000,7.837924,6.479663,-0.609024
1649351972.322515,17501.000000,1649351972.322290,0.000000,0.000000,1.000000,0.000000,0.000000,0.000000,0.000000,7.838043,6.479811,-0.628109
1649351972.421933,17502.000000,1649351972.421829,0.000000,0.000000,1.000000,0.000000,0.000000,0.000000,0.000000,7.838162,6.481035,-0.644795
1649351972.522018,17503.000000,1649351972.521904,0.000000,0.000000,1.000000,0.000000,0.000000,0.000000,0.000000,7.838279,6.482181,-0.660763
1649351972.622176,17504.000000,1649351972.622034,0.000000,0.000000,1.000000,0.000000,0.000000,0.000000,0.000000,7.839485,6.483252,-0.675210
1649351972.722180,17505.000000,1649351972.722055,0.000000,0.000000,1.000000,0.000000,0.000000,0.000000,0.000000,7.839535,6.485339,-0.700273
1649351972.822027,17506.000000,1649351972.821887,0.000000,0.000000,1.000000,0.000000,0.000000,0.000000,0.000000,7.839582,6.487290,-0.720970
1649351972.922504,17507.000000,1649351972.922307,0.000000,0.000000,1.000000,0.000000,0.000000,0.000000,0.000000,7.839627,6.488019,-0.740672
1649351973.021988,17508.000000,1649351973.021899,0.000000,0.000000,1.000000,0.000000,0.000000,0.000000,0.000000,7.840760,6.487590,-0.762620
1649351973.122132,17509.000000,1649351973.121992,0.000000,0.000000,1.000000,0.000000,0.000000,0.000000,0.000000,7.846189,6.484979,-0.739917
1649351973.222001,17510.000000,1649351973.221880,0.000000,0.000000,1.000000,0.000000,0.000000,0.000000,0.000000,7.851302,6.483586,-0.739736
1649351973.322003,17511.000000,1649351973.321902,0.000000,0.000000,1.000000,0.000000,0.000000,0.000000,0.000000,7.856100,6.481169,-0.748271
1649351973.421949,17512.000000,1649351973.421836,0.000000,0.000000,1.000000,0.000000,0.000000,0.000000,0.000000,7.859499,6.478883,-0.765165
1649351973.522011,17513.000000,1649351973.521908,0.000000,0.000000,1.000000,0.000000,0.000000,0.000000,0.000000,7.860475,6.476726,-0.782800
1649351973.622106,17514.000000,1649351973.621970,0.000000,0.000000,1.000000,0.000000,0.000000,0.000000,0.000000,7.860251,6.476881,-0.797899
1649351973.722088,17515.000000,1649351973.721965,0.000000,0.000000,1.000000,0.000000,0.000000,0.000000,0.000000,7.858897,6.477038,-0.813773
1649351973.821993,17516.000000,1649351973.821871,0.000000,0.000000,1.000000,0.000000,0.000000,0.000000,0.000000,7.858662,6.476107,-0.835213
1649351973.922191,17517.000000,1649351973.922068,0.000000,0.000000,1.000000,0.000000,0.000000,0.000000,0.000000,7.857307,6.477419,-0.841000
1649351974.022081,17518.000000,1649351974.021918,0.000000,0.000000,1.000000,0.000000,0.000000,0.000000,0.000000,7.855992,6.478668,-0.850315
1649351974.122212,17519.000000,1649351974.122091,0.000000,0.000000,1.000000,0.000000,0.000000,0.000000,0.000000,7.854719,6.479851,-0.859786
1649351974.222023,17520.000000,1649351974.221900,0.000000,0.000000,1.000000,0.000000,0.000000,0.000000,0.000000,7.851312,6.482060,-0.868596
1649351974.322317,17521.000000,1649351974.322190,0.000000,0.000000,1.000000,0.000000,0.000000,0.000000,0.000000,7.849169,6.481960,-0.884026
1649351974.422213,17522.000000,1649351974.422104,0.000000,0.000000,1.000000,0.000000,0.000000,0.000000,0.000000,7.847140,6.482949,-0.896924
1649351974.522233,17523.000000,1649351974.522120,0.000000,0.000000,1.000000,0.000000,0.000000,0.000000,0.000000,7.846314,6.482784,-0.912221
1649351974.622059,17524.000000,1649351974.621922,0.000000,0.000000,1.000000,0.000000,0.000000,0.000000,0.000000,7.845539,6.483710,-0.924163
1649351974.722177,17525.000000,1649351974.722043,0.000000,0.000000,1.000000,0.000000,0.000000,0.000000,0.000000,7.845903,6.484575,-0.940943
1649351974.822238,17526.000000,1649351974.822072,0.000000,0.000000,1.000000,0.000000,0.000000,0.000000,0.000000,7.846254,6.485379,-0.961543
1649351974.922088,17527.000000,1649351974.921970,0.000000,0.000000,1.000000,0.000000,0.000000,0.000000,0.000000,7.846590,6.486125,-0.976114
1649351975.022008,17528.000000,1649351975.021914,0.000000,0.000000,1.000000,0.000000,0.000000,0.000000,0.000000,7.848001,6.485724,-0.993758
1649351975.121996,17529.000000,1649351975.121865,0.000000,0.000000,1.000000,0.000000,0.000000,0.000000,0.000000,7.849334,6.486420,-1.001434
1649351975.222011,17530.000000,1649351975.221911,0.000000,0.000000,1.000000,0.000000,0.000000,0.000000,0.000000,7.850589,6.484883,-1.017289
1649351975.322030,17531.000000,1649351975.321935,0.000000,0.000000,1.000000,0.000000,0.000000,0.000000,0.000000,7.850676,6.484510,-1.030500
1649351975.422058,17532.000000,1649351975.421939,0.000000,0.000000,1.000000,0.000000,0.000000,0.000000,0.000000,7.851839,6.484149,-1.041166
1649351975.522240,17533.000000,1649351975.521960,0.000000,0.000000,1.000000,0.000000,0.000000,0.000000,0.000000,7.854017,6.484891,-1.051002
1649351975.622268,17534.000000,1649351975.622098,0.000000,0.000000,1.000000,0.000000,0.000000,0.000000,0.000000,7.856058,6.485585,-1.060041
1649351975.722286,17535.000000,1649351975.722151,0.000000,0.000000,1.000000,0.000000,0.000000,0.000000,0.000000,7.857965,6.486231,-1.068318
1649351975.822349,17536.000000,1649351975.822215,0.000000,0.000000,1.000000,0.000000,0.000000,0.000000,0.000000,7.859739,6.485740,-1.083122
1649351975.922306,17537.000000,1649351975.922162,0.000000,0.000000,1.000000,0.000000,0.000000,0.000000,0.000000,7.863565,6.483086,-1.046119
1649351976.022343,17538.000000,1649351976.022238,0.000000,0.000000,1.000000,0.000000,0.000000,0.000000,0.000000,7.869322,6.481666,-0.971573
1649351976.121985,17539.000000,1649351976.121884,0.000000,0.000000,1.000000,0.000000,0.000000,0.000000,0.000000,7.873616,6.480328,-0.924847
1649351976.221965,17540.000000,1649351976.221864,0.000000,0.000000,1.000000,0.000000,0.000000,0.000000,0.000000,7.877607,6.480160,-0.900068
1649351976.322116,17541.000000,1649351976.321893,0.000000,0.000000,1.000000,0.000000,0.000000,0.000000,0.000000,7.882395,6.481101,-0.887527
1649351976.422060,17542.000000,1649351976.421907,0.000000,0.000000,1.000000,0.000000,0.000000,0.000000,0.000000,7.887925,6.481995,-0.889172
1649351976.522156,17543.000000,1649351976.522031,0.000000,0.000000,1.000000,0.000000,0.000000,0.000000,0.000000,7.894144,6.483932,-0.898786
1649351976.621905,17544.000000,1649351976.621793,0.000000,0.000000,1.000000,0.000000,0.000000,0.000000,0.000000,7.899911,6.486850,-0.908775
1649351976.722098,17545.000000,1649351976.721974,0.000000,0.000000,1.000000,0.000000,0.000000,0.000000,0.000000,7.906329,6.490685,-0.902172
1649351976.822470,17546.000000,1649351976.822298,0.000000,0.000000,1.000000,0.000000,0.000000,0.000000,0.000000,7.913349,6.492106,-0.910305
1649351976.922219,17547.000000,1649351976.922036,0.000000,0.000000,1.000000,0.000000,0.000000,0.000000,0.000000,7.920925,6.494512,-0.923697
1649351977.022077,17548.000000,1649351977.021969,0.000000,0.000000,1.000000,0.000000,0.000000,0.000000,0.000000,7.927920,6.495663,-0.942117
1649351977.122330,17549.000000,1649351977.122157,0.000000,0.000000,1.000000,0.000000,0.000000,0.000000,0.000000,7.933264,6.495625,-0.967753
1649351977.222080,17550.000000,1649351977.221945,0.000000,0.000000,1.000000,0.000000,0.000000,0.000000,0.000000,7.939221,6.496646,-0.997855
1649351977.322086,17551.000000,1649351977.321984,0.000000,0.000000,1.000000,0.000000,0.000000,0.000000,0.000000,7.943569,6.497577,-1.029780
1649351977.422127,17552.000000,1649351977.421984,0.000000,0.000000,1.000000,0.000000,0.000000,0.000000,0.000000,7.947484,6.497332,-1.063408
1649351977.522097,17553.000000,1649351977.521979,0.000000,0.000000,1.000000,0.000000,0.000000,0.000000,0.000000,7.950987,6.497067,-1.097010
1649351977.622159,17554.000000,1649351977.622038,0.000000,0.000000,1.000000,0.000000,0.000000,0.000000,0.000000,7.955193,6.497877,-1.129736
1649351977.722708,17555.000000,1649351977.722608,0.000000,0.000000,1.000000,0.000000,0.000000,0.000000,0.000000,7.963332,6.501883,-1.155934
1649351977.822035,17556.000000,1649351977.821931,0.000000,0.000000,1.000000,0.000000,0.000000,0.000000,0.000000,7.974085,6.507810,-1.167774
1649351977.922779,17557.000000,1649351977.922526,0.000000,0.000000,1.000000,0.000000,0.000000,0.000000,0.000000,7.990560,6.512265,-1.185992
1649351978.021993,17558.000000,1649351978.021883,0.000000,0.000000,1.000000,0.000000,0.000000,0.000000,0.000000,8.006954,6.515319,-1.202254
1649351978.122007,17559.000000,1649351978.121899,0.000000,0.000000,1.000000,0.000000,0.000000,0.000000,0.000000,8.019966,6.517042,-1.223079
1649351978.221978,17560.000000,1649351978.221864,0.000000,0.000000,1.000000,0.000000,0.000000,0.000000,0.000000,8.033027,6.518596,-1.245846
1649351978.322021,17561.000000,1649351978.321898,0.000000,0.000000,1.000000,0.000000,0.000000,0.000000,0.000000,8.042842,6.518899,-1.208361
1649351978.421953,17562.000000,1649351978.421862,0.000000,0.000000,1.000000,0.000000,0.000000,0.000000,0.000000,8.051757,6.519113,-1.128458
1649351978.521970,17563.000000,1649351978.521861,0.000000,0.000000,1.000000,0.000000,0.000000,0.000000,0.000000,8.058725,6.518156,-1.053159
1649351978.621994,17564.000000,1649351978.621882,0.000000,0.000000,1.000000,0.000000,0.000000,0.000000,0.000000,8.063850,6.517189,-1.000964
1649351978.722124,17565.000000,1649351978.722006,0.000000,0.000000,1.000000,0.000000,0.000000,0.000000,0.000000,8.067240,6.516219,-0.966196
1649351978.822018,17566.000000,1649351978.821898,0.000000,0.000000,1.000000,0.000000,0.000000,0.000000,0.000000,8.067907,6.515253,-0.895792
1649351978.921881,17567.000000,1649351978.921766,0.000000,0.000000,1.000000,0.000000,0.000000,0.000000,0.000000,8.066019,6.514296,-0.796951
1649351979.022063,17568.000000,1649351979.021966,0.000000,0.000000,1.000000,0.000000,0.000000,0.000000,0.000000,8.062832,6.513353,-0.728236
1649351979.122069,17569.000000,1649351979.121951,0.000000,0.000000,1.000000,0.000000,0.000000,0.000000,0.000000,8.058443,6.512430,-0.688536
1649351979.222342,17570.000000,1649351979.222234,0.000000,0.000000,1.000000,0.000000,0.000000,0.000000,0.000000,8.052949,6.512619,-0.659795
1649351979.321932,17571.000000,1649351979.321852,0.000000,0.000000,1.000000,0.000000,0.000000,0.000000,0.000000,8.048622,6.512771,-0.646438
1649351979.421988,17572.000000,1649351979.421894,0.000000,0.000000,1.000000,0.000000,0.000000,0.000000,0.000000,8.044336,6.511799,-0.640588
1649351979.522024,17573.000000,1649351979.521926,0.000000,0.000000,1.000000,0.000000,0.000000,0.000000,0.000000,8.036840,6.513039,-0.632253
1649351979.622146,17574.000000,1649351979.622022,0.000000,0.000000,1.000000,0.000000,0.000000,0.000000,0.000000,8.030706,6.513097,-0.635237
1649351979.721958,17575.000000,1649351979.721840,0.000000,0.000000,1.000000,0.000000,0.000000,0.000000,0.000000,8.025886,6.512040,-0.653894
1649351979.822047,17576.000000,1649351979.821947,0.000000,0.000000,1.000000,0.000000,0.000000,0.000000,0.000000,8.023421,6.511021,-0.678672
1649351979.922174,17577.000000,1649351979.922056,0.000000,0.000000,1.000000,0.000000,0.000000,0.000000,0.000000,8.019924,6.510045,-0.709264
1649351980.022341,17578.000000,1649351980.022188,0.000000,0.000000,1.000000,0.000000,0.000000,0.000000,0.000000,8.016557,6.510202,-0.737304
1649351980.122264,17579.000000,1649351980.122147,0.000000,0.000000,1.000000,0.000000,0.000000,0.000000,0.000000,8.013327,6.509250,-0.771706
1649351980.222299,17580.000000,1649351980.222179,0.000000,0.000000,1.000000,0.000000,0.000000,0.000000,0.000000,8.012421,6.508344,-0.807306
1649351980.322388,17581.000000,1649351980.322265,0.000000,0.000000,1.000000,0.000000,0.000000,0.000000,0.000000,8.010444,6.506394,-0.842377
1649351980.422347,17582.000000,1649351980.422191,0.000000,0.000000,1.000000,0.000000,0.000000,0.000000,0.000000,8.008555,6.504553,-0.876068
1649351980.522409,17583.000000,1649351980.522231,0.000000,0.000000,1.000000,0.000000,0.000000,0.000000,0.000000,8.003483,6.503912,-0.900314
1649351980.622332,17584.000000,1649351980.622176,0.000000,0.000000,1.000000,0.000000,0.000000,0.000000,0.000000,7.998691,6.504406,-0.921099
1649351980.722136,17585.000000,1649351980.721959,0.000000,0.000000,1.000000,0.000000,0.000000,0.000000,0.000000,7.993088,6.505972,-0.935305
1649351980.822112,17586.000000,1649351980.822000,0.000000,0.000000,1.000000,0.000000,0.000000,0.000000,0.000000,7.986734,6.505275,-0.956080
1649351980.922017,17587.000000,1649351980.921888,0.000000,0.000000,1.000000,0.000000,0.000000,0.000000,0.000000,7.980779,6.503531,-0.926677
1649351981.022033,17588.000000,1649351981.021908,0.000000,0.000000,1.000000,0.000000,0.000000,0.000000,0.000000,7.976307,6.501891,-0.910465
1649351981.122702,17589.000000,1649351981.122374,0.000000,0.000000,1.000000,0.000000,0.000000,0.000000,0.000000,7.972157,6.499265,-0.907750
1649351981.222852,17590.000000,1649351981.222734,0.000000,0.000000,1.000000,0.000000,0.000000,0.000000,0.000000,7.969410,6.496804,-0.915577
1649351981.322310,17591.000000,1649351981.322132,0.000000,0.000000,1.000000,0.000000,0.000000,0.000000,0.000000,7.964723,6.495596,-0.923831
1649351981.422158,17592.000000,1649351981.422006,0.000000,0.000000,1.000000,0.000000,0.000000,0.000000,0.000000,7.959301,6.493394,-0.885709
1649351981.522197,17593.000000,1649351981.522071,0.000000,0.000000,1.000000,0.000000,0.000000,0.000000,0.000000,7.954286,6.491348,-0.870085
1649351981.622182,17594.000000,1649351981.622014,0.000000,0.000000,1.000000,0.000000,0.000000,0.000000,0.000000,7.949665,6.491635,-0.859949
1649351981.722079,17595.000000,1649351981.721934,0.000000,0.000000,1.000000,0.000000,0.000000,0.000000,0.000000,7.943243,6.491942,-0.855097
1649351981.821959,17596.000000,1649351981.821846,0.000000,0.000000,1.000000,0.000000,0.000000,0.000000,0.000000,7.936222,6.492267,-0.853709
1649351981.922442,17597.000000,1649351981.922174,0.000000,0.000000,1.000000,0.000000,0.000000,0.000000,0.000000,7.929739,6.490425,-0.861291
1649351982.022363,17598.000000,1649351982.022203,0.000000,0.000000,1.000000,0.000000,0.000000,0.000000,0.000000,7.928137,6.486537,-0.819402
1649351982.121981,17599.000000,1649351982.121864,0.000000,0.000000,1.000000,0.000000,0.000000,0.000000,0.000000,7.923513,6.482906,-0.793011
1649351982.221998,17600.000000,1649351982.221886,0.000000,0.000000,1.000000,0.000000,0.000000,0.000000,0.000000,7.919308,6.479526,-0.789596
1649351982.322130,17601.000000,1649351982.322007,0.000000,0.000000,1.000000,0.000000,0.000000,0.000000,0.000000,7.913322,6.478574,-0.779200
1649351982.422293,17602.000000,1649351982.422162,0.000000,0.000000,1.000000,0.000000,0.000000,0.000000,0.000000,7.905662,6.478824,-0.765342
1649351982.522316,17603.000000,1649351982.522166,0.000000,0.000000,1.000000,0.000000,0.000000,0.000000,0.000000,7.897522,6.478027,-0.757855
1649351982.622238,17604.000000,1649351982.622122,0.000000,0.000000,1.000000,0.000000,0.000000,0.000000,0.000000,7.891124,6.477329,-0.753263
1649351982.722105,17605.000000,1649351982.721995,0.000000,0.000000,1.000000,0.000000,0.000000,0.000000,0.000000,7.884200,6.475634,-0.753063
1649351982.822141,17606.000000,1649351982.822026,0.000000,0.000000,1.000000,0.000000,0.000000,0.000000,0.000000,7.876788,6.474088,-0.758683
1649351982.922478,17607.000000,1649351982.922351,0.000000,0.000000,1.000000,0.000000,0.000000,0.000000,0.000000,7.868926,6.472685,-0.767453
1649351983.022322,17608.000000,1649351983.022175,0.000000,0.000000,1.000000,0.000000,0.000000,0.000000,0.000000,7.862829,6.471418,-0.788096
1649351983.122078,17609.000000,1649351983.121971,0.000000,0.000000,1.000000,0.000000,0.000000,0.000000,0.000000,7.857317,6.470281,-0.803964
1649351983.221993,17610.000000,1649351983.221838,0.000000,0.000000,1.000000,0.000000,0.000000,0.000000,0.000000,7.852359,6.469265,-0.820057
1649351983.322041,17611.000000,1649351983.321913,0.000000,0.000000,1.000000,0.000000,0.000000,0.000000,0.000000,7.847927,6.468365,-0.846820
1649351983.421983,17612.000000,1649351983.421892,0.000000,0.000000,1.000000,0.000000,0.000000,0.000000,0.000000,7.843992,6.468664,-0.854744
1649351983.522888,17613.000000,1649351983.522725,0.000000,0.000000,1.000000,0.000000,0.000000,0.000000,0.000000,7.841613,6.469001,-0.873609
1649351983.622338,17614.000000,1649351983.622206,0.000000,0.000000,1.000000,0.000000,0.000000,0.000000,0.000000,7.838520,6.470462,-0.884394
1649351983.722422,17615.000000,1649351983.722264,0.000000,0.000000,1.000000,0.000000,0.000000,0.000000,0.000000,7.834745,6.472976,-0.886603
1649351983.822376,17616.000000,1649351983.822185,0.000000,0.000000,1.000000,0.000000,0.000000,0.000000,0.000000,7.832506,6.473206,-0.893484
1649351983.922325,17617.000000,1649351983.922165,0.000000,0.000000,1.000000,0.000000,0.000000,0.000000,0.000000,7.831711,6.474543,-0.901614
1649351984.022377,17618.000000,1649351984.022267,0.000000,0.000000,1.000000,0.000000,0.000000,0.000000,0.000000,7.830091,6.475832,-0.910934
1649351984.122011,17619.000000,1649351984.121912,0.000000,0.000000,1.000000,0.000000,0.000000,0.000000,0.000000,7.828772,6.477070,-0.921383
1649351984.221969,17620.000000,1649351984.221869,0.000000,0.000000,1.000000,0.000000,0.000000,0.000000,0.000000,7.827731,6.479344,-0.943386
1649351984.322007,17621.000000,1649351984.321895,0.000000,0.000000,1.000000,0.000000,0.000000,0.000000,0.000000,7.825853,6.481501,-0.961930
1649351984.422105,17622.000000,1649351984.421964,0.000000,0.000000,1.000000,0.000000,0.000000,0.000000,0.000000,7.823179,6.481358,-0.976323
1649351984.522025,17623.000000,1649351984.521899,0.000000,0.000000,1.000000,0.000000,0.000000,0.000000,0.000000,7.821929,6.482312,-0.983488
1649351984.621958,17624.000000,1649351984.621874,0.000000,0.000000,1.000000,0.000000,0.000000,0.000000,0.000000,7.819839,6.483211,-0.988553
1649351984.722155,17625.000000,1649351984.722015,0.000000,0.000000,1.000000,0.000000,0.000000,0.000000,0.000000,7.818041,6.485145,-0.989181
1649351984.822088,17626.000000,1649351984.821968,0.000000,0.000000,1.000000,0.000000,0.000000,0.000000,0.000000,7.817605,6.488052,-0.975076
1649351984.922321,17627.000000,1649351984.922205,0.000000,0.000000,1.000000,0.000000,0.000000,0.000000,0.000000,7.817357,6.491870,-0.956541
1649351985.022047,17628.000000,1649351985.021937,0.000000,0.000000,1.000000,0.000000,0.000000,0.000000,0.000000,7.817278,6.495449,-0.941050
1649351985.122185,17629.000000,1649351985.122054,0.000000,0.000000,1.000000,0.000000,0.000000,0.000000,0.000000,7.817351,6.497702,-0.932545
1649351985.221953,17630.000000,1649351985.221840,0.000000,0.000000,1.000000,0.000000,0.000000,0.000000,0.000000,7.816469,6.498696,-0.928343
1649351985.322022,17631.000000,1649351985.321937,0.000000,0.000000,1.000000,0.000000,0.000000,0.000000,0.000000,7.812496,6.498500,-0.896828
1649351985.421972,17632.000000,1649351985.421865,0.000000,0.000000,1.000000,0.000000,0.000000,0.000000,0.000000,7.813240,6.499362,-0.877061
1649351985.522001,17633.000000,1649351985.521889,0.000000,0.000000,1.000000,0.000000,0.000000,0.000000,0.000000,7.819523,6.497953,-0.815377
1649351985.622041,17634.000000,1649351985.621911,0.000000,0.000000,1.000000,0.000000,0.000000,0.000000,0.000000,7.827745,6.496585,-0.782922
1649351985.722005,17635.000000,1649351985.721903,0.000000,0.000000,1.000000,0.000000,0.000000,0.000000,0.000000,7.836678,6.496352,-0.760021
1649351985.822044,17636.000000,1649351985.821943,0.000000,0.000000,1.000000,0.000000,0.000000,0.000000,0.000000,7.847343,6.498285,-0.737449
1649351985.921980,17637.000000,1649351985.921866,0.000000,0.000000,1.000000,0.000000,0.000000,0.000000,0.000000,7.856337,6.498991,-0.730543
1649351986.021971,17638.000000,1649351986.021869,0.000000,0.000000,1.000000,0.000000,0.000000,0.000000,0.000000,7.862633,6.500716,-0.718514
1649351986.122115,17639.000000,1649351986.122002,0.000000,0.000000,1.000000,0.000000,0.000000,0.000000,0.000000,7.866360,6.501222,-0.713674
1649351986.221947,17640.000000,1649351986.221824,0.000000,0.000000,1.000000,0.000000,0.000000,0.000000,0.000000,7.868740,6.502755,-0.707667
1649351986.322760,17641.000000,1649351986.322591,0.000000,0.000000,1.000000,0.000000,0.000000,0.000000,0.000000,7.869840,6.504166,-0.705378
1649351986.422531,17642.000000,1649351986.422370,0.000000,0.000000,1.000000,0.000000,0.000000,0.000000,0.000000,7.869731,6.505461,-0.697780
1649351986.522207,17643.000000,1649351986.522095,0.000000,0.000000,1.000000,0.000000,0.000000,0.000000,0.000000,7.869572,6.506642,-0.692347
1649351986.622073,17644.000000,1649351986.621939,0.000000,0.000000,1.000000,0.000000,0.000000,0.000000,0.000000,7.868280,6.505535,-0.697862
1649351986.722264,17645.000000,1649351986.722126,0.000000,0.000000,1.000000,0.000000,0.000000,0.000000,0.000000,7.868105,6.504452,-0.707413
1649351986.822338,17646.000000,1649351986.822181,0.000000,0.000000,1.000000,0.000000,0.000000,0.000000,0.000000,7.866807,6.502305,-0.724036
1649351986.922308,17647.000000,1649351986.922188,0.000000,0.000000,1.000000,0.000000,0.000000,0.000000,0.000000,7.864454,6.501342,-0.733701
1649351987.022145,17648.000000,1649351987.022013,0.000000,0.000000,1.000000,0.000000,0.000000,0.000000,0.000000,7.862204,6.501503,-0.742310
1649351987.122051,17649.000000,1649351987.121916,0.000000,0.000000,1.000000,0.000000,0.000000,0.000000,0.000000,7.860060,6.499456,-0.761982
1649351987.222129,17650.000000,1649351987.222013,0.000000,0.000000,1.000000,0.000000,0.000000,0.000000,0.000000,7.858023,6.498601,-0.778523
1649351987.322055,17651.000000,1649351987.321916,0.000000,0.000000,1.000000,0.000000,0.000000,0.000000,0.000000,7.857186,6.495604,-0.754124
1649351987.421973,17652.000000,1649351987.421855,0.000000,0.000000,1.000000,0.000000,0.000000,0.000000,0.000000,7.855304,6.493862,-0.740474
1649351987.522060,17653.000000,1649351987.521940,0.000000,0.000000,1.000000,0.000000,0.000000,0.000000,0.000000,7.855712,6.492224,-0.733129
1649351987.622204,17654.000000,1649351987.622076,0.000000,0.000000,1.000000,0.000000,0.000000,0.000000,0.000000,7.855012,6.491778,-0.722970
1649351987.722297,17655.000000,1649351987.722197,0.000000,0.000000,1.000000,0.000000,0.000000,0.000000,0.000000,7.854356,6.491369,-0.720607
1649351987.821970,17656.000000,1649351987.821885,0.000000,0.000000,1.000000,0.000000,0.000000,0.000000,0.000000,7.853745,6.490996,-0.723305
1649351987.922303,17657.000000,1649351987.922185,0.000000,0.000000,1.000000,0.000000,0.000000,0.000000,0.000000,7.852086,6.489567,-0.729237
1649351988.022055,17658.000000,1649351988.021922,0.000000,0.000000,1.000000,0.000000,0.000000,0.000000,0.000000,7.851623,6.488234,-0.738258
1649351988.122159,17659.000000,1649351988.122029,0.000000,0.000000,1.000000,0.000000,0.000000,0.000000,0.000000,7.851200,6.485904,-0.751031
1649351988.222367,17660.000000,1649351988.222168,0.000000,0.000000,1.000000,0.000000,0.000000,0.000000,0.000000,7.850815,6.483728,-0.765766
1649351988.322352,17661.000000,1649351988.322176,0.000000,0.000000,1.000000,0.000000,0.000000,0.000000,0.000000,7.850468,6.481702,-0.784776
1649351988.422186,17662.000000,1649351988.422073,0.000000,0.000000,1.000000,0.000000,0.000000,0.000000,0.000000,7.851245,6.479824,-0.807048
1649351988.522016,17663.000000,1649351988.521919,0.000000,0.000000,1.000000,0.000000,0.000000,0.000000,0.000000,7.851993,6.478089,-0.838060
1649351988.622120,17664.000000,1649351988.621977,0.000000,0.000000,1.000000,0.000000,0.000000,0.000000,0.000000,7.855981,6.473221,-0.811277
1649351988.722057,17665.000000,1649351988.721910,0.000000,0.000000,1.000000,0.000000,0.000000,0.000000,0.000000,7.857568,6.470856,-0.793597
1649351988.822043,17666.000000,1649351988.821934,0.000000,0.000000,1.000000,0.000000,0.000000,0.000000,0.000000,7.853607,6.468680,-0.749198
1649351988.922146,17667.000000,1649351988.922003,0.000000,0.000000,1.000000,0.000000,0.000000,0.000000,0.000000,7.853139,6.463416,-0.678428
1649351989.022306,17668.000000,1649351989.022156,0.000000,0.000000,1.000000,0.000000,0.000000,0.000000,0.000000,7.853792,6.460696,-0.630047
1649351989.122355,17669.000000,1649351989.122231,0.000000,0.000000,1.000000,0.000000,0.000000,0.000000,0.000000,7.852232,6.458205,-0.602422
1649351989.222107,17670.000000,1649351989.221966,0.000000,0.000000,1.000000,0.000000,0.000000,0.000000,0.000000,7.850765,6.457025,-0.581041
1649351989.322032,17671.000000,1649351989.321910,0.000000,0.000000,1.000000,0.000000,0.000000,0.000000,0.000000,7.848300,6.458173,-0.567290
1649351989.422005,17672.000000,1649351989.421904,0.000000,0.000000,1.000000,0.000000,0.000000,0.000000,0.000000,7.843808,6.458243,-0.531839
1649351989.521943,17673.000000,1649351989.521842,0.000000,0.000000,1.000000,0.000000,0.000000,0.000000,0.000000,7.838502,6.459469,-0.515932
1649351989.622104,17674.000000,1649351989.621985,0.000000,0.000000,1.000000,0.000000,0.000000,0.000000,0.000000,7.834623,6.460691,-0.522825
1649351989.722053,17675.000000,1649351989.721922,0.000000,0.000000,1.000000,0.000000,0.000000,0.000000,0.000000,7.832103,6.462992,-0.526571
1649351989.822001,17676.000000,1649351989.821897,0.000000,0.000000,1.000000,0.000000,0.000000,0.000000,0.000000,7.831962,6.465211,-0.508726
1649351989.921906,17677.000000,1649351989.921789,0.000000,0.000000,1.000000,0.000000,0.000000,0.000000,0.000000,7.831887,6.465164,-0.457274
1649351990.022093,17678.000000,1649351990.021977,0.000000,0.000000,1.000000,0.000000,0.000000,0.000000,0.000000,7.830781,6.466243,-0.423643
1649351990.122056,17679.000000,1649351990.121940,0.000000,0.000000,1.000000,0.000000,0.000000,0.000000,0.000000,7.830880,6.466201,-0.409572
1649351990.222001,17680.000000,1649351990.221882,0.000000,0.000000,1.000000,0.000000,0.000000,0.000000,0.000000,7.831027,6.467277,-0.406213
1649351990.322027,17681.000000,1649351990.321899,0.000000,0.000000,1.000000,0.000000,0.000000,0.000000,0.000000,7.830123,6.467226,-0.418766
1649351990.422019,17682.000000,1649351990.421912,0.000000,0.000000,1.000000,0.000000,0.000000,0.000000,0.000000,7.830408,6.469378,-0.430419
1649351990.521996,17683.000000,1649351990.521895,0.000000,0.000000,1.000000,0.000000,0.000000,0.000000,0.000000,7.829632,6.471426,-0.448430
1649351990.621989,17684.000000,1649351990.621826,0.000000,0.000000,1.000000,0.000000,0.000000,0.000000,0.000000,7.828942,6.473367,-0.468464
1649351990.722257,17685.000000,1649351990.722119,0.000000,0.000000,1.000000,0.000000,0.000000,0.000000,0.000000,7.828334,6.474110,-0.500069
1649351990.822016,17686.000000,1649351990.821916,0.000000,0.000000,1.000000,0.000000,0.000000,0.000000,0.000000,7.826713,6.472629,-0.534649
1649351990.922094,17687.000000,1649351990.921972,0.000000,0.000000,1.000000,0.000000,0.000000,0.000000,0.000000,7.825226,6.471230,-0.572017
1649351991.022029,17688.000000,1649351991.021926,0.000000,0.000000,1.000000,0.000000,0.000000,0.000000,0.000000,7.823869,6.471004,-0.600699
1649351991.121930,17689.000000,1649351991.121842,0.000000,0.000000,1.000000,0.000000,0.000000,0.000000,0.000000,7.822635,6.470795,-0.635510
1649351991.222044,17690.000000,1649351991.221945,0.000000,0.000000,1.000000,0.000000,0.000000,0.000000,0.000000,7.821519,6.469514,-0.670498
1649351991.322073,17691.000000,1649351991.321945,0.000000,0.000000,1.000000,0.000000,0.000000,0.000000,0.000000,7.820515,6.470494,-0.691082
1649351991.422099,17692.000000,1649351991.421988,0.000000,0.000000,1.000000,0.000000,0.000000,0.000000,0.000000,7.819618,6.472517,-0.710714
1649351991.522095,17693.000000,1649351991.521966,0.000000,0.000000,1.000000,0.000000,0.000000,0.000000,0.000000,7.819911,6.475520,-0.731823
1649351991.622126,17694.000000,1649351991.621986,0.000000,0.000000,1.000000,0.000000,0.000000,0.000000,0.000000,7.819145,6.477259,-0.754322
1649351991.722056,17695.000000,1649351991.721965,0.000000,0.000000,1.000000,0.000000,0.000000,0.000000,0.000000,7.822830,6.476707,-0.724896
1649351991.821976,17696.000000,1649351991.821873,0.000000,0.000000,1.000000,0.000000,0.000000,0.000000,0.000000,7.825256,6.476174,-0.714247
1649351991.922116,17697.000000,1649351991.921997,0.000000,0.000000,1.000000,0.000000,0.000000,0.000000,0.000000,7.827574,6.475660,-0.711158
1649351992.022380,17698.000000,1649351992.022167,0.000000,0.000000,1.000000,0.000000,0.000000,0.000000,0.000000,7.827599,6.475167,-0.713722
1649351992.122438,17699.000000,1649351992.122236,0.000000,0.000000,1.000000,0.000000,0.000000,0.000000,0.000000,7.828727,6.473604,-0.720906
1649351992.222183,17700.000000,1649351992.222024,0.000000,0.000000,1.000000,0.000000,0.000000,0.000000,0.000000,7.829803,6.474307,-0.721225
1649351992.322082,17701.000000,1649351992.321971,0.000000,0.000000,1.000000,0.000000,0.000000,0.000000,0.000000,7.829735,6.473879,-0.735928
1649351992.422062,17702.000000,1649351992.421952,0.000000,0.000000,1.000000,0.000000,0.000000,0.000000,0.000000,7.830767,6.474563,-0.741029
1649351992.522087,17703.000000,1649351992.521944,0.000000,0.000000,1.000000,0.000000,0.000000,0.000000,0.000000,7.830654,6.474117,-0.753042
1649351992.622043,17704.000000,1649351992.621927,0.000000,0.000000,1.000000,0.000000,0.000000,0.000000,0.000000,7.829459,6.474783,-0.768446
1649351992.721990,17705.000000,1649351992.721892,0.000000,0.000000,1.000000,0.000000,0.000000,0.000000,0.000000,7.828334,6.475410,-0.796764
1649351992.822017,17706.000000,1649351992.821900,0.000000,0.000000,1.000000,0.000000,0.000000,0.000000,0.000000,7.827280,6.475998,-0.831789
1649351992.922438,17707.000000,1649351992.922278,0.000000,0.000000,1.000000,0.000000,0.000000,0.000000,0.000000,7.827385,6.476546,-0.859491
1649351993.022098,17708.000000,1649351993.021992,0.000000,0.000000,1.000000,0.000000,0.000000,0.000000,0.000000,7.827496,6.478147,-0.881742
1649351993.122082,17709.000000,1649351993.121960,0.000000,0.000000,1.000000,0.000000,0.000000,0.000000,0.000000,7.826519,6.478557,-0.853575
1649351993.222172,17710.000000,1649351993.222050,0.000000,0.000000,1.000000,0.000000,0.000000,0.000000,0.000000,7.826699,6.478932,-0.848858
1649351993.322402,17711.000000,1649351993.322299,0.000000,0.000000,1.000000,0.000000,0.000000,0.000000,0.000000,7.825789,6.479273,-0.856181
1649351993.422101,17712.000000,1649351993.421941,0.000000,0.000000,1.000000,0.000000,0.000000,0.000000,0.000000,7.828213,6.477400,-0.821026
1649351993.522078,17713.000000,1649351993.521942,0.000000,0.000000,1.000000,0.000000,0.000000,0.000000,0.000000,7.831601,6.475622,-0.758882
1649351993.622113,17714.000000,1649351993.622004,0.000000,0.000000,1.000000,0.000000,0.000000,0.000000,0.000000,7.834797,6.473940,-0.712081
1649351993.722074,17715.000000,1649351993.721950,0.000000,0.000000,1.000000,0.000000,0.000000,0.000000,0.000000,7.837804,6.473444,-0.676054
1649351993.822019,17716.000000,1649351993.821904,0.000000,0.000000,1.000000,0.000000,0.000000,0.000000,0.000000,7.839532,6.472980,-0.656878
1649351993.922175,17717.000000,1649351993.922053,0.000000,0.000000,1.000000,0.000000,0.000000,0.000000,0.000000,7.841138,6.472548,-0.649872
1649351994.022139,17718.000000,1649351994.022022,0.000000,0.000000,1.000000,0.000000,0.000000,0.000000,0.000000,7.841534,6.471056,-0.654552
1649351994.121956,17719.000000,1649351994.121857,0.000000,0.000000,1.000000,0.000000,0.000000,0.000000,0.000000,7.840786,6.471839,-0.658338
1649351994.222269,17720.000000,1649351994.222141,0.000000,0.000000,1.000000,0.000000,0.000000,0.000000,0.000000,7.840053,6.473678,-0.661255
1649351994.322284,17721.000000,1649351994.322128,0.000000,0.000000,1.000000,0.000000,0.000000,0.000000,0.000000,7.839336,6.474328,-0.668168
1649351994.422213,17722.000000,1649351994.422065,0.000000,0.000000,1.000000,0.000000,0.000000,0.000000,0.000000,7.838638,6.474944,-0.677288
1649351994.522025,17723.000000,1649351994.521925,0.000000,0.000000,1.000000,0.000000,0.000000,0.000000,0.000000,7.839053,6.475524,-0.685282
1649351994.622122,17724.000000,1649351994.621999,0.000000,0.000000,1.000000,0.000000,0.000000,0.000000,0.000000,7.839428,6.477159,-0.691374
1649351994.722712,17725.000000,1649351994.722367,0.000000,0.000000,1.000000,0.000000,0.000000,0.000000,0.000000,7.839766,6.477607,-0.713370
1649351994.822334,17726.000000,1649351994.822169,0.000000,0.000000,1.000000,0.000000,0.000000,0.000000,0.000000,7.838978,6.479111,-0.730430
1649351994.922311,17727.000000,1649351994.922173,0.000000,0.000000,1.000000,0.000000,0.000000,0.000000,0.000000,7.840401,6.479429,-0.746756
1649351995.022384,17728.000000,1649351995.022200,0.000000,0.000000,1.000000,0.000000,0.000000,0.000000,0.000000,7.842819,6.479717,-0.761547
1649351995.122411,17729.000000,1649351995.122280,0.000000,0.000000,1.000000,0.000000,0.000000,0.000000,0.000000,7.849443,6.476703,-0.730487
1649351995.222384,17730.000000,1649351995.222210,0.000000,0.000000,1.000000,0.000000,0.000000,0.000000,0.000000,7.853482,6.474941,-0.713545
1649351995.322374,17731.000000,1649351995.322214,0.000000,0.000000,1.000000,0.000000,0.000000,0.000000,0.000000,7.856157,6.475457,-0.702118
1649351995.422348,17732.000000,1649351995.422202,0.000000,0.000000,1.000000,0.000000,0.000000,0.000000,0.000000,7.853176,6.474855,-0.653261
1649351995.522084,17733.000000,1649351995.521903,0.000000,0.000000,1.000000,0.000000,0.000000,0.000000,0.000000,7.851401,6.476469,-0.621792
1649351995.622099,17734.000000,1649351995.621963,0.000000,0.000000,1.000000,0.000000,0.000000,0.000000,0.000000,7.849686,6.477993,-0.603832
1649351995.722135,17735.000000,1649351995.722015,0.000000,0.000000,1.000000,0.000000,0.000000,0.000000,0.000000,7.848033,6.479425,-0.596443
1649351995.822122,17736.000000,1649351995.822000,0.000000,0.000000,1.000000,0.000000,0.000000,0.000000,0.000000,7.845357,6.481859,-0.588720
1649351995.922045,17737.000000,1649351995.921922,0.000000,0.000000,1.000000,0.000000,0.000000,0.000000,0.000000,7.843903,6.485231,-0.585521
1649351996.022070,17738.000000,1649351996.021945,0.000000,0.000000,1.000000,0.000000,0.000000,0.000000,0.000000,7.835978,6.486211,-0.549564
1649351996.122093,17739.000000,1649351996.121968,0.000000,0.000000,1.000000,0.000000,0.000000,0.000000,0.000000,7.830683,6.487108,-0.523352
1649351996.221979,17740.000000,1649351996.221848,0.000000,0.000000,1.000000,0.000000,0.000000,0.000000,0.000000,7.825709,6.487926,-0.506528
1649351996.322170,17741.000000,1649351996.322032,0.000000,0.000000,1.000000,0.000000,0.000000,0.000000,0.000000,7.823234,6.487577,-0.509214
1649351996.422074,17742.000000,1649351996.421964,0.000000,0.000000,1.000000,0.000000,0.000000,0.000000,0.000000,7.819855,6.487218,-0.510446
1649351996.522049,17743.000000,1649351996.521933,0.000000,0.000000,1.000000,0.000000,0.000000,0.000000,0.000000,7.817810,6.487943,-0.513495
1649351996.622387,17744.000000,1649351996.622290,0.000000,0.000000,1.000000,0.000000,0.000000,0.000000,0.000000,7.817029,6.489693,-0.519079
1649351996.722044,17745.000000,1649351996.721927,0.000000,0.000000,1.000000,0.000000,0.000000,0.000000,0.000000,7.817442,6.491316,-0.531108
1649351996.822051,17746.000000,1649351996.821926,0.000000,0.000000,1.000000,0.000000,0.000000,0.000000,0.000000,7.818979,6.492818,-0.544454
1649351996.922121,17747.000000,1649351996.921890,0.000000,0.000000,1.000000,0.000000,0.000000,0.000000,0.000000,7.820482,6.494201,-0.563872
1649351997.022039,17748.000000,1649351997.021918,0.000000,0.000000,1.000000,0.000000,0.000000,0.000000,0.000000,7.821943,6.494379,-0.585852
1649351997.122250,17749.000000,1649351997.122087,0.000000,0.000000,1.000000,0.000000,0.000000,0.000000,0.000000,7.827720,6.491239,-0.558636
1649351997.222407,17750.000000,1649351997.222260,0.000000,0.000000,1.000000,0.000000,0.000000,0.000000,0.000000,7.831015,6.489335,-0.533442
1649351997.321921,17751.000000,1649351997.321769,0.000000,0.000000,1.000000,0.000000,0.000000,0.000000,0.000000,7.837405,6.485336,-0.478776
1649351997.422015,17752.000000,1649351997.421903,0.000000,0.000000,1.000000,0.000000,0.000000,0.000000,0.000000,7.841248,6.482642,-0.449943
1649351997.522038,17753.000000,1649351997.521931,0.000000,0.000000,1.000000,0.000000,0.000000,0.000000,0.000000,7.843762,6.481189,-0.437877
1649351997.622071,17754.000000,1649351997.621948,0.000000,0.000000,1.000000,0.000000,0.000000,0.000000,0.000000,7.846105,6.482005,-0.428201
1649351997.722051,17755.000000,1649351997.721934,0.000000,0.000000,1.000000,0.000000,0.000000,0.000000,0.000000,7.847189,6.481691,-0.436145
1649351997.821947,17756.000000,1649351997.821836,0.000000,0.000000,1.000000,0.000000,0.000000,0.000000,0.000000,7.848173,6.481402,-0.452102
1649351997.922426,17757.000000,1649351997.922295,0.000000,0.000000,1.000000,0.000000,0.000000,0.000000,0.000000,7.847970,6.481135,-0.475712
1649351998.022073,17758.000000,1649351998.021949,0.000000,0.000000,1.000000,0.000000,0.000000,0.000000,0.000000,7.847740,6.481980,-0.496937
1649351998.121991,17759.000000,1649351998.121875,0.000000,0.000000,1.000000,0.000000,0.000000,0.000000,0.000000,7.847486,6.483874,-0.512606
1649351998.222104,17760.000000,1649351998.221985,0.000000,0.000000,1.000000,0.000000,0.000000,0.000000,0.000000,7.848303,6.487844,-0.522909
1649351998.322325,17761.000000,1649351998.322183,0.000000,0.000000,1.000000,0.000000,0.000000,0.000000,0.000000,7.849041,6.491584,-0.539332
1649351998.422257,17762.000000,1649351998.422158,0.000000,0.000000,1.000000,0.000000,0.000000,0.000000,0.000000,7.849705,6.492913,-0.562402
1649351998.522238,17763.000000,1649351998.522095,0.000000,0.000000,1.000000,0.000000,0.000000,0.000000,0.000000,7.850298,6.493052,-0.581328
1649351998.622069,17764.000000,1649351998.621952,0.000000,0.000000,1.000000,0.000000,0.000000,0.000000,0.000000,7.849735,6.495337,-0.591403
1649351998.722168,17765.000000,1649351998.722059,0.000000,0.000000,1.000000,0.000000,0.000000,0.000000,0.000000,7.849172,6.496375,-0.608293
1649351998.822000,17766.000000,1649351998.821875,0.000000,0.000000,1.000000,0.000000,0.000000,0.000000,0.000000,7.848612,6.496233,-0.584113
1649351998.922013,17767.000000,1649351998.921892,0.000000,0.000000,1.000000,0.000000,0.000000,0.000000,0.000000,7.848059,6.494976,-0.531854
1649351999.022042,17768.000000,1649351999.021874,0.000000,0.000000,1.000000,0.000000,0.000000,0.000000,0.000000,7.847516,6.495942,-0.487415
1649351999.122027,17769.000000,1649351999.121917,0.000000,0.000000,1.000000,0.000000,0.000000,0.000000,0.000000,7.846985,6.496829,-0.467487
1649351999.222079,17770.000000,1649351999.221964,0.000000,0.000000,1.000000,0.000000,0.000000,0.000000,0.000000,7.845377,6.497639,-0.452564
1649351999.322076,17771.000000,1649351999.321966,0.000000,0.000000,1.000000,0.000000,0.000000,0.000000,0.000000,7.843848,6.498376,-0.445686
1649351999.421942,17772.000000,1649351999.421806,0.000000,0.000000,1.000000,0.000000,0.000000,0.000000,0.000000,7.841308,6.496862,-0.401373
1649351999.522082,17773.000000,1649351999.521960,0.000000,0.000000,1.000000,0.000000,0.000000,0.000000,0.000000,7.838911,6.495407,-0.383297
1649351999.622198,17774.000000,1649351999.622022,0.000000,0.000000,1.000000,0.000000,0.000000,0.000000,0.000000,7.835566,6.494013,-0.376711
1649351999.722011,17775.000000,1649351999.721903,0.000000,0.000000,1.000000,0.000000,0.000000,0.000000,0.000000,7.833515,6.493774,-0.376312
1649351999.822112,17776.000000,1649351999.821976,0.000000,0.000000,1.000000,0.000000,0.000000,0.000000,0.000000,7.830512,6.493537,-0.381840
1649351999.922065,17777.000000,1649351999.921974,0.000000,0.000000,1.000000,0.000000,0.000000,0.000000,0.000000,7.828798,6.494394,-0.382553
1649352000.022023,17778.000000,1649352000.021887,0.000000,0.000000,1.000000,0.000000,0.000000,0.000000,0.000000,7.827216,6.494102,-0.394760
1649352000.122039,17779.000000,1649352000.121924,0.000000,0.000000,1.000000,0.000000,0.000000,0.000000,0.000000,7.825760,6.493817,-0.413131
1649352000.221953,17780.000000,1649352000.221845,0.000000,0.000000,1.000000,0.000000,0.000000,0.000000,0.000000,7.825518,6.493538,-0.448666
1649352000.322179,17781.000000,1649352000.322025,0.000000,0.000000,1.000000,0.000000,0.000000,0.000000,0.000000,7.824240,6.494358,-0.483673
1649352000.422050,17782.000000,1649352000.421955,0.000000,0.000000,1.000000,0.000000,0.000000,0.000000,0.000000,7.824165,6.495124,-0.526979
1649352000.522022,17783.000000,1649352000.521905,0.000000,0.000000,1.000000,0.000000,0.000000,0.000000,0.000000,7.827406,6.495838,-0.550756
1649352000.621995,17784.000000,1649352000.621887,0.000000,0.000000,1.000000,0.000000,0.000000,0.000000,0.000000,7.832679,6.496499,-0.582365
1649352000.722200,17785.000000,1649352000.722036,0.000000,0.000000,1.000000,0.000000,0.000000,0.000000,0.000000,7.843127,6.498201,-0.613376
1649352000.822126,17786.000000,1649352000.821992,0.000000,0.000000,1.000000,0.000000,0.000000,0.000000,0.000000,7.857344,6.495430,-0.596185
1649352000.922036,17787.000000,1649352000.921876,0.000000,0.000000,1.000000,0.000000,0.000000,0.000000,0.000000,7.867449,6.491711,-0.604546
1649352001.022034,17788.000000,1649352001.021915,0.000000,0.000000,1.000000,0.000000,0.000000,0.000000,0.000000,7.873637,6.490379,-0.605969
1649352001.122315,17789.000000,1649352001.122191,0.000000,0.000000,1.000000,0.000000,0.000000,0.000000,0.000000,7.879379,6.489126,-0.609608
1649352001.222410,17790.000000,1649352001.222252,0.000000,0.000000,1.000000,0.000000,0.000000,0.000000,0.000000,7.882507,6.487953,-0.617795
1649352001.322050,17791.000000,1649352001.321944,0.000000,0.000000,1.000000,0.000000,0.000000,0.000000,0.000000,7.883161,6.487948,-0.623078
1649352001.422013,17792.000000,1649352001.421905,0.000000,0.000000,1.000000,0.000000,0.000000,0.000000,0.000000,7.882570,6.487956,-0.636058
1649352001.522170,17793.000000,1649352001.522019,0.000000,0.000000,1.000000,0.000000,0.000000,0.000000,0.000000,7.879720,6.487976,-0.653181
1649352001.622402,17794.000000,1649352001.622238,0.000000,0.000000,1.000000,0.000000,0.000000,0.000000,0.000000,7.876932,6.488007,-0.665390
1649352001.722348,17795.000000,1649352001.722173,0.000000,0.000000,1.000000,0.000000,0.000000,0.000000,0.000000,7.875305,6.486957,-0.677707
1649352001.822285,17796.000000,1649352001.822039,0.000000,0.000000,1.000000,0.000000,0.000000,0.000000,0.000000,7.872606,6.487068,-0.684471
1649352001.922263,17797.000000,1649352001.922114,0.000000,0.000000,1.000000,0.000000,0.000000,0.000000,0.000000,7.866725,6.487185,-0.663322
1649352002.022104,17798.000000,1649352002.022002,0.000000,0.000000,1.000000,0.000000,0.000000,0.000000,0.000000,7.860038,6.487307,-0.656561
1649352002.122362,17799.000000,1649352002.122245,0.000000,0.000000,1.000000,0.000000,0.000000,0.000000,0.000000,7.854793,6.487433,-0.657980
1649352002.222275,17800.000000,1649352002.222140,0.000000,0.000000,1.000000,0.000000,0.000000,0.000000,0.000000,7.849838,6.487561,-0.673707
1649352002.322295,17801.000000,1649352002.322153,0.000000,0.000000,1.000000,0.000000,0.000000,0.000000,0.000000,7.844082,6.486600,-0.699111
1649352002.422350,17802.000000,1649352002.422256,0.000000,0.000000,1.000000,0.000000,0.000000,0.000000,0.000000,7.838676,6.485703,-0.728928
1649352002.522009,17803.000000,1649352002.521902,0.000000,0.000000,1.000000,0.000000,0.000000,0.000000,0.000000,7.832526,6.484867,-0.764551
1649352002.621946,17804.000000,1649352002.621807,0.000000,0.000000,1.000000,0.000000,0.000000,0.000000,0.000000,7.827869,6.483001,-0.800858
1649352002.721961,17805.000000,1649352002.721860,0.000000,0.000000,1.000000,0.000000,0.000000,0.000000,0.000000,7.824635,6.481258,-0.844224
1649352002.822084,17806.000000,1649352002.821975,0.000000,0.000000,1.000000,0.000000,0.000000,0.000000,0.000000,7.821662,6.479633,-0.886240
1649352002.922357,17807.000000,1649352002.922273,0.000000,0.000000,1.000000,0.000000,0.000000,0.000000,0.000000,7.817849,6.480306,-0.916424
1649352003.021931,17808.000000,1649352003.021795,0.000000,0.000000,1.000000,0.000000,0.000000,0.000000,0.000000,7.815430,6.480966,-0.945705
1649352003.121973,17809.000000,1649352003.121885,0.000000,0.000000,1.000000,0.000000,0.000000,0.000000,0.000000,7.812150,6.481611,-0.972476
1649352003.222081,17810.000000,1649352003.221963,0.000000,0.000000,1.000000,0.000000,0.000000,0.000000,0.000000,7.810242,6.482239,-0.993589
1649352003.322175,17811.000000,1649352003.322016,0.000000,0.000000,1.000000,0.000000,0.000000,0.000000,0.000000,7.805269,6.483937,-0.985068
1649352003.422215,17812.000000,1649352003.422102,0.000000,0.000000,1.000000,0.000000,0.000000,0.000000,0.000000,7.801769,6.484461,-0.987659
1649352003.522476,17813.000000,1649352003.522128,0.000000,0.000000,1.000000,0.000000,0.000000,0.000000,0.000000,7.798577,6.483872,-0.996900
1649352003.622055,17814.000000,1649352003.621932,0.000000,0.000000,1.000000,0.000000,0.000000,0.000000,0.000000,7.797860,6.485504,-1.003658
1649352003.722348,17815.000000,1649352003.722235,0.000000,0.000000,1.000000,0.000000,0.000000,0.000000,0.000000,7.798388,6.485959,-1.010462
1649352003.822059,17816.000000,1649352003.821914,0.000000,0.000000,1.000000,0.000000,0.000000,0.000000,0.000000,7.798995,6.486390,-1.020544
1649352003.922018,17817.000000,1649352003.921914,0.000000,0.000000,1.000000,0.000000,0.000000,0.000000,0.000000,7.798577,6.488977,-1.021679
1649352004.022024,17818.000000,1649352004.021916,0.000000,0.000000,1.000000,0.000000,0.000000,0.000000,0.000000,7.799367,6.492504,-1.011826
1649352004.121994,17819.000000,1649352004.121889,0.000000,0.000000,1.000000,0.000000,0.000000,0.000000,0.000000,7.801291,6.495821,-1.005980
1649352004.222028,17820.000000,1649352004.221909,0.000000,0.000000,1.000000,0.000000,0.000000,0.000000,0.000000,7.802095,6.497837,-1.004814
1649352004.322039,17821.000000,1649352004.321916,0.000000,0.000000,1.000000,0.000000,0.000000,0.000000,0.000000,7.806196,6.495348,-0.953319
1649352004.421996,17822.000000,1649352004.421883,0.000000,0.000000,1.000000,0.000000,0.000000,0.000000,0.000000,7.810125,6.494062,-0.916529
1649352004.522077,17823.000000,1649352004.521945,0.000000,0.000000,1.000000,0.000000,0.000000,0.000000,0.000000,7.812786,6.491737,-0.895540
1649352004.622033,17824.000000,1649352004.621917,0.000000,0.000000,1.000000,0.000000,0.000000,0.000000,0.000000,7.815328,6.489529,-0.880080
1649352004.722088,17825.000000,1649352004.721932,0.000000,0.000000,1.000000,0.000000,0.000000,0.000000,0.000000,7.814478,6.488529,-0.843346
1649352004.821970,17826.000000,1649352004.821870,0.000000,0.000000,1.000000,0.000000,0.000000,0.000000,0.000000,7.812601,6.486494,-0.825780
1649352004.922030,17827.000000,1649352004.921934,0.000000,0.000000,1.000000,0.000000,0.000000,0.000000,0.000000,7.810850,6.485667,-0.809705
1649352005.022020,17828.000000,1649352005.021919,0.000000,0.000000,1.000000,0.000000,0.000000,0.000000,0.000000,7.811402,6.485986,-0.801542
1649352005.122143,17829.000000,1649352005.121989,0.000000,0.000000,1.000000,0.000000,0.000000,0.000000,0.000000,7.811948,6.485204,-0.756630
1649352005.221932,17830.000000,1649352005.221815,0.000000,0.000000,1.000000,0.000000,0.000000,0.000000,0.000000,7.812485,6.484475,-0.733784
1649352005.322031,17831.000000,1649352005.321920,0.000000,0.000000,1.000000,0.000000,0.000000,0.000000,0.000000,7.814102,6.484888,-0.731342
1649352005.422138,17832.000000,1649352005.421958,0.000000,0.000000,1.000000,0.000000,0.000000,0.000000,0.000000,7.817822,6.486378,-0.721063
1649352005.522024,17833.000000,1649352005.521904,0.000000,0.000000,1.000000,0.000000,0.000000,0.000000,0.000000,7.821340,6.487792,-0.717789
1649352005.622142,17834.000000,1649352005.622029,0.000000,0.000000,1.000000,0.000000,0.000000,0.000000,0.000000,7.829016,6.485857,-0.668819
1649352005.722107,17835.000000,1649352005.721922,0.000000,0.000000,1.000000,0.000000,0.000000,0.000000,0.000000,7.835148,6.482942,-0.593006
1649352005.822295,17836.000000,1649352005.822206,0.000000,0.000000,1.000000,0.000000,0.000000,0.000000,0.000000,7.837623,6.481292,-0.518973
1649352005.922079,17837.000000,1649352005.921873,0.000000,0.000000,1.000000,0.000000,0.000000,0.000000,0.000000,7.844267,6.476479,-0.425790
1649352006.021967,17838.000000,1649352006.021843,0.000000,0.000000,1.000000,0.000000,0.000000,0.000000,0.000000,7.847204,6.474143,-0.361950
1649352006.122011,17839.000000,1649352006.121887,0.000000,0.000000,1.000000,0.000000,0.000000,0.000000,0.000000,7.845539,6.469791,-0.273934
1649352006.221926,17840.000000,1649352006.221807,0.000000,0.000000,1.000000,0.000000,0.000000,0.000000,0.000000,7.848257,6.463546,-0.172515
1649352006.321993,17841.000000,1649352006.321878,0.000000,0.000000,1.000000,0.000000,0.000000,0.000000,0.000000,7.850752,6.460978,-0.095468
1649352006.421907,17842.000000,1649352006.421786,0.000000,0.000000,1.000000,0.000000,0.000000,0.000000,0.000000,7.853033,6.460803,-0.048356
1649352006.522076,17843.000000,1649352006.521958,0.000000,0.000000,1.000000,0.000000,0.000000,0.000000,0.000000,7.854019,6.461795,-0.027587
1649352006.622020,17844.000000,1649352006.621898,0.000000,0.000000,1.000000,0.000000,0.000000,0.000000,0.000000,7.853782,6.462793,-0.025641
1649352006.722377,17845.000000,1649352006.722186,0.000000,0.000000,1.000000,0.000000,0.000000,0.000000,0.000000,7.853484,6.464881,-0.029621
1649352006.822163,17846.000000,1649352006.821967,0.000000,0.000000,1.000000,0.000000,0.000000,0.000000,0.000000,7.853134,6.467990,-0.040044
1649352006.921985,17847.000000,1649352006.921870,0.000000,0.000000,1.000000,0.000000,0.000000,0.000000,0.000000,7.852739,6.470961,-0.050949
1649352007.022055,17848.000000,1649352007.021927,0.000000,0.000000,1.000000,0.000000,0.000000,0.000000,0.000000,7.853397,6.472700,-0.073550
1649352007.121986,17849.000000,1649352007.121898,0.000000,0.000000,1.000000,0.000000,0.000000,0.000000,0.000000,7.852872,6.474359,-0.100044
1649352007.222003,17850.000000,1649352007.221898,0.000000,0.000000,1.000000,0.000000,0.000000,0.000000,0.000000,7.852324,6.475936,-0.137454
1649352007.321936,17851.000000,1649352007.321807,0.000000,0.000000,1.000000,0.000000,0.000000,0.000000,0.000000,7.850667,6.477428,-0.177989
1649352007.421906,17852.000000,1649352007.421823,0.000000,0.000000,1.000000,0.000000,0.000000,0.000000,0.000000,7.850151,6.478838,-0.220624
1649352007.522002,17853.000000,1649352007.521881,0.000000,0.000000,1.000000,0.000000,0.000000,0.000000,0.000000,7.848537,6.479073,-0.270019
1649352007.622052,17854.000000,1649352007.621946,0.000000,0.000000,1.000000,0.000000,0.000000,0.000000,0.000000,7.845892,6.478198,-0.317736
1649352007.721980,17855.000000,1649352007.721874,0.000000,0.000000,1.000000,0.000000,0.000000,0.000000,0.000000,7.843372,6.478458,-0.363747
1649352007.822056,17856.000000,1649352007.821910,0.000000,0.000000,1.000000,0.000000,0.000000,0.000000,0.000000,7.840980,6.479789,-0.404003
1649352007.922299,17857.000000,1649352007.922197,0.000000,0.000000,1.000000,0.000000,0.000000,0.000000,0.000000,7.838717,6.482130,-0.436243
1649352008.022032,17858.000000,1649352008.021920,0.000000,0.000000,1.000000,0.000000,0.000000,0.000000,0.000000,7.836583,6.484328,-0.459119
1649352008.121994,17859.000000,1649352008.121892,0.000000,0.000000,1.000000,0.000000,0.000000,0.000000,0.000000,7.834577,6.486385,-0.484260
1649352008.221945,17860.000000,1649352008.221833,0.000000,0.000000,1.000000,0.000000,0.000000,0.000000,0.000000,7.833789,6.488303,-0.516373
1649352008.322182,17861.000000,1649352008.322035,0.000000,0.000000,1.000000,0.000000,0.000000,0.000000,0.000000,7.833063,6.490086,-0.547868
