__time,/dwm1001/id_458E/pose_kf/header/seq,/dwm1001/id_458E/pose_kf/header/stamp,/dwm1001/id_458E/pose_kf/pose/orientation/pitch_deg,/dwm1001/id_458E/pose_kf/pose/orientation/roll_deg,/dwm1001/id_458E/pose_kf/pose/orientation/w,/dwm1001/id_458E/pose_kf/pose/orientation/x,/dwm1001/id_458E/pose_kf/pose/orientation/y,/dwm1001/id_458E/pose_kf/pose/orientation/yaw_deg,/dwm1001/id_458E/pose_kf/pose/orientation/z,/dwm1001/id_458E/pose_kf/pose/position/x,/dwm1001/id_458E/pose_kf/pose/position/y,/dwm1001/id_458E/pose_kf/pose/position/z
1649346936.536097,28501.000000,1649346936.535233,0.000000,0.000000,1.000000,0.000000,0.000000,0.000000,0.000000,4.575879,15.096829,0.689054
1649346936.635281,28502.000000,1649346936.634564,0.000000,0.000000,1.000000,0.000000,0.000000,0.000000,0.000000,4.572442,15.100983,0.649054
1649346936.737792,28503.000000,1649346936.737138,0.000000,0.000000,1.000000,0.000000,0.000000,0.000000,0.000000,4.575214,15.101847,0.639647
1649346936.835452,28504.000000,1649346936.832378,0.000000,0.000000,1.000000,0.000000,0.000000,0.000000,0.000000,4.581699,15.101767,0.651588
1649346936.932672,28505.000000,1649346936.932353,0.000000,0.000000,1.000000,0.000000,0.000000,0.000000,0.000000,4.577526,15.105145,0.615480
1649346937.036438,28506.000000,1649346937.035208,0.000000,0.000000,1.000000,0.000000,0.000000,0.000000,0.000000,4.565499,15.111770,0.545453
1649346937.133211,28507.000000,1649346937.132780,0.000000,0.000000,1.000000,0.000000,0.000000,0.000000,0.000000,4.551561,15.119256,0.462376
1649346937.234311,28508.000000,1649346937.233693,0.000000,0.000000,1.000000,0.000000,0.000000,0.000000,0.000000,4.519527,15.134066,0.373391
1649346937.335045,28509.000000,1649346937.334429,0.000000,0.000000,1.000000,0.000000,0.000000,0.000000,0.000000,4.493399,15.145936,0.281322
1649346937.436546,28510.000000,1649346937.435966,0.000000,0.000000,1.000000,0.000000,0.000000,0.000000,0.000000,4.481674,15.152805,0.236460
1649346937.538531,28511.000000,1649346937.536743,0.000000,0.000000,1.000000,0.000000,0.000000,0.000000,0.000000,4.480337,15.156014,0.224076
1649346937.636987,28512.000000,1649346937.635967,0.000000,0.000000,1.000000,0.000000,0.000000,0.000000,0.000000,4.486652,15.155752,0.240462
1649346937.735151,28513.000000,1649346937.734776,0.000000,0.000000,1.000000,0.000000,0.000000,0.000000,0.000000,4.480556,15.159845,0.217493
1649346937.834686,28514.000000,1649346937.834074,0.000000,0.000000,1.000000,0.000000,0.000000,0.000000,0.000000,4.483467,15.160410,0.227761
1649346937.939678,28515.000000,1649346937.938233,0.000000,0.000000,1.000000,0.000000,0.000000,0.000000,0.000000,4.491616,15.158730,0.257005
1649346938.033438,28516.000000,1649346938.033068,0.000000,0.000000,1.000000,0.000000,0.000000,0.000000,0.000000,4.485069,15.162567,0.243118
1649346938.134016,28517.000000,1649346938.133656,0.000000,0.000000,1.000000,0.000000,0.000000,0.000000,0.000000,4.470104,15.168339,0.199152
1649346938.233277,28518.000000,1649346938.232904,0.000000,0.000000,1.000000,0.000000,0.000000,0.000000,0.000000,4.469036,15.170473,0.194137
1649346938.332582,28519.000000,1649346938.332264,0.000000,0.000000,1.000000,0.000000,0.000000,0.000000,0.000000,4.451672,15.177886,0.168442
1649346938.444259,28520.000000,1649346938.441837,0.000000,0.000000,1.000000,0.000000,0.000000,0.000000,0.000000,4.446214,15.180457,0.173749
1649346938.533028,28521.000000,1649346938.532411,0.000000,0.000000,1.000000,0.000000,0.000000,0.000000,0.000000,4.436761,15.184989,0.150728
1649346938.642719,28522.000000,1649346938.642030,0.000000,0.000000,1.000000,0.000000,0.000000,0.000000,0.000000,4.432281,15.185912,0.161040
1649346938.735911,28523.000000,1649346938.734771,0.000000,0.000000,1.000000,0.000000,0.000000,0.000000,0.000000,4.412883,15.180156,0.135574
1649346938.833740,28524.000000,1649346938.833248,0.000000,0.000000,1.000000,0.000000,0.000000,0.000000,0.000000,4.389250,15.181191,0.083071
1649346938.933474,28525.000000,1649346938.933050,0.000000,0.000000,1.000000,0.000000,0.000000,0.000000,0.000000,4.366038,15.184286,0.015991
1649346939.035644,28526.000000,1649346939.034397,0.000000,0.000000,1.000000,0.000000,0.000000,0.000000,0.000000,4.356369,15.184962,-0.002071
1649346939.133203,28527.000000,1649346939.132767,0.000000,0.000000,1.000000,0.000000,0.000000,0.000000,0.000000,4.339893,15.189895,-0.052107
1649346939.236472,28528.000000,1649346939.235362,0.000000,0.000000,1.000000,0.000000,0.000000,0.000000,0.000000,4.335552,15.190117,-0.056952
1649346939.334729,28529.000000,1649346939.334114,0.000000,0.000000,1.000000,0.000000,0.000000,0.000000,0.000000,4.321962,15.193523,-0.083759
1649346939.433212,28530.000000,1649346939.432608,0.000000,0.000000,1.000000,0.000000,0.000000,0.000000,0.000000,4.302921,15.201023,-0.134037
1649346939.536819,28531.000000,1649346939.536237,0.000000,0.000000,1.000000,0.000000,0.000000,0.000000,0.000000,4.296213,15.203651,-0.137416
1649346939.634006,28532.000000,1649346939.633265,0.000000,0.000000,1.000000,0.000000,0.000000,0.000000,0.000000,4.300073,15.202762,-0.107901
1649346939.736215,28533.000000,1649346939.735605,0.000000,0.000000,1.000000,0.000000,0.000000,0.000000,0.000000,4.312802,15.199646,-0.053339
1649346939.832837,28534.000000,1649346939.832501,0.000000,0.000000,1.000000,0.000000,0.000000,0.000000,0.000000,4.315318,15.199891,-0.049851
1649346939.934485,28535.000000,1649346939.933775,0.000000,0.000000,1.000000,0.000000,0.000000,0.000000,0.000000,4.310334,15.203318,-0.083301
1649346940.034863,28536.000000,1649346940.034138,0.000000,0.000000,1.000000,0.000000,0.000000,0.000000,0.000000,4.298259,15.209748,-0.140060
1649346940.132630,28537.000000,1649346940.132241,0.000000,0.000000,1.000000,0.000000,0.000000,0.000000,0.000000,4.286043,15.216821,-0.190879
1649346940.235379,28538.000000,1649346940.234590,0.000000,0.000000,1.000000,0.000000,0.000000,0.000000,0.000000,4.270446,15.225574,-0.256899
1649346940.337813,28539.000000,1649346940.337049,0.000000,0.000000,1.000000,0.000000,0.000000,0.000000,0.000000,4.252771,15.233716,-0.334996
1649346940.433578,28540.000000,1649346940.433033,0.000000,0.000000,1.000000,0.000000,0.000000,0.000000,0.000000,4.237531,15.241261,-0.422155
1649346940.533061,28541.000000,1649346940.532705,0.000000,0.000000,1.000000,0.000000,0.000000,0.000000,0.000000,4.221346,15.250408,-0.513055
1649346940.634791,28542.000000,1649346940.633894,0.000000,0.000000,1.000000,0.000000,0.000000,0.000000,0.000000,4.225014,15.252328,-0.537262
1649346940.733369,28543.000000,1649346940.732893,0.000000,0.000000,1.000000,0.000000,0.000000,0.000000,0.000000,4.223428,15.255051,-0.580528
1649346940.835124,28544.000000,1649346940.834321,0.000000,0.000000,1.000000,0.000000,0.000000,0.000000,0.000000,4.231031,15.253083,-0.572696
1649346940.936770,28545.000000,1649346940.936127,0.000000,0.000000,1.000000,0.000000,0.000000,0.000000,0.000000,4.247276,15.247788,-0.533621
1649346941.043046,28546.000000,1649346941.037643,0.000000,0.000000,1.000000,0.000000,0.000000,0.000000,0.000000,4.268352,15.239373,-0.471117
1649346941.134145,28547.000000,1649346941.133551,0.000000,0.000000,1.000000,0.000000,0.000000,0.000000,0.000000,4.292823,15.230222,-0.384658
1649346941.236113,28548.000000,1649346941.234962,0.000000,0.000000,1.000000,0.000000,0.000000,0.000000,0.000000,4.305152,15.225863,-0.351996
1649346941.336309,28549.000000,1649346941.335110,0.000000,0.000000,1.000000,0.000000,0.000000,0.000000,0.000000,4.310317,15.224962,-0.352490
1649346941.435827,28550.000000,1649346941.435154,0.000000,0.000000,1.000000,0.000000,0.000000,0.000000,0.000000,4.323954,15.219703,-0.317885
1649346941.540863,28551.000000,1649346941.537818,0.000000,0.000000,1.000000,0.000000,0.000000,0.000000,0.000000,4.328111,15.219067,-0.314995
1649346941.634884,28552.000000,1649346941.633928,0.000000,0.000000,1.000000,0.000000,0.000000,0.000000,0.000000,4.338558,15.215172,-0.281269
1649346941.734521,28553.000000,1649346941.733889,0.000000,0.000000,1.000000,0.000000,0.000000,0.000000,0.000000,4.344017,15.213661,-0.269633
1649346941.833771,28554.000000,1649346941.833291,0.000000,0.000000,1.000000,0.000000,0.000000,0.000000,0.000000,4.340384,15.215499,-0.288098
1649346941.936639,28555.000000,1649346941.935925,0.000000,0.000000,1.000000,0.000000,0.000000,0.000000,0.000000,4.335803,15.218319,-0.318491
1649346942.036917,28556.000000,1649346942.035816,0.000000,0.000000,1.000000,0.000000,0.000000,0.000000,0.000000,4.343427,15.216607,-0.307872
1649346942.134964,28557.000000,1649346942.134352,0.000000,0.000000,1.000000,0.000000,0.000000,0.000000,0.000000,4.341853,15.218248,-0.327277
1649346942.235353,28558.000000,1649346942.234206,0.000000,0.000000,1.000000,0.000000,0.000000,0.000000,0.000000,4.350126,15.216512,-0.306925
1649346942.337137,28559.000000,1649346942.336288,0.000000,0.000000,1.000000,0.000000,0.000000,0.000000,0.000000,4.365507,15.211591,-0.258141
1649346942.435303,28560.000000,1649346942.434923,0.000000,0.000000,1.000000,0.000000,0.000000,0.000000,0.000000,4.384293,15.210216,-0.251519
1649346942.539113,28561.000000,1649346942.538149,0.000000,0.000000,1.000000,0.000000,0.000000,0.000000,0.000000,4.390980,15.212198,-0.278117
1649346942.637312,28562.000000,1649346942.635388,0.000000,0.000000,1.000000,0.000000,0.000000,0.000000,0.000000,4.404754,15.209714,-0.256718
1649346942.737285,28563.000000,1649346942.736834,0.000000,0.000000,1.000000,0.000000,0.000000,0.000000,0.000000,4.420833,15.205196,-0.207847
1649346942.835652,28564.000000,1649346942.834972,0.000000,0.000000,1.000000,0.000000,0.000000,0.000000,0.000000,4.442325,15.197678,-0.137536
1649346942.936639,28565.000000,1649346942.935887,0.000000,0.000000,1.000000,0.000000,0.000000,0.000000,0.000000,4.449256,15.194978,-0.119353
1649346943.035821,28566.000000,1649346943.033978,0.000000,0.000000,1.000000,0.000000,0.000000,0.000000,0.000000,4.462041,15.189208,-0.074608
1649346943.134637,28567.000000,1649346943.134027,0.000000,0.000000,1.000000,0.000000,0.000000,0.000000,0.000000,4.462892,15.188181,-0.072992
1649346943.234807,28568.000000,1649346943.233643,0.000000,0.000000,1.000000,0.000000,0.000000,0.000000,0.000000,4.452477,15.190549,-0.099858
1649346943.337826,28569.000000,1649346943.335475,0.000000,0.000000,1.000000,0.000000,0.000000,0.000000,0.000000,4.453268,15.189573,-0.088681
1649346943.435270,28570.000000,1649346943.434118,0.000000,0.000000,1.000000,0.000000,0.000000,0.000000,0.000000,4.460306,15.186525,-0.049879
1649346943.536827,28571.000000,1649346943.536016,0.000000,0.000000,1.000000,0.000000,0.000000,0.000000,0.000000,4.457977,15.188067,-0.054786
1649346943.633489,28572.000000,1649346943.632848,0.000000,0.000000,1.000000,0.000000,0.000000,0.000000,0.000000,4.445724,15.193941,-0.090333
1649346943.735056,28573.000000,1649346943.734493,0.000000,0.000000,1.000000,0.000000,0.000000,0.000000,0.000000,4.432862,15.200617,-0.143927
1649346943.834225,28574.000000,1649346943.833744,0.000000,0.000000,1.000000,0.000000,0.000000,0.000000,0.000000,4.428199,15.202578,-0.148614
1649346943.934166,28575.000000,1649346943.933479,0.000000,0.000000,1.000000,0.000000,0.000000,0.000000,0.000000,4.430221,15.198982,-0.117648
1649346944.036579,28576.000000,1649346944.035889,0.000000,0.000000,1.000000,0.000000,0.000000,0.000000,0.000000,4.421117,15.201048,-0.109774
1649346944.136383,28577.000000,1649346944.135524,0.000000,0.000000,1.000000,0.000000,0.000000,0.000000,0.000000,4.406981,15.205189,-0.132945
1649346944.240161,28578.000000,1649346944.239507,0.000000,0.000000,1.000000,0.000000,0.000000,0.000000,0.000000,4.387045,15.211278,-0.176187
1649346944.334220,28579.000000,1649346944.333530,0.000000,0.000000,1.000000,0.000000,0.000000,0.000000,0.000000,4.378044,15.211558,-0.174908
1649346944.437246,28580.000000,1649346944.436242,0.000000,0.000000,1.000000,0.000000,0.000000,0.000000,0.000000,4.361965,15.215068,-0.197035
1649346944.535485,28581.000000,1649346944.534760,0.000000,0.000000,1.000000,0.000000,0.000000,0.000000,0.000000,4.343599,15.220534,-0.242395
1649346944.636462,28582.000000,1649346944.635638,0.000000,0.000000,1.000000,0.000000,0.000000,0.000000,0.000000,4.339481,15.221290,-0.242235
1649346944.732850,28583.000000,1649346944.732526,0.000000,0.000000,1.000000,0.000000,0.000000,0.000000,0.000000,4.344475,15.217594,-0.211300
1649346944.836044,28584.000000,1649346944.835237,0.000000,0.000000,1.000000,0.000000,0.000000,0.000000,0.000000,4.344975,15.216246,-0.212984
1649346944.934315,28585.000000,1649346944.932475,0.000000,0.000000,1.000000,0.000000,0.000000,0.000000,0.000000,4.336855,15.219304,-0.234684
1649346945.040335,28586.000000,1649346945.032553,0.000000,0.000000,1.000000,0.000000,0.000000,0.000000,0.000000,4.324964,15.223248,-0.281205
1649346945.134405,28587.000000,1649346945.133976,0.000000,0.000000,1.000000,0.000000,0.000000,0.000000,0.000000,4.308446,15.229112,-0.343406
1649346945.236846,28588.000000,1649346945.235558,0.000000,0.000000,1.000000,0.000000,0.000000,0.000000,0.000000,4.305040,15.230233,-0.349591
1649346945.337040,28589.000000,1649346945.336525,0.000000,0.000000,1.000000,0.000000,0.000000,0.000000,0.000000,4.310761,15.227958,-0.318148
1649346945.439897,28590.000000,1649346945.435190,0.000000,0.000000,1.000000,0.000000,0.000000,0.000000,0.000000,4.323989,15.222485,-0.261949
1649346945.535229,28591.000000,1649346945.533596,0.000000,0.000000,1.000000,0.000000,0.000000,0.000000,0.000000,4.326817,15.222730,-0.248225
1649346945.635293,28592.000000,1649346945.633506,0.000000,0.000000,1.000000,0.000000,0.000000,0.000000,0.000000,4.337241,15.219659,-0.205131
1649346945.733411,28593.000000,1649346945.732839,0.000000,0.000000,1.000000,0.000000,0.000000,0.000000,0.000000,4.338452,15.220009,-0.204089
1649346945.834780,28594.000000,1649346945.834387,0.000000,0.000000,1.000000,0.000000,0.000000,0.000000,0.000000,4.349480,15.215958,-0.168406
1649346945.935021,28595.000000,1649346945.934610,0.000000,0.000000,1.000000,0.000000,0.000000,0.000000,0.000000,4.350125,15.216485,-0.168893
1649346946.033008,28596.000000,1649346946.032296,0.000000,0.000000,1.000000,0.000000,0.000000,0.000000,0.000000,4.358394,15.213705,-0.137961
1649346946.138340,28597.000000,1649346946.135225,0.000000,0.000000,1.000000,0.000000,0.000000,0.000000,0.000000,4.372754,15.207807,-0.083377
1649346946.235966,28598.000000,1649346946.234669,0.000000,0.000000,1.000000,0.000000,0.000000,0.000000,0.000000,4.375383,15.205523,-0.071507
1649346946.338431,28599.000000,1649346946.337883,0.000000,0.000000,1.000000,0.000000,0.000000,0.000000,0.000000,4.385449,15.200120,-0.028059
1649346946.441669,28600.000000,1649346946.440879,0.000000,0.000000,1.000000,0.000000,0.000000,0.000000,0.000000,4.401430,15.193962,0.035143
1649346946.534335,28601.000000,1649346946.533932,0.000000,0.000000,1.000000,0.000000,0.000000,0.000000,0.000000,4.420775,15.187110,0.109952
1649346946.637674,28602.000000,1649346946.636703,0.000000,0.000000,1.000000,0.000000,0.000000,0.000000,0.000000,4.443249,15.178527,0.191753
1649346946.734324,28603.000000,1649346946.733597,0.000000,0.000000,1.000000,0.000000,0.000000,0.000000,0.000000,4.451174,15.175963,0.214019
1649346946.839971,28604.000000,1649346946.837113,0.000000,0.000000,1.000000,0.000000,0.000000,0.000000,0.000000,4.466049,15.171461,0.260587
1649346946.932522,28605.000000,1649346946.932230,0.000000,0.000000,1.000000,0.000000,0.000000,0.000000,0.000000,4.468927,15.171676,0.258650
1649346947.033247,28606.000000,1649346947.032904,0.000000,0.000000,1.000000,0.000000,0.000000,0.000000,0.000000,4.463739,15.175254,0.219871
1649346947.133023,28607.000000,1649346947.132434,0.000000,0.000000,1.000000,0.000000,0.000000,0.000000,0.000000,4.466222,15.175453,0.221635
1649346947.237213,28608.000000,1649346947.236193,0.000000,0.000000,1.000000,0.000000,0.000000,0.000000,0.000000,4.473785,15.172450,0.250229
1649346947.334939,28609.000000,1649346947.334090,0.000000,0.000000,1.000000,0.000000,0.000000,0.000000,0.000000,4.469784,15.174058,0.237611
1649346947.439098,28610.000000,1649346947.438308,0.000000,0.000000,1.000000,0.000000,0.000000,0.000000,0.000000,4.455966,15.177834,0.191937
1649346947.537053,28611.000000,1649346947.535737,0.000000,0.000000,1.000000,0.000000,0.000000,0.000000,0.000000,4.452550,15.178193,0.179960
1649346947.635813,28612.000000,1649346947.634333,0.000000,0.000000,1.000000,0.000000,0.000000,0.000000,0.000000,4.441544,15.181858,0.139070
1649346947.733398,28613.000000,1649346947.732917,0.000000,0.000000,1.000000,0.000000,0.000000,0.000000,0.000000,4.444120,15.181002,0.135838
1649346947.833428,28614.000000,1649346947.832805,0.000000,0.000000,1.000000,0.000000,0.000000,0.000000,0.000000,4.452994,15.182414,0.108281
1649346947.937375,28615.000000,1649346947.936752,0.000000,0.000000,1.000000,0.000000,0.000000,0.000000,0.000000,4.467802,15.180512,0.120340
1649346948.033281,28616.000000,1649346948.032567,0.000000,0.000000,1.000000,0.000000,0.000000,0.000000,0.000000,4.466373,15.182022,0.096212
1649346948.132523,28617.000000,1649346948.132237,0.000000,0.000000,1.000000,0.000000,0.000000,0.000000,0.000000,4.455058,15.186751,0.048697
1649346948.233096,28618.000000,1649346948.232646,0.000000,0.000000,1.000000,0.000000,0.000000,0.000000,0.000000,4.452975,15.187966,0.041727
1649346948.338031,28619.000000,1649346948.336747,0.000000,0.000000,1.000000,0.000000,0.000000,0.000000,0.000000,4.458545,15.185853,0.064814
1649346948.434219,28620.000000,1649346948.433733,0.000000,0.000000,1.000000,0.000000,0.000000,0.000000,0.000000,4.469157,15.181690,0.110257
1649346948.534432,28621.000000,1649346948.533188,0.000000,0.000000,1.000000,0.000000,0.000000,0.000000,0.000000,4.481239,15.176691,0.165793
1649346948.634785,28622.000000,1649346948.634024,0.000000,0.000000,1.000000,0.000000,0.000000,0.000000,0.000000,4.497950,15.170915,0.237379
1649346948.734269,28623.000000,1649346948.733210,0.000000,0.000000,1.000000,0.000000,0.000000,0.000000,0.000000,4.515726,15.164422,0.316193
1649346948.838085,28624.000000,1649346948.836827,0.000000,0.000000,1.000000,0.000000,0.000000,0.000000,0.000000,4.517017,15.162719,0.339729
1649346948.933978,28625.000000,1649346948.933138,0.000000,0.000000,1.000000,0.000000,0.000000,0.000000,0.000000,4.522358,15.159003,0.382776
1649346949.033602,28626.000000,1649346949.033056,0.000000,0.000000,1.000000,0.000000,0.000000,0.000000,0.000000,4.516262,15.161025,0.375141
1649346949.132761,28627.000000,1649346949.132415,0.000000,0.000000,1.000000,0.000000,0.000000,0.000000,0.000000,4.515739,15.160828,0.401163
1649346949.233354,28628.000000,1649346949.232969,0.000000,0.000000,1.000000,0.000000,0.000000,0.000000,0.000000,4.520501,15.158530,0.446558
1649346949.334472,28629.000000,1649346949.333948,0.000000,0.000000,1.000000,0.000000,0.000000,0.000000,0.000000,4.529164,15.154248,0.505653
1649346949.434222,28630.000000,1649346949.433589,0.000000,0.000000,1.000000,0.000000,0.000000,0.000000,0.000000,4.522965,15.156822,0.507660
1649346949.536837,28631.000000,1649346949.535753,0.000000,0.000000,1.000000,0.000000,0.000000,0.000000,0.000000,4.507106,15.163686,0.467808
1649346949.633619,28632.000000,1649346949.633124,0.000000,0.000000,1.000000,0.000000,0.000000,0.000000,0.000000,4.499621,15.165857,0.460459
1649346949.735351,28633.000000,1649346949.734722,0.000000,0.000000,1.000000,0.000000,0.000000,0.000000,0.000000,4.483727,15.172305,0.419823
1649346949.833166,28634.000000,1649346949.832761,0.000000,0.000000,1.000000,0.000000,0.000000,0.000000,0.000000,4.476295,15.174052,0.413461
1649346949.934161,28635.000000,1649346949.933781,0.000000,0.000000,1.000000,0.000000,0.000000,0.000000,0.000000,4.461624,15.178979,0.367440
1649346950.036244,28636.000000,1649346950.033865,0.000000,0.000000,1.000000,0.000000,0.000000,0.000000,0.000000,4.439063,15.185808,0.300389
1649346950.133467,28637.000000,1649346950.133065,0.000000,0.000000,1.000000,0.000000,0.000000,0.000000,0.000000,4.429830,15.188963,0.278605
1649346950.237161,28638.000000,1649346950.236553,0.000000,0.000000,1.000000,0.000000,0.000000,0.000000,0.000000,4.412505,15.196267,0.223694
1649346950.335039,28639.000000,1649346950.334012,0.000000,0.000000,1.000000,0.000000,0.000000,0.000000,0.000000,4.407201,15.198751,0.207252
1649346950.434093,28640.000000,1649346950.433224,0.000000,0.000000,1.000000,0.000000,0.000000,0.000000,0.000000,4.394735,15.203216,0.157596
1649346950.535387,28641.000000,1649346950.534463,0.000000,0.000000,1.000000,0.000000,0.000000,0.000000,0.000000,4.391881,15.204092,0.145505
1649346950.634877,28642.000000,1649346950.633359,0.000000,0.000000,1.000000,0.000000,0.000000,0.000000,0.000000,4.394841,15.201575,0.166255
1649346950.734113,28643.000000,1649346950.733776,0.000000,0.000000,1.000000,0.000000,0.000000,0.000000,0.000000,4.406548,15.196954,0.210420
1649346950.834000,28644.000000,1649346950.833466,0.000000,0.000000,1.000000,0.000000,0.000000,0.000000,0.000000,4.406852,15.195811,0.203590
1649346950.934069,28645.000000,1649346950.933418,0.000000,0.000000,1.000000,0.000000,0.000000,0.000000,0.000000,4.412721,15.192513,0.225254
1649346951.035198,28646.000000,1649346951.034496,0.000000,0.000000,1.000000,0.000000,0.000000,0.000000,0.000000,4.426005,15.187190,0.267775
1649346951.134647,28647.000000,1649346951.133792,0.000000,0.000000,1.000000,0.000000,0.000000,0.000000,0.000000,4.430989,15.185421,0.268951
1649346951.234588,28648.000000,1649346951.233896,0.000000,0.000000,1.000000,0.000000,0.000000,0.000000,0.000000,4.423743,15.187019,0.229645
1649346951.334307,28649.000000,1649346951.333669,0.000000,0.000000,1.000000,0.000000,0.000000,0.000000,0.000000,4.426763,15.185253,0.226561
1649346951.433914,28650.000000,1649346951.433669,0.000000,0.000000,1.000000,0.000000,0.000000,0.000000,0.000000,4.435114,15.180313,0.244536
1649346951.533030,28651.000000,1649346951.532743,0.000000,0.000000,1.000000,0.000000,0.000000,0.000000,0.000000,4.432123,15.181110,0.218981
1649346951.634480,28652.000000,1649346951.633513,0.000000,0.000000,1.000000,0.000000,0.000000,0.000000,0.000000,4.439131,15.177514,0.226698
1649346951.739210,28653.000000,1649346951.737740,0.000000,0.000000,1.000000,0.000000,0.000000,0.000000,0.000000,4.450120,15.173047,0.256656
1649346951.834167,28654.000000,1649346951.833781,0.000000,0.000000,1.000000,0.000000,0.000000,0.000000,0.000000,4.445211,15.173220,0.241779
1649346951.934372,28655.000000,1649346951.933914,0.000000,0.000000,1.000000,0.000000,0.000000,0.000000,0.000000,4.430740,15.176688,0.200839
1649346952.033374,28656.000000,1649346952.032920,0.000000,0.000000,1.000000,0.000000,0.000000,0.000000,0.000000,4.412725,15.182169,0.131732
1649346952.134843,28657.000000,1649346952.133828,0.000000,0.000000,1.000000,0.000000,0.000000,0.000000,0.000000,4.407770,15.182991,0.110709
1649346952.233891,28658.000000,1649346952.233299,0.000000,0.000000,1.000000,0.000000,0.000000,0.000000,0.000000,4.394458,15.187039,0.063282
1649346952.334331,28659.000000,1649346952.333529,0.000000,0.000000,1.000000,0.000000,0.000000,0.000000,0.000000,4.393997,15.187582,0.056717
1649346952.435367,28660.000000,1649346952.434959,0.000000,0.000000,1.000000,0.000000,0.000000,0.000000,0.000000,4.383874,15.191352,0.023240
1649346952.533862,28661.000000,1649346952.533300,0.000000,0.000000,1.000000,0.000000,0.000000,0.000000,0.000000,4.366820,15.197072,-0.037632
1649346952.636735,28662.000000,1649346952.636132,0.000000,0.000000,1.000000,0.000000,0.000000,0.000000,0.000000,4.346529,15.204619,-0.110187
1649346952.735301,28663.000000,1649346952.734429,0.000000,0.000000,1.000000,0.000000,0.000000,0.000000,0.000000,4.327591,15.212782,-0.197073
1649346952.834274,28664.000000,1649346952.833733,0.000000,0.000000,1.000000,0.000000,0.000000,0.000000,0.000000,4.305616,15.220416,-0.288715
1649346952.934311,28665.000000,1649346952.932685,0.000000,0.000000,1.000000,0.000000,0.000000,0.000000,0.000000,4.296089,15.223167,-0.322693
1649346953.034466,28666.000000,1649346953.032766,0.000000,0.000000,1.000000,0.000000,0.000000,0.000000,0.000000,4.283074,15.228932,-0.375501
1649346953.132446,28667.000000,1649346953.132233,0.000000,0.000000,1.000000,0.000000,0.000000,0.000000,0.000000,4.270054,15.234265,-0.444708
1649346953.235930,28668.000000,1649346953.234542,0.000000,0.000000,1.000000,0.000000,0.000000,0.000000,0.000000,4.273404,15.234816,-0.457796
1649346953.335393,28669.000000,1649346953.334106,0.000000,0.000000,1.000000,0.000000,0.000000,0.000000,0.000000,4.268211,15.237395,-0.490432
1649346953.436562,28670.000000,1649346953.435447,0.000000,0.000000,1.000000,0.000000,0.000000,0.000000,0.000000,4.275652,15.235347,-0.478098
1649346953.533195,28671.000000,1649346953.532927,0.000000,0.000000,1.000000,0.000000,0.000000,0.000000,0.000000,4.274279,15.236571,-0.496055
1649346953.634234,28672.000000,1649346953.633804,0.000000,0.000000,1.000000,0.000000,0.000000,0.000000,0.000000,4.284184,15.234350,-0.475345
1649346953.735248,28673.000000,1649346953.734490,0.000000,0.000000,1.000000,0.000000,0.000000,0.000000,0.000000,4.285077,15.234335,-0.482920
1649346953.836084,28674.000000,1649346953.835194,0.000000,0.000000,1.000000,0.000000,0.000000,0.000000,0.000000,4.279613,15.237503,-0.511207
1649346953.935811,28675.000000,1649346953.934879,0.000000,0.000000,1.000000,0.000000,0.000000,0.000000,0.000000,4.269233,15.242584,-0.560163
1649346954.033713,28676.000000,1649346954.033345,0.000000,0.000000,1.000000,0.000000,0.000000,0.000000,0.000000,4.255314,15.247285,-0.622452
1649346954.137199,28677.000000,1649346954.136086,0.000000,0.000000,1.000000,0.000000,0.000000,0.000000,0.000000,4.257703,15.246163,-0.629723
1649346954.238530,28678.000000,1649346954.237795,0.000000,0.000000,1.000000,0.000000,0.000000,0.000000,0.000000,4.253682,15.247180,-0.657606
1649346954.337238,28679.000000,1649346954.335990,0.000000,0.000000,1.000000,0.000000,0.000000,0.000000,0.000000,4.265404,15.243680,-0.635906
1649346954.433169,28680.000000,1649346954.432870,0.000000,0.000000,1.000000,0.000000,0.000000,0.000000,0.000000,4.285418,15.237015,-0.582016
1649346954.541463,28681.000000,1649346954.539186,0.000000,0.000000,1.000000,0.000000,0.000000,0.000000,0.000000,4.308836,15.227384,-0.499779
1649346954.640392,28682.000000,1649346954.638634,0.000000,0.000000,1.000000,0.000000,0.000000,0.000000,0.000000,4.326668,15.221525,-0.462280
1649346954.736890,28683.000000,1649346954.736090,0.000000,0.000000,1.000000,0.000000,0.000000,0.000000,0.000000,4.347881,15.212709,-0.400865
1649346954.833344,28684.000000,1649346954.833069,0.000000,0.000000,1.000000,0.000000,0.000000,0.000000,0.000000,4.372227,15.203306,-0.322265
1649346954.932988,28685.000000,1649346954.932652,0.000000,0.000000,1.000000,0.000000,0.000000,0.000000,0.000000,4.398370,15.193377,-0.229739
1649346955.035458,28686.000000,1649346955.034063,0.000000,0.000000,1.000000,0.000000,0.000000,0.000000,0.000000,4.410875,15.189520,-0.190946
1649346955.141835,28687.000000,1649346955.141058,0.000000,0.000000,1.000000,0.000000,0.000000,0.000000,0.000000,4.411547,15.190323,-0.191690
1649346955.234315,28688.000000,1649346955.233792,0.000000,0.000000,1.000000,0.000000,0.000000,0.000000,0.000000,4.421760,15.187891,-0.156180
1649346955.333834,28689.000000,1649346955.333345,0.000000,0.000000,1.000000,0.000000,0.000000,0.000000,0.000000,4.438797,15.182404,-0.096418
1649346955.432915,28690.000000,1649346955.432495,0.000000,0.000000,1.000000,0.000000,0.000000,0.000000,0.000000,4.442618,15.181672,-0.085252
1649346955.534325,28691.000000,1649346955.533813,0.000000,0.000000,1.000000,0.000000,0.000000,0.000000,0.000000,4.435040,15.185434,-0.104604
1649346955.634100,28692.000000,1649346955.633770,0.000000,0.000000,1.000000,0.000000,0.000000,0.000000,0.000000,4.422174,15.191247,-0.151589
1649346955.733255,28693.000000,1649346955.732888,0.000000,0.000000,1.000000,0.000000,0.000000,0.000000,0.000000,4.419631,15.191345,-0.150812
1649346955.836854,28694.000000,1649346955.835435,0.000000,0.000000,1.000000,0.000000,0.000000,0.000000,0.000000,4.411600,15.194757,-0.178388
1649346955.934265,28695.000000,1649346955.933440,0.000000,0.000000,1.000000,0.000000,0.000000,0.000000,0.000000,4.398417,15.199109,-0.225866
1649346956.037129,28696.000000,1649346956.036358,0.000000,0.000000,1.000000,0.000000,0.000000,0.000000,0.000000,4.394587,15.199973,-0.223007
1649346956.135927,28697.000000,1649346956.134959,0.000000,0.000000,1.000000,0.000000,0.000000,0.000000,0.000000,4.398526,15.197534,-0.187167
1649346956.236493,28698.000000,1649346956.235729,0.000000,0.000000,1.000000,0.000000,0.000000,0.000000,0.000000,4.408713,15.193071,-0.127804
1649346956.333433,28699.000000,1649346956.332844,0.000000,0.000000,1.000000,0.000000,0.000000,0.000000,0.000000,4.423689,15.187795,-0.048383
1649346956.435740,28700.000000,1649346956.434613,0.000000,0.000000,1.000000,0.000000,0.000000,0.000000,0.000000,4.439883,15.180676,0.040479
1649346956.534603,28701.000000,1649346956.533937,0.000000,0.000000,1.000000,0.000000,0.000000,0.000000,0.000000,4.440829,15.179467,0.076167
1649346956.636261,28702.000000,1649346956.634692,0.000000,0.000000,1.000000,0.000000,0.000000,0.000000,0.000000,4.450263,15.175121,0.130134
1649346956.737136,28703.000000,1649346956.736262,0.000000,0.000000,1.000000,0.000000,0.000000,0.000000,0.000000,4.449169,15.175453,0.134635
1649346956.835097,28704.000000,1649346956.834280,0.000000,0.000000,1.000000,0.000000,0.000000,0.000000,0.000000,4.453399,15.172569,0.166678
1649346956.932498,28705.000000,1649346956.932230,0.000000,0.000000,1.000000,0.000000,0.000000,0.000000,0.000000,4.460480,15.168830,0.218668
1649346957.037281,28706.000000,1649346957.036399,0.000000,0.000000,1.000000,0.000000,0.000000,0.000000,0.000000,4.457162,15.169742,0.219575
1649346957.137681,28707.000000,1649346957.136207,0.000000,0.000000,1.000000,0.000000,0.000000,0.000000,0.000000,4.462569,15.167410,0.251319
1649346957.237138,28708.000000,1649346957.235962,0.000000,0.000000,1.000000,0.000000,0.000000,0.000000,0.000000,4.454412,15.169648,0.239241
1649346957.332736,28709.000000,1649346957.332455,0.000000,0.000000,1.000000,0.000000,0.000000,0.000000,0.000000,4.453092,15.169652,0.260959
1649346957.433516,28710.000000,1649346957.432852,0.000000,0.000000,1.000000,0.000000,0.000000,0.000000,0.000000,4.445165,15.171902,0.238486
1649346957.536083,28711.000000,1649346957.534879,0.000000,0.000000,1.000000,0.000000,0.000000,0.000000,0.000000,4.444109,15.171902,0.251085
1649346957.633712,28712.000000,1649346957.633310,0.000000,0.000000,1.000000,0.000000,0.000000,0.000000,0.000000,4.450650,15.168682,0.291696
1649346957.737094,28713.000000,1649346957.736450,0.000000,0.000000,1.000000,0.000000,0.000000,0.000000,0.000000,4.459996,15.164605,0.343820
1649346957.833327,28714.000000,1649346957.832957,0.000000,0.000000,1.000000,0.000000,0.000000,0.000000,0.000000,4.456706,15.165179,0.344832
1649346957.934063,28715.000000,1649346957.933593,0.000000,0.000000,1.000000,0.000000,0.000000,0.000000,0.000000,4.458933,15.162513,0.372624
1649346958.036182,28716.000000,1649346958.035120,0.000000,0.000000,1.000000,0.000000,0.000000,0.000000,0.000000,4.467466,15.158969,0.420448
1649346958.137821,28717.000000,1649346958.135378,0.000000,0.000000,1.000000,0.000000,0.000000,0.000000,0.000000,4.463405,15.161143,0.415668
1649346958.239974,28718.000000,1649346958.238518,0.000000,0.000000,1.000000,0.000000,0.000000,0.000000,0.000000,4.451818,15.165443,0.374956
1649346958.340124,28719.000000,1649346958.338950,0.000000,0.000000,1.000000,0.000000,0.000000,0.000000,0.000000,4.434249,15.172825,0.308728
1649346958.434130,28720.000000,1649346958.433699,0.000000,0.000000,1.000000,0.000000,0.000000,0.000000,0.000000,4.428528,15.175464,0.290729
1649346958.535576,28721.000000,1649346958.534292,0.000000,0.000000,1.000000,0.000000,0.000000,0.000000,0.000000,4.430759,15.174698,0.298094
1649346958.637141,28722.000000,1649346958.636628,0.000000,0.000000,1.000000,0.000000,0.000000,0.000000,0.000000,4.423054,15.178348,0.266094
1649346958.736035,28723.000000,1649346958.735593,0.000000,0.000000,1.000000,0.000000,0.000000,0.000000,0.000000,4.424515,15.178528,0.270579
1649346958.836905,28724.000000,1649346958.835243,0.000000,0.000000,1.000000,0.000000,0.000000,0.000000,0.000000,4.417192,15.181968,0.233469
1649346958.934693,28725.000000,1649346958.932760,0.000000,0.000000,1.000000,0.000000,0.000000,0.000000,0.000000,4.403764,15.187391,0.170225
1649346959.034635,28726.000000,1649346959.033987,0.000000,0.000000,1.000000,0.000000,0.000000,0.000000,0.000000,4.398781,15.189219,0.148147
1649346959.138071,28727.000000,1649346959.137340,0.000000,0.000000,1.000000,0.000000,0.000000,0.000000,0.000000,4.388708,15.193097,0.093842
1649346959.233900,28728.000000,1649346959.233386,0.000000,0.000000,1.000000,0.000000,0.000000,0.000000,0.000000,4.373849,15.198901,0.018380
1649346959.338671,28729.000000,1649346959.337737,0.000000,0.000000,1.000000,0.000000,0.000000,0.000000,0.000000,4.373041,15.199970,-0.008711
1649346959.432709,28730.000000,1649346959.432446,0.000000,0.000000,1.000000,0.000000,0.000000,0.000000,0.000000,4.365886,15.203104,-0.063535
1649346959.537438,28731.000000,1649346959.533344,0.000000,0.000000,1.000000,0.000000,0.000000,0.000000,0.000000,4.370189,15.201640,-0.075535
1649346959.635897,28732.000000,1649346959.635087,0.000000,0.000000,1.000000,0.000000,0.000000,0.000000,0.000000,4.383122,15.196929,-0.056913
1649346959.734740,28733.000000,1649346959.733245,0.000000,0.000000,1.000000,0.000000,0.000000,0.000000,0.000000,4.384540,15.197888,-0.078303
1649346959.836070,28734.000000,1649346959.835348,0.000000,0.000000,1.000000,0.000000,0.000000,0.000000,0.000000,4.395777,15.194394,-0.067098
1649346959.935355,28735.000000,1649346959.934747,0.000000,0.000000,1.000000,0.000000,0.000000,0.000000,0.000000,4.411896,15.188884,-0.030288
1649346960.032815,28736.000000,1649346960.032209,0.000000,0.000000,1.000000,0.000000,0.000000,0.000000,0.000000,4.429308,15.182577,0.028602
1649346960.132642,28737.000000,1649346960.132094,0.000000,0.000000,1.000000,0.000000,0.000000,0.000000,0.000000,4.431531,15.180988,0.037608
1649346960.233998,28738.000000,1649346960.233407,0.000000,0.000000,1.000000,0.000000,0.000000,0.000000,0.000000,4.440107,15.177323,0.073722
1649346960.340631,28739.000000,1649346960.339717,0.000000,0.000000,1.000000,0.000000,0.000000,0.000000,0.000000,4.452487,15.171704,0.128530
1649346960.434597,28740.000000,1649346960.434201,0.000000,0.000000,1.000000,0.000000,0.000000,0.000000,0.000000,4.457525,15.169707,0.141509
1649346960.538720,28741.000000,1649346960.537885,0.000000,0.000000,1.000000,0.000000,0.000000,0.000000,0.000000,4.466517,15.165686,0.180455
1649346960.636347,28742.000000,1649346960.634481,0.000000,0.000000,1.000000,0.000000,0.000000,0.000000,0.000000,4.479227,15.159761,0.235391
1649346960.737117,28743.000000,1649346960.734659,0.000000,0.000000,1.000000,0.000000,0.000000,0.000000,0.000000,4.477974,15.159683,0.236232
1649346960.835046,28744.000000,1649346960.834430,0.000000,0.000000,1.000000,0.000000,0.000000,0.000000,0.000000,4.465715,15.162950,0.206135
1649346960.935658,28745.000000,1649346960.934548,0.000000,0.000000,1.000000,0.000000,0.000000,0.000000,0.000000,4.463815,15.162823,0.216571
1649346961.033689,28746.000000,1649346961.032991,0.000000,0.000000,1.000000,0.000000,0.000000,0.000000,0.000000,4.470633,15.160574,0.248154
1649346961.134625,28747.000000,1649346961.134388,0.000000,0.000000,1.000000,0.000000,0.000000,0.000000,0.000000,4.467141,15.162866,0.235472
1649346961.236310,28748.000000,1649346961.235533,0.000000,0.000000,1.000000,0.000000,0.000000,0.000000,0.000000,4.469186,15.162897,0.249694
1649346961.334934,28749.000000,1649346961.334483,0.000000,0.000000,1.000000,0.000000,0.000000,0.000000,0.000000,4.474284,15.159699,0.283272
1649346961.432673,28750.000000,1649346961.432317,0.000000,0.000000,1.000000,0.000000,0.000000,0.000000,0.000000,4.466993,15.162177,0.267634
1649346961.536502,28751.000000,1649346961.535679,0.000000,0.000000,1.000000,0.000000,0.000000,0.000000,0.000000,4.453471,15.166741,0.220932
1649346961.634885,28752.000000,1649346961.634213,0.000000,0.000000,1.000000,0.000000,0.000000,0.000000,0.000000,4.448279,15.168899,0.213863
1649346961.735850,28753.000000,1649346961.734589,0.000000,0.000000,1.000000,0.000000,0.000000,0.000000,0.000000,4.452072,15.167683,0.234363
1649346961.834368,28754.000000,1649346961.833632,0.000000,0.000000,1.000000,0.000000,0.000000,0.000000,0.000000,4.459989,15.164370,0.274842
1649346961.935004,28755.000000,1649346961.934423,0.000000,0.000000,1.000000,0.000000,0.000000,0.000000,0.000000,4.457607,15.165627,0.266688
1649346962.041399,28756.000000,1649346962.040540,0.000000,0.000000,1.000000,0.000000,0.000000,0.000000,0.000000,4.459672,15.164657,0.283662
1649346962.132720,28757.000000,1649346962.132269,0.000000,0.000000,1.000000,0.000000,0.000000,0.000000,0.000000,4.467029,15.161582,0.322309
1649346962.234910,28758.000000,1649346962.234190,0.000000,0.000000,1.000000,0.000000,0.000000,0.000000,0.000000,4.459743,15.164159,0.318797
1649346962.338674,28759.000000,1649346962.337749,0.000000,0.000000,1.000000,0.000000,0.000000,0.000000,0.000000,4.461535,15.163346,0.340973
1649346962.437541,28760.000000,1649346962.436627,0.000000,0.000000,1.000000,0.000000,0.000000,0.000000,0.000000,4.467546,15.161510,0.381321
1649346962.533741,28761.000000,1649346962.533289,0.000000,0.000000,1.000000,0.000000,0.000000,0.000000,0.000000,4.476440,15.157622,0.432603
1649346962.633677,28762.000000,1649346962.633116,0.000000,0.000000,1.000000,0.000000,0.000000,0.000000,0.000000,4.476042,15.160525,0.427369
1649346962.733762,28763.000000,1649346962.733480,0.000000,0.000000,1.000000,0.000000,0.000000,0.000000,0.000000,4.482128,15.160027,0.439698
1649346962.833020,28764.000000,1649346962.832633,0.000000,0.000000,1.000000,0.000000,0.000000,0.000000,0.000000,4.494331,15.157402,0.471297
1649346962.937124,28765.000000,1649346962.936345,0.000000,0.000000,1.000000,0.000000,0.000000,0.000000,0.000000,4.511194,15.152773,0.516513
1649346963.037880,28766.000000,1649346963.037228,0.000000,0.000000,1.000000,0.000000,0.000000,0.000000,0.000000,4.528057,15.147352,0.571513
1649346963.138845,28767.000000,1649346963.138148,0.000000,0.000000,1.000000,0.000000,0.000000,0.000000,0.000000,4.544876,15.141196,0.636637
1649346963.235849,28768.000000,1649346963.235071,0.000000,0.000000,1.000000,0.000000,0.000000,0.000000,0.000000,4.543076,15.140905,0.638003
1649346963.335266,28769.000000,1649346963.334438,0.000000,0.000000,1.000000,0.000000,0.000000,0.000000,0.000000,4.534597,15.142883,0.611269
1649346963.434805,28770.000000,1649346963.434197,0.000000,0.000000,1.000000,0.000000,0.000000,0.000000,0.000000,4.532926,15.142636,0.617318
1649346963.539029,28771.000000,1649346963.536398,0.000000,0.000000,1.000000,0.000000,0.000000,0.000000,0.000000,4.519173,15.147914,0.579035
1649346963.633613,28772.000000,1649346963.632971,0.000000,0.000000,1.000000,0.000000,0.000000,0.000000,0.000000,4.516947,15.148582,0.574100
1649346963.732807,28773.000000,1649346963.732238,0.000000,0.000000,1.000000,0.000000,0.000000,0.000000,0.000000,4.502738,15.153611,0.527004
1649346963.833933,28774.000000,1649346963.833415,0.000000,0.000000,1.000000,0.000000,0.000000,0.000000,0.000000,4.480519,15.161655,0.473414
1649346963.933992,28775.000000,1649346963.933677,0.000000,0.000000,1.000000,0.000000,0.000000,0.000000,0.000000,4.452982,15.171432,0.394342
1649346964.036166,28776.000000,1649346964.035567,0.000000,0.000000,1.000000,0.000000,0.000000,0.000000,0.000000,4.440129,15.176276,0.362732
1649346964.135700,28777.000000,1649346964.134771,0.000000,0.000000,1.000000,0.000000,0.000000,0.000000,0.000000,4.420478,15.185166,0.296890
1649346964.234825,28778.000000,1649346964.233395,0.000000,0.000000,1.000000,0.000000,0.000000,0.000000,0.000000,4.414079,15.188043,0.274922
1649346964.332976,28779.000000,1649346964.332582,0.000000,0.000000,1.000000,0.000000,0.000000,0.000000,0.000000,4.414770,15.187410,0.285414
1649346964.433948,28780.000000,1649346964.433523,0.000000,0.000000,1.000000,0.000000,0.000000,0.000000,0.000000,4.419968,15.184555,0.316552
1649346964.535640,28781.000000,1649346964.534957,0.000000,0.000000,1.000000,0.000000,0.000000,0.000000,0.000000,4.431582,15.179614,0.360995
1649346964.639715,28782.000000,1649346964.637581,0.000000,0.000000,1.000000,0.000000,0.000000,0.000000,0.000000,4.429590,15.180351,0.349581
1649346964.733505,28783.000000,1649346964.733228,0.000000,0.000000,1.000000,0.000000,0.000000,0.000000,0.000000,4.423457,15.183186,0.311195
1649346964.834432,28784.000000,1649346964.833966,0.000000,0.000000,1.000000,0.000000,0.000000,0.000000,0.000000,4.411240,15.187999,0.240537
1649346964.939331,28785.000000,1649346964.938671,0.000000,0.000000,1.000000,0.000000,0.000000,0.000000,0.000000,4.393301,15.195760,0.158382
1649346965.035126,28786.000000,1649346965.034354,0.000000,0.000000,1.000000,0.000000,0.000000,0.000000,0.000000,4.372181,15.204106,0.058873
1649346965.132534,28787.000000,1649346965.132241,0.000000,0.000000,1.000000,0.000000,0.000000,0.000000,0.000000,4.347017,15.214074,-0.049071
1649346965.233826,28788.000000,1649346965.233354,0.000000,0.000000,1.000000,0.000000,0.000000,0.000000,0.000000,4.336630,15.217919,-0.094783
1649346965.336853,28789.000000,1649346965.336113,0.000000,0.000000,1.000000,0.000000,0.000000,0.000000,0.000000,4.319513,15.224691,-0.158140
1649346965.434715,28790.000000,1649346965.433958,0.000000,0.000000,1.000000,0.000000,0.000000,0.000000,0.000000,4.316784,15.226586,-0.171416
1649346965.538948,28791.000000,1649346965.534940,0.000000,0.000000,1.000000,0.000000,0.000000,0.000000,0.000000,4.322194,15.226052,-0.148736
1649346965.632831,28792.000000,1649346965.632414,0.000000,0.000000,1.000000,0.000000,0.000000,0.000000,0.000000,4.335262,15.221050,-0.102908
1649346965.736962,28793.000000,1649346965.734512,0.000000,0.000000,1.000000,0.000000,0.000000,0.000000,0.000000,4.339156,15.219481,-0.106747
1649346965.834735,28794.000000,1649346965.834137,0.000000,0.000000,1.000000,0.000000,0.000000,0.000000,0.000000,4.338709,15.221169,-0.136494
1649346965.934579,28795.000000,1649346965.933519,0.000000,0.000000,1.000000,0.000000,0.000000,0.000000,0.000000,4.331966,15.224846,-0.191077
1649346966.034231,28796.000000,1649346966.033343,0.000000,0.000000,1.000000,0.000000,0.000000,0.000000,0.000000,4.320368,15.230398,-0.264588
1649346966.132885,28797.000000,1649346966.132489,0.000000,0.000000,1.000000,0.000000,0.000000,0.000000,0.000000,4.304203,15.236622,-0.343263
1649346966.235499,28798.000000,1649346966.233969,0.000000,0.000000,1.000000,0.000000,0.000000,0.000000,0.000000,4.282665,15.244557,-0.424374
1649346966.336266,28799.000000,1649346966.336038,0.000000,0.000000,1.000000,0.000000,0.000000,0.000000,0.000000,4.261551,15.251914,-0.509332
1649346966.433670,28800.000000,1649346966.433223,0.000000,0.000000,1.000000,0.000000,0.000000,0.000000,0.000000,4.241974,15.258708,-0.601104
1649346966.537618,28801.000000,1649346966.536943,0.000000,0.000000,1.000000,0.000000,0.000000,0.000000,0.000000,4.236974,15.259506,-0.633175
1649346966.635350,28802.000000,1649346966.634521,0.000000,0.000000,1.000000,0.000000,0.000000,0.000000,0.000000,4.229394,15.261184,-0.684558
1649346966.736283,28803.000000,1649346966.735502,0.000000,0.000000,1.000000,0.000000,0.000000,0.000000,0.000000,4.219373,15.264790,-0.742341
1649346966.836214,28804.000000,1649346966.835404,0.000000,0.000000,1.000000,0.000000,0.000000,0.000000,0.000000,4.220135,15.262584,-0.744122
1649346966.934155,28805.000000,1649346966.933072,0.000000,0.000000,1.000000,0.000000,0.000000,0.000000,0.000000,4.231068,15.257079,-0.707529
1649346967.034674,28806.000000,1649346967.034102,0.000000,0.000000,1.000000,0.000000,0.000000,0.000000,0.000000,4.236294,15.255024,-0.708417
1649346967.136129,28807.000000,1649346967.135668,0.000000,0.000000,1.000000,0.000000,0.000000,0.000000,0.000000,4.253534,15.248610,-0.671124
1649346967.234527,28808.000000,1649346967.233569,0.000000,0.000000,1.000000,0.000000,0.000000,0.000000,0.000000,4.278791,15.240284,-0.607781
1649346967.334548,28809.000000,1649346967.334115,0.000000,0.000000,1.000000,0.000000,0.000000,0.000000,0.000000,4.308263,15.230179,-0.521198
1649346967.433448,28810.000000,1649346967.432935,0.000000,0.000000,1.000000,0.000000,0.000000,0.000000,0.000000,4.335079,15.219519,-0.419749
1649346967.537384,28811.000000,1649346967.536159,0.000000,0.000000,1.000000,0.000000,0.000000,0.000000,0.000000,4.362567,15.208367,-0.311490
1649346967.632832,28812.000000,1649346967.632375,0.000000,0.000000,1.000000,0.000000,0.000000,0.000000,0.000000,4.372070,15.202236,-0.263832
1649346967.732935,28813.000000,1649346967.732530,0.000000,0.000000,1.000000,0.000000,0.000000,0.000000,0.000000,4.386353,15.195418,-0.196196
1649346967.835053,28814.000000,1649346967.833894,0.000000,0.000000,1.000000,0.000000,0.000000,0.000000,0.000000,4.389855,15.193419,-0.178862
1649346967.935198,28815.000000,1649346967.934414,0.000000,0.000000,1.000000,0.000000,0.000000,0.000000,0.000000,4.400608,15.187255,-0.134027
1649346968.035602,28816.000000,1649346968.034964,0.000000,0.000000,1.000000,0.000000,0.000000,0.000000,0.000000,4.419286,15.178257,-0.066905
1649346968.133101,28817.000000,1649346968.132548,0.000000,0.000000,1.000000,0.000000,0.000000,0.000000,0.000000,4.429054,15.174236,-0.034149
1649346968.238172,28818.000000,1649346968.237063,0.000000,0.000000,1.000000,0.000000,0.000000,0.000000,0.000000,4.442376,15.169473,0.017998
1649346968.336540,28819.000000,1649346968.335957,0.000000,0.000000,1.000000,0.000000,0.000000,0.000000,0.000000,4.441587,15.169468,0.026579
1649346968.441864,28820.000000,1649346968.437584,0.000000,0.000000,1.000000,0.000000,0.000000,0.000000,0.000000,4.437287,15.170683,0.012706
1649346968.534874,28821.000000,1649346968.534084,0.000000,0.000000,1.000000,0.000000,0.000000,0.000000,0.000000,4.441694,15.169770,0.032966
1649346968.634863,28822.000000,1649346968.634263,0.000000,0.000000,1.000000,0.000000,0.000000,0.000000,0.000000,4.452151,15.165750,0.074672
1649346968.736779,28823.000000,1649346968.735939,0.000000,0.000000,1.000000,0.000000,0.000000,0.000000,0.000000,4.448685,15.166430,0.076417
1649346968.833950,28824.000000,1649346968.833355,0.000000,0.000000,1.000000,0.000000,0.000000,0.000000,0.000000,4.450616,15.165003,0.106760
1649346968.936129,28825.000000,1649346968.935491,0.000000,0.000000,1.000000,0.000000,0.000000,0.000000,0.000000,4.459840,15.161583,0.158869
1649346969.035475,28826.000000,1649346969.035020,0.000000,0.000000,1.000000,0.000000,0.000000,0.000000,0.000000,4.474853,15.156282,0.224535
1649346969.135698,28827.000000,1649346969.134340,0.000000,0.000000,1.000000,0.000000,0.000000,0.000000,0.000000,4.474590,15.156846,0.235379
1649346969.233860,28828.000000,1649346969.233068,0.000000,0.000000,1.000000,0.000000,0.000000,0.000000,0.000000,4.481707,15.155313,0.268615
1649346969.337365,28829.000000,1649346969.336490,0.000000,0.000000,1.000000,0.000000,0.000000,0.000000,0.000000,4.492526,15.151796,0.324115
1649346969.433968,28830.000000,1649346969.433040,0.000000,0.000000,1.000000,0.000000,0.000000,0.000000,0.000000,4.495921,15.151860,0.342042
1649346969.537006,28831.000000,1649346969.535664,0.000000,0.000000,1.000000,0.000000,0.000000,0.000000,0.000000,4.507568,15.148759,0.383583
1649346969.637815,28832.000000,1649346969.637105,0.000000,0.000000,1.000000,0.000000,0.000000,0.000000,0.000000,4.521547,15.144851,0.443713
1649346969.735360,28833.000000,1649346969.734602,0.000000,0.000000,1.000000,0.000000,0.000000,0.000000,0.000000,4.536613,15.140185,0.510320
1649346969.833803,28834.000000,1649346969.833337,0.000000,0.000000,1.000000,0.000000,0.000000,0.000000,0.000000,4.550498,15.135901,0.587095
1649346969.935758,28835.000000,1649346969.935221,0.000000,0.000000,1.000000,0.000000,0.000000,0.000000,0.000000,4.552340,15.135256,0.610630
1649346970.034819,28836.000000,1649346970.033632,0.000000,0.000000,1.000000,0.000000,0.000000,0.000000,0.000000,4.543901,15.140225,0.584684
1649346970.133220,28837.000000,1649346970.132791,0.000000,0.000000,1.000000,0.000000,0.000000,0.000000,0.000000,4.544325,15.141758,0.587948
1649346970.239347,28838.000000,1649346970.238407,0.000000,0.000000,1.000000,0.000000,0.000000,0.000000,0.000000,4.533521,15.146572,0.549115
1649346970.339262,28839.000000,1649346970.338528,0.000000,0.000000,1.000000,0.000000,0.000000,0.000000,0.000000,4.512150,15.155559,0.490144
1649346970.438483,28840.000000,1649346970.437119,0.000000,0.000000,1.000000,0.000000,0.000000,0.000000,0.000000,4.483052,15.166278,0.411170
1649346970.534001,28841.000000,1649346970.533501,0.000000,0.000000,1.000000,0.000000,0.000000,0.000000,0.000000,4.454381,15.170967,0.358322
1649346970.641283,28842.000000,1649346970.640193,0.000000,0.000000,1.000000,0.000000,0.000000,0.000000,0.000000,4.422937,15.177570,0.280653
1649346970.737694,28843.000000,1649346970.736618,0.000000,0.000000,1.000000,0.000000,0.000000,0.000000,0.000000,4.408595,15.179422,0.249472
1649346970.836960,28844.000000,1649346970.836139,0.000000,0.000000,1.000000,0.000000,0.000000,0.000000,0.000000,4.402829,15.178958,0.256515
1649346970.937039,28845.000000,1649346970.936270,0.000000,0.000000,1.000000,0.000000,0.000000,0.000000,0.000000,4.407361,15.176307,0.292976
1649346971.033847,28846.000000,1649346971.033262,0.000000,0.000000,1.000000,0.000000,0.000000,0.000000,0.000000,4.401981,15.177051,0.280193
1649346971.133860,28847.000000,1649346971.133488,0.000000,0.000000,1.000000,0.000000,0.000000,0.000000,0.000000,4.388325,15.182094,0.237118
1649346971.235837,28848.000000,1649346971.234765,0.000000,0.000000,1.000000,0.000000,0.000000,0.000000,0.000000,4.384326,15.182464,0.232793
1649346971.334942,28849.000000,1649346971.333364,0.000000,0.000000,1.000000,0.000000,0.000000,0.000000,0.000000,4.388368,15.180597,0.251150
1649346971.432738,28850.000000,1649346971.432432,0.000000,0.000000,1.000000,0.000000,0.000000,0.000000,0.000000,4.398900,15.176623,0.291248
1649346971.533385,28851.000000,1649346971.532837,0.000000,0.000000,1.000000,0.000000,0.000000,0.000000,0.000000,4.399169,15.177214,0.279565
1649346971.639932,28852.000000,1649346971.638721,0.000000,0.000000,1.000000,0.000000,0.000000,0.000000,0.000000,4.406082,15.175578,0.300474
1649346971.735511,28853.000000,1649346971.733536,0.000000,0.000000,1.000000,0.000000,0.000000,0.000000,0.000000,4.402892,15.178383,0.281664
1649346971.834224,28854.000000,1649346971.833622,0.000000,0.000000,1.000000,0.000000,0.000000,0.000000,0.000000,4.393428,15.184289,0.227999
1649346971.935421,28855.000000,1649346971.934841,0.000000,0.000000,1.000000,0.000000,0.000000,0.000000,0.000000,4.375873,15.193110,0.152272
1649346972.032982,28856.000000,1649346972.032372,0.000000,0.000000,1.000000,0.000000,0.000000,0.000000,0.000000,4.355078,15.202481,0.061953
1649346972.133391,28857.000000,1649346972.132934,0.000000,0.000000,1.000000,0.000000,0.000000,0.000000,0.000000,4.334548,15.211255,-0.038995
1649346972.237670,28858.000000,1649346972.236948,0.000000,0.000000,1.000000,0.000000,0.000000,0.000000,0.000000,4.315410,15.220532,-0.138693
1649346972.337109,28859.000000,1649346972.336254,0.000000,0.000000,1.000000,0.000000,0.000000,0.000000,0.000000,4.293270,15.230262,-0.245909
1649346972.433415,28860.000000,1649346972.433103,0.000000,0.000000,1.000000,0.000000,0.000000,0.000000,0.000000,4.270525,15.241488,-0.355344
1649346972.536732,28861.000000,1649346972.535784,0.000000,0.000000,1.000000,0.000000,0.000000,0.000000,0.000000,4.263614,15.245379,-0.400624
1649346972.636489,28862.000000,1649346972.635527,0.000000,0.000000,1.000000,0.000000,0.000000,0.000000,0.000000,4.267311,15.243423,-0.398004
1649346972.737100,28863.000000,1649346972.736679,0.000000,0.000000,1.000000,0.000000,0.000000,0.000000,0.000000,4.278820,15.239225,-0.363974
1649346972.833774,28864.000000,1649346972.832953,0.000000,0.000000,1.000000,0.000000,0.000000,0.000000,0.000000,4.279121,15.238385,-0.365216
1649346972.934165,28865.000000,1649346972.933139,0.000000,0.000000,1.000000,0.000000,0.000000,0.000000,0.000000,4.289524,15.234185,-0.335018
1649346973.034449,28866.000000,1649346973.033467,0.000000,0.000000,1.000000,0.000000,0.000000,0.000000,0.000000,4.288709,15.233374,-0.335212
1649346973.135732,28867.000000,1649346973.135236,0.000000,0.000000,1.000000,0.000000,0.000000,0.000000,0.000000,4.299084,15.229234,-0.302504
1649346973.238380,28868.000000,1649346973.237538,0.000000,0.000000,1.000000,0.000000,0.000000,0.000000,0.000000,4.315631,15.223054,-0.243142
1649346973.337374,28869.000000,1649346973.336190,0.000000,0.000000,1.000000,0.000000,0.000000,0.000000,0.000000,4.320504,15.221512,-0.230097
1649346973.433561,28870.000000,1649346973.433019,0.000000,0.000000,1.000000,0.000000,0.000000,0.000000,0.000000,4.323039,15.221094,-0.247028
1649346973.534395,28871.000000,1649346973.533834,0.000000,0.000000,1.000000,0.000000,0.000000,0.000000,0.000000,4.333163,15.217381,-0.226584
1649346973.633391,28872.000000,1649346973.632697,0.000000,0.000000,1.000000,0.000000,0.000000,0.000000,0.000000,4.350426,15.210566,-0.181614
1649346973.733951,28873.000000,1649346973.733509,0.000000,0.000000,1.000000,0.000000,0.000000,0.000000,0.000000,4.372199,15.201932,-0.115617
1649346973.834135,28874.000000,1649346973.833788,0.000000,0.000000,1.000000,0.000000,0.000000,0.000000,0.000000,4.378542,15.198148,-0.099723
1649346973.935211,28875.000000,1649346973.934406,0.000000,0.000000,1.000000,0.000000,0.000000,0.000000,0.000000,4.390996,15.192419,-0.052915
1649346974.033923,28876.000000,1649346974.033295,0.000000,0.000000,1.000000,0.000000,0.000000,0.000000,0.000000,4.407015,15.184867,0.008155
1649346974.135813,28877.000000,1649346974.135441,0.000000,0.000000,1.000000,0.000000,0.000000,0.000000,0.000000,4.427449,15.175613,0.085228
1649346974.233195,28878.000000,1649346974.232661,0.000000,0.000000,1.000000,0.000000,0.000000,0.000000,0.000000,4.430196,15.172407,0.110596
1649346974.336132,28879.000000,1649346974.335718,0.000000,0.000000,1.000000,0.000000,0.000000,0.000000,0.000000,4.422767,15.173833,0.094373
1649346974.434220,28880.000000,1649346974.432387,0.000000,0.000000,1.000000,0.000000,0.000000,0.000000,0.000000,4.424287,15.171998,0.109242
1649346974.538944,28881.000000,1649346974.537676,0.000000,0.000000,1.000000,0.000000,0.000000,0.000000,0.000000,4.434274,15.168169,0.146674
1649346974.637888,28882.000000,1649346974.635971,0.000000,0.000000,1.000000,0.000000,0.000000,0.000000,0.000000,4.432619,15.169006,0.141996
1649346974.736907,28883.000000,1649346974.734882,0.000000,0.000000,1.000000,0.000000,0.000000,0.000000,0.000000,4.423244,15.174244,0.101764
1649346974.835383,28884.000000,1649346974.834761,0.000000,0.000000,1.000000,0.000000,0.000000,0.000000,0.000000,4.406608,15.181443,0.037973
1649346974.933435,28885.000000,1649346974.933043,0.000000,0.000000,1.000000,0.000000,0.000000,0.000000,0.000000,4.403886,15.182837,0.021852
1649346975.034041,28886.000000,1649346975.033440,0.000000,0.000000,1.000000,0.000000,0.000000,0.000000,0.000000,4.409970,15.182006,0.044249
1649346975.135731,28887.000000,1649346975.135171,0.000000,0.000000,1.000000,0.000000,0.000000,0.000000,0.000000,4.422185,15.177981,0.093093
1649346975.234975,28888.000000,1649346975.232912,0.000000,0.000000,1.000000,0.000000,0.000000,0.000000,0.000000,4.436892,15.173129,0.155140
1649346975.334861,28889.000000,1649346975.333907,0.000000,0.000000,1.000000,0.000000,0.000000,0.000000,0.000000,4.436469,15.175140,0.163631
1649346975.433571,28890.000000,1649346975.432838,0.000000,0.000000,1.000000,0.000000,0.000000,0.000000,0.000000,4.444649,15.172727,0.194914
1649346975.536927,28891.000000,1649346975.535857,0.000000,0.000000,1.000000,0.000000,0.000000,0.000000,0.000000,4.459855,15.168315,0.244802
1649346975.636180,28892.000000,1649346975.635645,0.000000,0.000000,1.000000,0.000000,0.000000,0.000000,0.000000,4.476213,15.163117,0.304408
1649346975.734462,28893.000000,1649346975.733656,0.000000,0.000000,1.000000,0.000000,0.000000,0.000000,0.000000,4.493622,15.156096,0.370836
1649346975.833232,28894.000000,1649346975.832925,0.000000,0.000000,1.000000,0.000000,0.000000,0.000000,0.000000,4.513074,15.149550,0.440491
1649346975.937463,28895.000000,1649346975.936506,0.000000,0.000000,1.000000,0.000000,0.000000,0.000000,0.000000,4.518055,15.147831,0.451051
1649346976.033938,28896.000000,1649346976.032938,0.000000,0.000000,1.000000,0.000000,0.000000,0.000000,0.000000,4.516991,15.149584,0.434746
1649346976.135367,28897.000000,1649346976.134571,0.000000,0.000000,1.000000,0.000000,0.000000,0.000000,0.000000,4.524407,15.148066,0.448359
1649346976.233984,28898.000000,1649346976.233266,0.000000,0.000000,1.000000,0.000000,0.000000,0.000000,0.000000,4.518028,15.152178,0.416490
1649346976.336643,28899.000000,1649346976.336033,0.000000,0.000000,1.000000,0.000000,0.000000,0.000000,0.000000,4.518270,15.152871,0.416052
1649346976.432848,28900.000000,1649346976.432304,0.000000,0.000000,1.000000,0.000000,0.000000,0.000000,0.000000,4.524787,15.150325,0.438541
1649346976.534458,28901.000000,1649346976.533041,0.000000,0.000000,1.000000,0.000000,0.000000,0.000000,0.000000,4.531780,15.147992,0.480597
1649346976.637639,28902.000000,1649346976.636142,0.000000,0.000000,1.000000,0.000000,0.000000,0.000000,0.000000,4.528311,15.150225,0.468798
1649346976.734396,28903.000000,1649346976.733689,0.000000,0.000000,1.000000,0.000000,0.000000,0.000000,0.000000,4.514978,15.155672,0.421487
1649346976.836732,28904.000000,1649346976.836237,0.000000,0.000000,1.000000,0.000000,0.000000,0.000000,0.000000,4.510909,15.157597,0.415198
1649346976.933401,28905.000000,1649346976.932985,0.000000,0.000000,1.000000,0.000000,0.000000,0.000000,0.000000,4.498177,15.162723,0.369273
1649346977.035437,28906.000000,1649346977.034164,0.000000,0.000000,1.000000,0.000000,0.000000,0.000000,0.000000,4.494750,15.163227,0.358788
1649346977.136153,28907.000000,1649346977.134989,0.000000,0.000000,1.000000,0.000000,0.000000,0.000000,0.000000,4.481601,15.166989,0.315411
1649346977.237373,28908.000000,1649346977.235462,0.000000,0.000000,1.000000,0.000000,0.000000,0.000000,0.000000,4.460398,15.173821,0.251841
1649346977.336851,28909.000000,1649346977.336164,0.000000,0.000000,1.000000,0.000000,0.000000,0.000000,0.000000,4.437101,15.181351,0.165781
1649346977.436941,28910.000000,1649346977.435219,0.000000,0.000000,1.000000,0.000000,0.000000,0.000000,0.000000,4.427161,15.185158,0.130060
1649346977.538080,28911.000000,1649346977.536492,0.000000,0.000000,1.000000,0.000000,0.000000,0.000000,0.000000,4.410249,15.191977,0.066092
1649346977.636325,28912.000000,1649346977.634697,0.000000,0.000000,1.000000,0.000000,0.000000,0.000000,0.000000,4.407509,15.192903,0.044474
1649346977.737101,28913.000000,1649346977.736412,0.000000,0.000000,1.000000,0.000000,0.000000,0.000000,0.000000,4.395271,15.196981,-0.009057
1649346977.833718,28914.000000,1649346977.833073,0.000000,0.000000,1.000000,0.000000,0.000000,0.000000,0.000000,4.392616,15.197488,-0.017329
1649346977.932551,28915.000000,1649346977.932183,0.000000,0.000000,1.000000,0.000000,0.000000,0.000000,0.000000,4.399020,15.194621,0.002510
1649346978.034006,28916.000000,1649346978.033511,0.000000,0.000000,1.000000,0.000000,0.000000,0.000000,0.000000,4.410687,15.190759,0.048473
1649346978.134016,28917.000000,1649346978.133500,0.000000,0.000000,1.000000,0.000000,0.000000,0.000000,0.000000,4.426195,15.184881,0.108931
1649346978.237478,28918.000000,1649346978.236408,0.000000,0.000000,1.000000,0.000000,0.000000,0.000000,0.000000,4.444187,15.179298,0.180770
1649346978.334241,28919.000000,1649346978.333549,0.000000,0.000000,1.000000,0.000000,0.000000,0.000000,0.000000,4.464470,15.171833,0.258565
1649346978.433694,28920.000000,1649346978.432990,0.000000,0.000000,1.000000,0.000000,0.000000,0.000000,0.000000,4.484673,15.164793,0.338719
1649346978.533958,28921.000000,1649346978.533606,0.000000,0.000000,1.000000,0.000000,0.000000,0.000000,0.000000,4.503650,15.157085,0.421008
1649346978.636354,28922.000000,1649346978.635485,0.000000,0.000000,1.000000,0.000000,0.000000,0.000000,0.000000,4.524687,15.149859,0.501186
1649346978.733763,28923.000000,1649346978.733116,0.000000,0.000000,1.000000,0.000000,0.000000,0.000000,0.000000,4.541074,15.143107,0.579218
