__time,/dwm1001/id_458E/pose_kf/header/seq,/dwm1001/id_458E/pose_kf/header/stamp,/dwm1001/id_458E/pose_kf/pose/orientation/pitch_deg,/dwm1001/id_458E/pose_kf/pose/orientation/roll_deg,/dwm1001/id_458E/pose_kf/pose/orientation/w,/dwm1001/id_458E/pose_kf/pose/orientation/x,/dwm1001/id_458E/pose_kf/pose/orientation/y,/dwm1001/id_458E/pose_kf/pose/orientation/yaw_deg,/dwm1001/id_458E/pose_kf/pose/orientation/z,/dwm1001/id_458E/pose_kf/pose/position/x,/dwm1001/id_458E/pose_kf/pose/position/y,/dwm1001/id_458E/pose_kf/pose/position/z
1649350550.122249,3621.000000,1649350550.122075,0.000000,0.000000,1.000000,0.000000,0.000000,0.000000,0.000000,7.136585,24.758765,0.225688
1649350550.226694,3622.000000,1649350550.225750,0.000000,0.000000,1.000000,0.000000,0.000000,0.000000,0.000000,7.141102,24.755072,0.249513
1649350550.324594,3623.000000,1649350550.323664,0.000000,0.000000,1.000000,0.000000,0.000000,0.000000,0.000000,7.142037,24.753805,0.247598
1649350550.422607,3624.000000,1649350550.422387,0.000000,0.000000,1.000000,0.000000,0.000000,0.000000,0.000000,7.143947,24.749381,0.261330
1649350550.523880,3625.000000,1649350550.523260,0.000000,0.000000,1.000000,0.000000,0.000000,0.000000,0.000000,7.140236,24.749617,0.243305
1649350550.624596,3626.000000,1649350550.623689,0.000000,0.000000,1.000000,0.000000,0.000000,0.000000,0.000000,7.133404,24.753163,0.201308
1649350550.725205,3627.000000,1649350550.724248,0.000000,0.000000,1.000000,0.000000,0.000000,0.000000,0.000000,7.130190,24.755463,0.153334
1649350550.824042,3628.000000,1649350550.823714,0.000000,0.000000,1.000000,0.000000,0.000000,0.000000,0.000000,7.122775,24.759848,0.094077
1649350550.924158,3629.000000,1649350550.923783,0.000000,0.000000,1.000000,0.000000,0.000000,0.000000,0.000000,7.112502,24.766189,0.032976
1649350551.022245,3630.000000,1649350551.022104,0.000000,0.000000,1.000000,0.000000,0.000000,0.000000,0.000000,7.101739,24.773267,-0.039460
1649350551.124219,3631.000000,1649350551.123657,0.000000,0.000000,1.000000,0.000000,0.000000,0.000000,0.000000,7.088365,24.783201,-0.119421
1649350551.222234,3632.000000,1649350551.222062,0.000000,0.000000,1.000000,0.000000,0.000000,0.000000,0.000000,7.078011,24.790355,-0.192761
1649350551.324166,3633.000000,1649350551.323631,0.000000,0.000000,1.000000,0.000000,0.000000,0.000000,0.000000,7.067267,24.799222,-0.262855
1649350551.424687,3634.000000,1649350551.424139,0.000000,0.000000,1.000000,0.000000,0.000000,0.000000,0.000000,7.063814,24.803142,-0.292631
1649350551.525407,3635.000000,1649350551.524394,0.000000,0.000000,1.000000,0.000000,0.000000,0.000000,0.000000,7.066165,24.801290,-0.303034
1649350551.625611,3636.000000,1649350551.624937,0.000000,0.000000,1.000000,0.000000,0.000000,0.000000,0.000000,7.066355,24.800533,-0.327104
1649350551.725259,3637.000000,1649350551.724845,0.000000,0.000000,1.000000,0.000000,0.000000,0.000000,0.000000,7.062312,24.803001,-0.365073
1649350551.824778,3638.000000,1649350551.824116,0.000000,0.000000,1.000000,0.000000,0.000000,0.000000,0.000000,7.058632,24.805243,-0.388918
1649350551.926552,3639.000000,1649350551.925837,0.000000,0.000000,1.000000,0.000000,0.000000,0.000000,0.000000,7.058570,24.806181,-0.376606
1649350552.025572,3640.000000,1649350552.024715,0.000000,0.000000,1.000000,0.000000,0.000000,0.000000,0.000000,7.063011,24.802615,-0.346574
1649350552.122476,3641.000000,1649350552.122189,0.000000,0.000000,1.000000,0.000000,0.000000,0.000000,0.000000,7.069508,24.795900,-0.304445
1649350552.223285,3642.000000,1649350552.223074,0.000000,0.000000,1.000000,0.000000,0.000000,0.000000,0.000000,7.070287,24.791682,-0.294343
1649350552.323634,3643.000000,1649350552.323012,0.000000,0.000000,1.000000,0.000000,0.000000,0.000000,0.000000,7.070016,24.789843,-0.297267
1649350552.425714,3644.000000,1649350552.425278,0.000000,0.000000,1.000000,0.000000,0.000000,0.000000,0.000000,7.073107,24.785899,-0.272375
1649350552.527506,3645.000000,1649350552.526238,0.000000,0.000000,1.000000,0.000000,0.000000,0.000000,0.000000,7.070642,24.785430,-0.270843
1649350552.623326,3646.000000,1649350552.623006,0.000000,0.000000,1.000000,0.000000,0.000000,0.000000,0.000000,7.068379,24.783888,-0.281257
1649350552.724962,3647.000000,1649350552.724265,0.000000,0.000000,1.000000,0.000000,0.000000,0.000000,0.000000,7.070672,24.780246,-0.265224
1649350552.824744,3648.000000,1649350552.823950,0.000000,0.000000,1.000000,0.000000,0.000000,0.000000,0.000000,7.068537,24.778991,-0.269008
1649350552.924875,3649.000000,1649350552.924175,0.000000,0.000000,1.000000,0.000000,0.000000,0.000000,0.000000,7.062220,24.782178,-0.291004
1649350553.023116,3650.000000,1649350553.022703,0.000000,0.000000,1.000000,0.000000,0.000000,0.000000,0.000000,7.062868,24.780831,-0.286095
1649350553.125597,3651.000000,1649350553.124809,0.000000,0.000000,1.000000,0.000000,0.000000,0.000000,0.000000,7.058102,24.782834,-0.301349
1649350553.224828,3652.000000,1649350553.223932,0.000000,0.000000,1.000000,0.000000,0.000000,0.000000,0.000000,7.054769,24.784727,-0.321420
1649350553.325085,3653.000000,1649350553.324469,0.000000,0.000000,1.000000,0.000000,0.000000,0.000000,0.000000,7.050616,24.787600,-0.350928
1649350553.422725,3654.000000,1649350553.422497,0.000000,0.000000,1.000000,0.000000,0.000000,0.000000,0.000000,7.052238,24.788119,-0.344292
1649350553.525020,3655.000000,1649350553.524266,0.000000,0.000000,1.000000,0.000000,0.000000,0.000000,0.000000,7.047315,24.790775,-0.355409
1649350553.624769,3656.000000,1649350553.624243,0.000000,0.000000,1.000000,0.000000,0.000000,0.000000,0.000000,7.047119,24.789991,-0.338395
1649350553.722836,3657.000000,1649350553.722282,0.000000,0.000000,1.000000,0.000000,0.000000,0.000000,0.000000,7.051387,24.787048,-0.302489
1649350553.824614,3658.000000,1649350553.824154,0.000000,0.000000,1.000000,0.000000,0.000000,0.000000,0.000000,7.058767,24.784257,-0.244489
1649350553.923442,3659.000000,1649350553.923096,0.000000,0.000000,1.000000,0.000000,0.000000,0.000000,0.000000,7.058157,24.784888,-0.215392
1649350554.022513,3660.000000,1649350554.022333,0.000000,0.000000,1.000000,0.000000,0.000000,0.000000,0.000000,7.061987,24.785483,-0.162470
1649350554.123963,3661.000000,1649350554.123488,0.000000,0.000000,1.000000,0.000000,0.000000,0.000000,0.000000,7.062368,24.787131,-0.131129
1649350554.222584,3662.000000,1649350554.222301,0.000000,0.000000,1.000000,0.000000,0.000000,0.000000,0.000000,7.058393,24.790862,-0.130225
1649350554.324544,3663.000000,1649350554.323348,0.000000,0.000000,1.000000,0.000000,0.000000,0.000000,0.000000,7.053583,24.794369,-0.148043
1649350554.423323,3664.000000,1649350554.422688,0.000000,0.000000,1.000000,0.000000,0.000000,0.000000,0.000000,7.054538,24.796565,-0.135406
1649350554.523388,3665.000000,1649350554.522826,0.000000,0.000000,1.000000,0.000000,0.000000,0.000000,0.000000,7.056576,24.797515,-0.140332
1649350554.623695,3666.000000,1649350554.623349,0.000000,0.000000,1.000000,0.000000,0.000000,0.000000,0.000000,7.060721,24.797287,-0.119358
1649350554.724121,3667.000000,1649350554.723617,0.000000,0.000000,1.000000,0.000000,0.000000,0.000000,0.000000,7.062480,24.798128,-0.126786
1649350554.823376,3668.000000,1649350554.822730,0.000000,0.000000,1.000000,0.000000,0.000000,0.000000,0.000000,7.059795,24.801071,-0.157419
1649350554.924930,3669.000000,1649350554.924330,0.000000,0.000000,1.000000,0.000000,0.000000,0.000000,0.000000,7.058370,24.803811,-0.198976
1649350555.022268,3670.000000,1649350555.022003,0.000000,0.000000,1.000000,0.000000,0.000000,0.000000,0.000000,7.062499,24.800903,-0.217072
1649350555.124543,3671.000000,1649350555.123695,0.000000,0.000000,1.000000,0.000000,0.000000,0.000000,0.000000,7.069685,24.797027,-0.205364
1649350555.222161,3672.000000,1649350555.222029,0.000000,0.000000,1.000000,0.000000,0.000000,0.000000,0.000000,7.079738,24.794431,-0.219914
1649350555.325208,3673.000000,1649350555.324453,0.000000,0.000000,1.000000,0.000000,0.000000,0.000000,0.000000,7.084838,24.793054,-0.238671
1649350555.422149,3674.000000,1649350555.421990,0.000000,0.000000,1.000000,0.000000,0.000000,0.000000,0.000000,7.092875,24.791746,-0.222728
1649350555.524240,3675.000000,1649350555.523583,0.000000,0.000000,1.000000,0.000000,0.000000,0.000000,0.000000,7.092762,24.792687,-0.224319
1649350555.623621,3676.000000,1649350555.622955,0.000000,0.000000,1.000000,0.000000,0.000000,0.000000,0.000000,7.091491,24.794662,-0.233865
1649350555.725471,3677.000000,1649350555.724408,0.000000,0.000000,1.000000,0.000000,0.000000,0.000000,0.000000,7.086952,24.797608,-0.264741
1649350555.822412,3678.000000,1649350555.822230,0.000000,0.000000,1.000000,0.000000,0.000000,0.000000,0.000000,7.086974,24.798194,-0.299103
1649350555.924937,3679.000000,1649350555.924433,0.000000,0.000000,1.000000,0.000000,0.000000,0.000000,0.000000,7.091311,24.796546,-0.297239
1649350556.022604,3680.000000,1649350556.022475,0.000000,0.000000,1.000000,0.000000,0.000000,0.000000,0.000000,7.090995,24.797154,-0.313847
1649350556.122749,3681.000000,1649350556.122306,0.000000,0.000000,1.000000,0.000000,0.000000,0.000000,0.000000,7.095005,24.795533,-0.298965
1649350556.222761,3682.000000,1649350556.222500,0.000000,0.000000,1.000000,0.000000,0.000000,0.000000,0.000000,7.093283,24.795082,-0.297444
1649350556.324661,3683.000000,1649350556.323870,0.000000,0.000000,1.000000,0.000000,0.000000,0.000000,0.000000,7.091603,24.796829,-0.320045
1649350556.423706,3684.000000,1649350556.423024,0.000000,0.000000,1.000000,0.000000,0.000000,0.000000,0.000000,7.094331,24.794106,-0.314149
1649350556.522290,3685.000000,1649350556.522154,0.000000,0.000000,1.000000,0.000000,0.000000,0.000000,0.000000,7.093589,24.794800,-0.330116
1649350556.626743,3686.000000,1649350556.625767,0.000000,0.000000,1.000000,0.000000,0.000000,0.000000,0.000000,7.097205,24.791089,-0.329141
1649350556.723404,3687.000000,1649350556.723044,0.000000,0.000000,1.000000,0.000000,0.000000,0.000000,0.000000,7.103840,24.785407,-0.303850
1649350556.822475,3688.000000,1649350556.822280,0.000000,0.000000,1.000000,0.000000,0.000000,0.000000,0.000000,7.111133,24.781149,-0.254467
1649350556.925674,3689.000000,1649350556.924685,0.000000,0.000000,1.000000,0.000000,0.000000,0.000000,0.000000,7.110306,24.780430,-0.231245
1649350557.023688,3690.000000,1649350557.023207,0.000000,0.000000,1.000000,0.000000,0.000000,0.000000,0.000000,7.107260,24.780877,-0.233976
1649350557.124315,3691.000000,1649350557.122991,0.000000,0.000000,1.000000,0.000000,0.000000,0.000000,0.000000,7.098860,24.783514,-0.247093
1649350557.224369,3692.000000,1649350557.223570,0.000000,0.000000,1.000000,0.000000,0.000000,0.000000,0.000000,7.096331,24.784939,-0.225799
1649350557.323776,3693.000000,1649350557.323329,0.000000,0.000000,1.000000,0.000000,0.000000,0.000000,0.000000,7.099365,24.781943,-0.198131
1649350557.423121,3694.000000,1649350557.422763,0.000000,0.000000,1.000000,0.000000,0.000000,0.000000,0.000000,7.098926,24.781315,-0.197457
1649350557.525198,3695.000000,1649350557.524327,0.000000,0.000000,1.000000,0.000000,0.000000,0.000000,0.000000,7.097389,24.781839,-0.204137
1649350557.622332,3696.000000,1649350557.622135,0.000000,0.000000,1.000000,0.000000,0.000000,0.000000,0.000000,7.091548,24.783447,-0.225927
1649350557.726260,3697.000000,1649350557.725088,0.000000,0.000000,1.000000,0.000000,0.000000,0.000000,0.000000,7.087110,24.784983,-0.265403
1649350557.824130,3698.000000,1649350557.823556,0.000000,0.000000,1.000000,0.000000,0.000000,0.000000,0.000000,7.078561,24.788628,-0.307268
1649350557.927029,3699.000000,1649350557.925416,0.000000,0.000000,1.000000,0.000000,0.000000,0.000000,0.000000,7.075965,24.788801,-0.315068
1649350558.023540,3700.000000,1649350558.022766,0.000000,0.000000,1.000000,0.000000,0.000000,0.000000,0.000000,7.074642,24.787873,-0.323231
1649350558.122612,3701.000000,1649350558.122158,0.000000,0.000000,1.000000,0.000000,0.000000,0.000000,0.000000,7.077795,24.783725,-0.305929
1649350558.225141,3702.000000,1649350558.224549,0.000000,0.000000,1.000000,0.000000,0.000000,0.000000,0.000000,7.077536,24.781998,-0.305351
1649350558.324137,3703.000000,1649350558.323525,0.000000,0.000000,1.000000,0.000000,0.000000,0.000000,0.000000,7.075140,24.783655,-0.327281
1649350558.423078,3704.000000,1649350558.422599,0.000000,0.000000,1.000000,0.000000,0.000000,0.000000,0.000000,7.071820,24.785234,-0.341745
1649350558.525253,3705.000000,1649350558.524565,0.000000,0.000000,1.000000,0.000000,0.000000,0.000000,0.000000,7.073086,24.783463,-0.328865
1649350558.623943,3706.000000,1649350558.623486,0.000000,0.000000,1.000000,0.000000,0.000000,0.000000,0.000000,7.068868,24.785071,-0.330899
1649350558.724769,3707.000000,1649350558.724048,0.000000,0.000000,1.000000,0.000000,0.000000,0.000000,0.000000,7.069290,24.784417,-0.303700
1649350558.822575,3708.000000,1649350558.822339,0.000000,0.000000,1.000000,0.000000,0.000000,0.000000,0.000000,7.063191,24.788168,-0.300917
1649350558.924043,3709.000000,1649350558.923496,0.000000,0.000000,1.000000,0.000000,0.000000,0.000000,0.000000,7.062937,24.787349,-0.278024
1649350559.023741,3710.000000,1649350559.023275,0.000000,0.000000,1.000000,0.000000,0.000000,0.000000,0.000000,7.066027,24.783302,-0.245551
1649350559.123979,3711.000000,1649350559.123329,0.000000,0.000000,1.000000,0.000000,0.000000,0.000000,0.000000,7.072265,24.777306,-0.200714
1649350559.222071,3712.000000,1649350559.221920,0.000000,0.000000,1.000000,0.000000,0.000000,0.000000,0.000000,7.080366,24.769485,-0.153763
1649350559.323830,3713.000000,1649350559.323325,0.000000,0.000000,1.000000,0.000000,0.000000,0.000000,0.000000,7.084751,24.764323,-0.137923
1649350559.423818,3714.000000,1649350559.423546,0.000000,0.000000,1.000000,0.000000,0.000000,0.000000,0.000000,7.086700,24.762779,-0.142282
1649350559.524315,3715.000000,1649350559.523858,0.000000,0.000000,1.000000,0.000000,0.000000,0.000000,0.000000,7.084157,24.762477,-0.162783
1649350559.624476,3716.000000,1649350559.623597,0.000000,0.000000,1.000000,0.000000,0.000000,0.000000,0.000000,7.080650,24.763345,-0.186637
1649350559.726604,3717.000000,1649350559.726154,0.000000,0.000000,1.000000,0.000000,0.000000,0.000000,0.000000,7.075151,24.767495,-0.225759
1649350559.822702,3718.000000,1649350559.822204,0.000000,0.000000,1.000000,0.000000,0.000000,0.000000,0.000000,7.078691,24.771459,-0.264946
1649350559.923612,3719.000000,1649350559.923291,0.000000,0.000000,1.000000,0.000000,0.000000,0.000000,0.000000,7.077681,24.776325,-0.313000
1649350560.022830,3720.000000,1649350560.022667,0.000000,0.000000,1.000000,0.000000,0.000000,0.000000,0.000000,7.073461,24.782024,-0.363837
1649350560.124380,3721.000000,1649350560.123781,0.000000,0.000000,1.000000,0.000000,0.000000,0.000000,0.000000,7.066219,24.788495,-0.413233
1649350560.224007,3722.000000,1649350560.223218,0.000000,0.000000,1.000000,0.000000,0.000000,0.000000,0.000000,7.060504,24.793494,-0.450685
1649350560.323849,3723.000000,1649350560.323277,0.000000,0.000000,1.000000,0.000000,0.000000,0.000000,0.000000,7.061700,24.794906,-0.450011
1649350560.426344,3724.000000,1649350560.425864,0.000000,0.000000,1.000000,0.000000,0.000000,0.000000,0.000000,7.061789,24.797287,-0.463569
1649350560.522204,3725.000000,1649350560.522044,0.000000,0.000000,1.000000,0.000000,0.000000,0.000000,0.000000,7.058650,24.801669,-0.492387
1649350560.623980,3726.000000,1649350560.623608,0.000000,0.000000,1.000000,0.000000,0.000000,0.000000,0.000000,7.051374,24.805752,-0.511622
1649350560.723817,3727.000000,1649350560.723453,0.000000,0.000000,1.000000,0.000000,0.000000,0.000000,0.000000,7.045658,24.808451,-0.524062
1649350560.822843,3728.000000,1649350560.822509,0.000000,0.000000,1.000000,0.000000,0.000000,0.000000,0.000000,7.046884,24.807658,-0.508201
1649350560.924575,3729.000000,1649350560.924095,0.000000,0.000000,1.000000,0.000000,0.000000,0.000000,0.000000,7.044850,24.809021,-0.512804
1649350561.023285,3730.000000,1649350561.022880,0.000000,0.000000,1.000000,0.000000,0.000000,0.000000,0.000000,7.043008,24.810241,-0.517697
1649350561.124132,3731.000000,1649350561.123419,0.000000,0.000000,1.000000,0.000000,0.000000,0.000000,0.000000,7.044618,24.810236,-0.537390
1649350561.223825,3732.000000,1649350561.223472,0.000000,0.000000,1.000000,0.000000,0.000000,0.000000,0.000000,7.048394,24.807987,-0.557557
1649350561.323846,3733.000000,1649350561.323386,0.000000,0.000000,1.000000,0.000000,0.000000,0.000000,0.000000,7.046567,24.807988,-0.576547
1649350561.423283,3734.000000,1649350561.423101,0.000000,0.000000,1.000000,0.000000,0.000000,0.000000,0.000000,7.042718,24.810119,-0.604068
1649350561.524004,3735.000000,1649350561.523491,0.000000,0.000000,1.000000,0.000000,0.000000,0.000000,0.000000,7.045688,24.809899,-0.585712
1649350561.623768,3736.000000,1649350561.623332,0.000000,0.000000,1.000000,0.000000,0.000000,0.000000,0.000000,7.052911,24.805279,-0.535474
1649350561.725229,3737.000000,1649350561.724562,0.000000,0.000000,1.000000,0.000000,0.000000,0.000000,0.000000,7.054317,24.805240,-0.516031
1649350561.824437,3738.000000,1649350561.823823,0.000000,0.000000,1.000000,0.000000,0.000000,0.000000,0.000000,7.051307,24.807352,-0.506829
1649350561.923116,3739.000000,1649350561.922770,0.000000,0.000000,1.000000,0.000000,0.000000,0.000000,0.000000,7.044130,24.810405,-0.500223
1649350562.024117,3740.000000,1649350562.023617,0.000000,0.000000,1.000000,0.000000,0.000000,0.000000,0.000000,7.039575,24.812157,-0.508224
1649350562.122443,3741.000000,1649350562.122225,0.000000,0.000000,1.000000,0.000000,0.000000,0.000000,0.000000,7.037512,24.813768,-0.522980
1649350562.224193,3742.000000,1649350562.223915,0.000000,0.000000,1.000000,0.000000,0.000000,0.000000,0.000000,7.041078,24.811971,-0.506298
1649350562.327281,3743.000000,1649350562.326756,0.000000,0.000000,1.000000,0.000000,0.000000,0.000000,0.000000,7.048862,24.805870,-0.473190
1649350562.422648,3744.000000,1649350562.422368,0.000000,0.000000,1.000000,0.000000,0.000000,0.000000,0.000000,7.059515,24.796812,-0.428414
1649350562.524107,3745.000000,1649350562.523605,0.000000,0.000000,1.000000,0.000000,0.000000,0.000000,0.000000,7.072848,24.786077,-0.370908
1649350562.623279,3746.000000,1649350562.622910,0.000000,0.000000,1.000000,0.000000,0.000000,0.000000,0.000000,7.078859,24.780333,-0.344025
1649350562.724297,3747.000000,1649350562.723622,0.000000,0.000000,1.000000,0.000000,0.000000,0.000000,0.000000,7.087745,24.771690,-0.307864
1649350562.823957,3748.000000,1649350562.823321,0.000000,0.000000,1.000000,0.000000,0.000000,0.000000,0.000000,7.092782,24.767963,-0.302369
1649350562.925894,3749.000000,1649350562.923754,0.000000,0.000000,1.000000,0.000000,0.000000,0.000000,0.000000,7.099622,24.763439,-0.265825
1649350563.023125,3750.000000,1649350563.022883,0.000000,0.000000,1.000000,0.000000,0.000000,0.000000,0.000000,7.108151,24.759260,-0.208406
1649350563.124378,3751.000000,1649350563.123630,0.000000,0.000000,1.000000,0.000000,0.000000,0.000000,0.000000,7.110625,24.757597,-0.182656
1649350563.222139,3752.000000,1649350563.222000,0.000000,0.000000,1.000000,0.000000,0.000000,0.000000,0.000000,7.107373,24.760492,-0.180876
1649350563.323379,3753.000000,1649350563.322919,0.000000,0.000000,1.000000,0.000000,0.000000,0.000000,0.000000,7.101996,24.764410,-0.197250
1649350563.423374,3754.000000,1649350563.423077,0.000000,0.000000,1.000000,0.000000,0.000000,0.000000,0.000000,7.092454,24.769278,-0.213262
1649350563.523020,3755.000000,1649350563.522777,0.000000,0.000000,1.000000,0.000000,0.000000,0.000000,0.000000,7.089914,24.769573,-0.195823
1649350563.622225,3756.000000,1649350563.622080,0.000000,0.000000,1.000000,0.000000,0.000000,0.000000,0.000000,7.086371,24.772083,-0.185008
1649350563.723799,3757.000000,1649350563.723048,0.000000,0.000000,1.000000,0.000000,0.000000,0.000000,0.000000,7.086257,24.771223,-0.156365
1649350563.822277,3758.000000,1649350563.822067,0.000000,0.000000,1.000000,0.000000,0.000000,0.000000,0.000000,7.082845,24.772630,-0.154196
1649350563.923188,3759.000000,1649350563.922924,0.000000,0.000000,1.000000,0.000000,0.000000,0.000000,0.000000,7.080689,24.773993,-0.165329
1649350564.022351,3760.000000,1649350564.022146,0.000000,0.000000,1.000000,0.000000,0.000000,0.000000,0.000000,7.072095,24.777488,-0.173872
1649350564.122193,3761.000000,1649350564.122068,0.000000,0.000000,1.000000,0.000000,0.000000,0.000000,0.000000,7.062895,24.781898,-0.197646
1649350564.223640,3762.000000,1649350564.222818,0.000000,0.000000,1.000000,0.000000,0.000000,0.000000,0.000000,7.057510,24.786066,-0.229534
1649350564.323319,3763.000000,1649350564.322813,0.000000,0.000000,1.000000,0.000000,0.000000,0.000000,0.000000,7.050295,24.791084,-0.268341
1649350564.422966,3764.000000,1649350564.422502,0.000000,0.000000,1.000000,0.000000,0.000000,0.000000,0.000000,7.049002,24.791438,-0.271779
1649350564.525556,3765.000000,1649350564.524586,0.000000,0.000000,1.000000,0.000000,0.000000,0.000000,0.000000,7.053309,24.787383,-0.263041
1649350564.623089,3766.000000,1649350564.622737,0.000000,0.000000,1.000000,0.000000,0.000000,0.000000,0.000000,7.061801,24.781354,-0.237791
1649350564.723981,3767.000000,1649350564.723161,0.000000,0.000000,1.000000,0.000000,0.000000,0.000000,0.000000,7.064408,24.780021,-0.236249
1649350564.823920,3768.000000,1649350564.823563,0.000000,0.000000,1.000000,0.000000,0.000000,0.000000,0.000000,7.064711,24.780951,-0.258266
1649350564.923437,3769.000000,1649350564.923088,0.000000,0.000000,1.000000,0.000000,0.000000,0.000000,0.000000,7.069375,24.778565,-0.250430
1649350565.022993,3770.000000,1649350565.022724,0.000000,0.000000,1.000000,0.000000,0.000000,0.000000,0.000000,7.067244,24.780685,-0.264762
1649350565.124274,3771.000000,1649350565.123854,0.000000,0.000000,1.000000,0.000000,0.000000,0.000000,0.000000,7.069599,24.781604,-0.249533
1649350565.223075,3772.000000,1649350565.222802,0.000000,0.000000,1.000000,0.000000,0.000000,0.000000,0.000000,7.071825,24.781385,-0.248702
1649350565.324433,3773.000000,1649350565.323919,0.000000,0.000000,1.000000,0.000000,0.000000,0.000000,0.000000,7.067380,24.784453,-0.263298
1649350565.423622,3774.000000,1649350565.423091,0.000000,0.000000,1.000000,0.000000,0.000000,0.000000,0.000000,7.061005,24.788437,-0.295898
1649350565.524657,3775.000000,1649350565.523759,0.000000,0.000000,1.000000,0.000000,0.000000,0.000000,0.000000,7.051732,24.793276,-0.329591
1649350565.622965,3776.000000,1649350565.622596,0.000000,0.000000,1.000000,0.000000,0.000000,0.000000,0.000000,7.050651,24.794547,-0.323147
1649350565.725940,3777.000000,1649350565.724440,0.000000,0.000000,1.000000,0.000000,0.000000,0.000000,0.000000,7.044233,24.796805,-0.327390
1649350565.825327,3778.000000,1649350565.824251,0.000000,0.000000,1.000000,0.000000,0.000000,0.000000,0.000000,7.041507,24.797809,-0.346725
1649350565.925294,3779.000000,1649350565.924519,0.000000,0.000000,1.000000,0.000000,0.000000,0.000000,0.000000,7.035735,24.799807,-0.368415
1649350566.022491,3780.000000,1649350566.022266,0.000000,0.000000,1.000000,0.000000,0.000000,0.000000,0.000000,7.036909,24.797290,-0.358461
1649350566.125060,3781.000000,1649350566.124717,0.000000,0.000000,1.000000,0.000000,0.000000,0.000000,0.000000,7.037011,24.795967,-0.368969
1649350566.225293,3782.000000,1649350566.224548,0.000000,0.000000,1.000000,0.000000,0.000000,0.000000,0.000000,7.032821,24.797958,-0.389422
1649350566.325017,3783.000000,1649350566.324489,0.000000,0.000000,1.000000,0.000000,0.000000,0.000000,0.000000,7.026764,24.800898,-0.416969
1649350566.422499,3784.000000,1649350566.422210,0.000000,0.000000,1.000000,0.000000,0.000000,0.000000,0.000000,7.026588,24.801458,-0.409350
1649350566.523275,3785.000000,1649350566.522756,0.000000,0.000000,1.000000,0.000000,0.000000,0.000000,0.000000,7.030877,24.799766,-0.414776
1649350566.623474,3786.000000,1649350566.623080,0.000000,0.000000,1.000000,0.000000,0.000000,0.000000,0.000000,7.036098,24.798134,-0.426268
1649350566.723434,3787.000000,1649350566.723017,0.000000,0.000000,1.000000,0.000000,0.000000,0.000000,0.000000,7.037818,24.799837,-0.450826
1649350566.822205,3788.000000,1649350566.822060,0.000000,0.000000,1.000000,0.000000,0.000000,0.000000,0.000000,7.042761,24.799238,-0.437890
1649350566.923661,3789.000000,1649350566.923145,0.000000,0.000000,1.000000,0.000000,0.000000,0.000000,0.000000,7.043101,24.800827,-0.444648
1649350567.022193,3790.000000,1649350567.022022,0.000000,0.000000,1.000000,0.000000,0.000000,0.000000,0.000000,7.040176,24.802300,-0.454173
1649350567.123517,3791.000000,1649350567.123084,0.000000,0.000000,1.000000,0.000000,0.000000,0.000000,0.000000,7.037443,24.805842,-0.480860
1649350567.222175,3792.000000,1649350567.222049,0.000000,0.000000,1.000000,0.000000,0.000000,0.000000,0.000000,7.041440,24.804788,-0.472369
1649350567.323890,3793.000000,1649350567.323577,0.000000,0.000000,1.000000,0.000000,0.000000,0.000000,0.000000,7.043063,24.802666,-0.461593
1649350567.423001,3794.000000,1649350567.422776,0.000000,0.000000,1.000000,0.000000,0.000000,0.000000,0.000000,7.050068,24.796270,-0.434941
1649350567.525481,3795.000000,1649350567.524572,0.000000,0.000000,1.000000,0.000000,0.000000,0.000000,0.000000,7.063229,24.792399,-0.435042
1649350567.622431,3796.000000,1649350567.622271,0.000000,0.000000,1.000000,0.000000,0.000000,0.000000,0.000000,7.067994,24.790927,-0.449532
1649350567.725536,3797.000000,1649350567.724538,0.000000,0.000000,1.000000,0.000000,0.000000,0.000000,0.000000,7.070260,24.792818,-0.480232
1649350567.823607,3798.000000,1649350567.823151,0.000000,0.000000,1.000000,0.000000,0.000000,0.000000,0.000000,7.070159,24.796791,-0.519989
1649350567.924269,3799.000000,1649350567.923460,0.000000,0.000000,1.000000,0.000000,0.000000,0.000000,0.000000,7.074367,24.795089,-0.524832
1649350568.023468,3800.000000,1649350568.023116,0.000000,0.000000,1.000000,0.000000,0.000000,0.000000,0.000000,7.073916,24.796748,-0.536492
1649350568.124212,3801.000000,1649350568.123707,0.000000,0.000000,1.000000,0.000000,0.000000,0.000000,0.000000,7.072336,24.798309,-0.549040
1649350568.223353,3802.000000,1649350568.222799,0.000000,0.000000,1.000000,0.000000,0.000000,0.000000,0.000000,7.067516,24.801955,-0.574526
1649350568.324018,3803.000000,1649350568.323181,0.000000,0.000000,1.000000,0.000000,0.000000,0.000000,0.000000,7.060743,24.807560,-0.605946
1649350568.424451,3804.000000,1649350568.423164,0.000000,0.000000,1.000000,0.000000,0.000000,0.000000,0.000000,7.060868,24.808460,-0.598663
1649350568.524192,3805.000000,1649350568.522937,0.000000,0.000000,1.000000,0.000000,0.000000,0.000000,0.000000,7.056612,24.810362,-0.598621
1649350568.625457,3806.000000,1649350568.624282,0.000000,0.000000,1.000000,0.000000,0.000000,0.000000,0.000000,7.058042,24.808846,-0.567636
1649350568.726019,3807.000000,1649350568.725044,0.000000,0.000000,1.000000,0.000000,0.000000,0.000000,0.000000,7.055030,24.808467,-0.555408
1649350568.823503,3808.000000,1649350568.822892,0.000000,0.000000,1.000000,0.000000,0.000000,0.000000,0.000000,7.052189,24.809166,-0.540245
1649350568.924211,3809.000000,1649350568.923788,0.000000,0.000000,1.000000,0.000000,0.000000,0.000000,0.000000,7.048427,24.808704,-0.524717
1649350569.022465,3810.000000,1649350569.022246,0.000000,0.000000,1.000000,0.000000,0.000000,0.000000,0.000000,7.051439,24.803876,-0.499196
1649350569.123884,3811.000000,1649350569.123306,0.000000,0.000000,1.000000,0.000000,0.000000,0.000000,0.000000,7.057574,24.799298,-0.446391
1649350569.222496,3812.000000,1649350569.222358,0.000000,0.000000,1.000000,0.000000,0.000000,0.000000,0.000000,7.062279,24.796063,-0.414269
1649350569.323925,3813.000000,1649350569.323548,0.000000,0.000000,1.000000,0.000000,0.000000,0.000000,0.000000,7.071070,24.789745,-0.355278
1649350569.422565,3814.000000,1649350569.422363,0.000000,0.000000,1.000000,0.000000,0.000000,0.000000,0.000000,7.077155,24.785984,-0.333500
1649350569.523339,3815.000000,1649350569.522968,0.000000,0.000000,1.000000,0.000000,0.000000,0.000000,0.000000,7.080666,24.783560,-0.318433
1649350569.623392,3816.000000,1649350569.623083,0.000000,0.000000,1.000000,0.000000,0.000000,0.000000,0.000000,7.082825,24.781315,-0.315470
1649350569.724450,3817.000000,1649350569.723870,0.000000,0.000000,1.000000,0.000000,0.000000,0.000000,0.000000,7.088065,24.778153,-0.287830
1649350569.823463,3818.000000,1649350569.823113,0.000000,0.000000,1.000000,0.000000,0.000000,0.000000,0.000000,7.090754,24.776312,-0.278480
1649350569.923619,3819.000000,1649350569.923333,0.000000,0.000000,1.000000,0.000000,0.000000,0.000000,0.000000,7.091027,24.774632,-0.264915
1649350570.022714,3820.000000,1649350570.022129,0.000000,0.000000,1.000000,0.000000,0.000000,0.000000,0.000000,7.087930,24.776377,-0.271510
1649350570.124285,3821.000000,1649350570.123721,0.000000,0.000000,1.000000,0.000000,0.000000,0.000000,0.000000,7.090384,24.773719,-0.259529
1649350570.222789,3822.000000,1649350570.222483,0.000000,0.000000,1.000000,0.000000,0.000000,0.000000,0.000000,7.092630,24.771265,-0.259569
1649350570.325340,3823.000000,1649350570.324470,0.000000,0.000000,1.000000,0.000000,0.000000,0.000000,0.000000,7.089227,24.771188,-0.270328
1649350570.423155,3824.000000,1649350570.422511,0.000000,0.000000,1.000000,0.000000,0.000000,0.000000,0.000000,7.090309,24.770084,-0.248605
1649350570.524418,3825.000000,1649350570.523932,0.000000,0.000000,1.000000,0.000000,0.000000,0.000000,0.000000,7.088000,24.771281,-0.251381
1649350570.622352,3826.000000,1649350570.622176,0.000000,0.000000,1.000000,0.000000,0.000000,0.000000,0.000000,7.087947,24.771375,-0.263945
1649350570.723910,3827.000000,1649350570.723364,0.000000,0.000000,1.000000,0.000000,0.000000,0.000000,0.000000,7.093302,24.772603,-0.289904
1649350570.823287,3828.000000,1649350570.822819,0.000000,0.000000,1.000000,0.000000,0.000000,0.000000,0.000000,7.096123,24.773807,-0.314149
1649350570.923897,3829.000000,1649350570.923504,0.000000,0.000000,1.000000,0.000000,0.000000,0.000000,0.000000,7.093272,24.776072,-0.348801
1649350571.022244,3830.000000,1649350571.022094,0.000000,0.000000,1.000000,0.000000,0.000000,0.000000,0.000000,7.090523,24.778241,-0.378054
1649350571.124128,3831.000000,1649350571.123657,0.000000,0.000000,1.000000,0.000000,0.000000,0.000000,0.000000,7.087881,24.780310,-0.407720
1649350571.222331,3832.000000,1649350571.222178,0.000000,0.000000,1.000000,0.000000,0.000000,0.000000,0.000000,7.088623,24.777915,-0.407893
1649350571.323473,3833.000000,1649350571.323038,0.000000,0.000000,1.000000,0.000000,0.000000,0.000000,0.000000,7.094744,24.772398,-0.383799
1649350571.422834,3834.000000,1649350571.422534,0.000000,0.000000,1.000000,0.000000,0.000000,0.000000,0.000000,7.096122,24.770487,-0.372748
1649350571.523541,3835.000000,1649350571.523190,0.000000,0.000000,1.000000,0.000000,0.000000,0.000000,0.000000,7.100645,24.765447,-0.337945
1649350571.624463,3836.000000,1649350571.623806,0.000000,0.000000,1.000000,0.000000,0.000000,0.000000,0.000000,7.105949,24.760734,-0.301374
1649350571.724613,3837.000000,1649350571.724027,0.000000,0.000000,1.000000,0.000000,0.000000,0.000000,0.000000,7.110890,24.758522,-0.293005
1649350571.823903,3838.000000,1649350571.823661,0.000000,0.000000,1.000000,0.000000,0.000000,0.000000,0.000000,7.107842,24.759768,-0.297193
1649350571.923024,3839.000000,1649350571.922732,0.000000,0.000000,1.000000,0.000000,0.000000,0.000000,0.000000,7.109250,24.759916,-0.269873
1649350572.022295,3840.000000,1649350572.022122,0.000000,0.000000,1.000000,0.000000,0.000000,0.000000,0.000000,7.106148,24.763382,-0.269614
1649350572.123846,3841.000000,1649350572.123325,0.000000,0.000000,1.000000,0.000000,0.000000,0.000000,0.000000,7.098795,24.768882,-0.284029
1649350572.224919,3842.000000,1649350572.223607,0.000000,0.000000,1.000000,0.000000,0.000000,0.000000,0.000000,7.091811,24.773013,-0.297173
1649350572.323880,3843.000000,1649350572.323297,0.000000,0.000000,1.000000,0.000000,0.000000,0.000000,0.000000,7.086290,24.776926,-0.316329
1649350572.426973,3844.000000,1649350572.426100,0.000000,0.000000,1.000000,0.000000,0.000000,0.000000,0.000000,7.079989,24.781711,-0.350088
1649350572.524102,3845.000000,1649350572.523503,0.000000,0.000000,1.000000,0.000000,0.000000,0.000000,0.000000,7.078422,24.781854,-0.355061
1649350572.625456,3846.000000,1649350572.625058,0.000000,0.000000,1.000000,0.000000,0.000000,0.000000,0.000000,7.080244,24.778698,-0.332400
1649350572.722559,3847.000000,1649350572.722200,0.000000,0.000000,1.000000,0.000000,0.000000,0.000000,0.000000,7.079811,24.777887,-0.318742
1649350572.823268,3848.000000,1649350572.822690,0.000000,0.000000,1.000000,0.000000,0.000000,0.000000,0.000000,7.075065,24.780386,-0.323422
1649350572.924489,3849.000000,1649350572.923815,0.000000,0.000000,1.000000,0.000000,0.000000,0.000000,0.000000,7.070616,24.783826,-0.325532
1649350573.022589,3850.000000,1649350573.022260,0.000000,0.000000,1.000000,0.000000,0.000000,0.000000,0.000000,7.064278,24.789236,-0.347749
1649350573.124480,3851.000000,1649350573.124030,0.000000,0.000000,1.000000,0.000000,0.000000,0.000000,0.000000,7.057263,24.794313,-0.364226
1649350573.223177,3852.000000,1649350573.222808,0.000000,0.000000,1.000000,0.000000,0.000000,0.000000,0.000000,7.061619,24.800151,-0.391293
1649350573.324769,3853.000000,1649350573.323959,0.000000,0.000000,1.000000,0.000000,0.000000,0.000000,0.000000,7.062533,24.804513,-0.425255
1649350573.422369,3854.000000,1649350573.422126,0.000000,0.000000,1.000000,0.000000,0.000000,0.000000,0.000000,7.062367,24.809651,-0.460134
1649350573.523438,3855.000000,1649350573.523173,0.000000,0.000000,1.000000,0.000000,0.000000,0.000000,0.000000,7.060086,24.814419,-0.492613
1649350573.622353,3856.000000,1649350573.622156,0.000000,0.000000,1.000000,0.000000,0.000000,0.000000,0.000000,7.062353,24.814466,-0.492904
1649350573.723525,3857.000000,1649350573.722933,0.000000,0.000000,1.000000,0.000000,0.000000,0.000000,0.000000,7.063455,24.814418,-0.497797
1649350573.823207,3858.000000,1649350573.822877,0.000000,0.000000,1.000000,0.000000,0.000000,0.000000,0.000000,7.060180,24.817555,-0.515979
1649350573.924421,3859.000000,1649350573.923769,0.000000,0.000000,1.000000,0.000000,0.000000,0.000000,0.000000,7.053864,24.820428,-0.538827
1649350574.023447,3860.000000,1649350574.022883,0.000000,0.000000,1.000000,0.000000,0.000000,0.000000,0.000000,7.050142,24.821958,-0.563707
1649350574.122517,3861.000000,1649350574.122266,0.000000,0.000000,1.000000,0.000000,0.000000,0.000000,0.000000,7.045608,24.825490,-0.595345
1649350574.226299,3862.000000,1649350574.225705,0.000000,0.000000,1.000000,0.000000,0.000000,0.000000,0.000000,7.037046,24.829818,-0.629394
1649350574.324010,3863.000000,1649350574.323673,0.000000,0.000000,1.000000,0.000000,0.000000,0.000000,0.000000,7.036691,24.828349,-0.631037
1649350574.426692,3864.000000,1649350574.425970,0.000000,0.000000,1.000000,0.000000,0.000000,0.000000,0.000000,7.036458,24.827952,-0.649981
1649350574.523549,3865.000000,1649350574.522985,0.000000,0.000000,1.000000,0.000000,0.000000,0.000000,0.000000,7.033065,24.827486,-0.671803
1649350574.624519,3866.000000,1649350574.623894,0.000000,0.000000,1.000000,0.000000,0.000000,0.000000,0.000000,7.034322,24.823689,-0.662494
1649350574.725664,3867.000000,1649350574.724452,0.000000,0.000000,1.000000,0.000000,0.000000,0.000000,0.000000,7.031241,24.822213,-0.667698
1649350574.823507,3868.000000,1649350574.822744,0.000000,0.000000,1.000000,0.000000,0.000000,0.000000,0.000000,7.028426,24.820757,-0.686837
1649350574.927937,3869.000000,1649350574.926806,0.000000,0.000000,1.000000,0.000000,0.000000,0.000000,0.000000,7.023683,24.821510,-0.714494
1649350575.025766,3870.000000,1649350575.024984,0.000000,0.000000,1.000000,0.000000,0.000000,0.000000,0.000000,7.017128,24.823262,-0.728520
1649350575.126847,3871.000000,1649350575.125687,0.000000,0.000000,1.000000,0.000000,0.000000,0.000000,0.000000,7.009964,24.825956,-0.749620
1649350575.224786,3872.000000,1649350575.224081,0.000000,0.000000,1.000000,0.000000,0.000000,0.000000,0.000000,7.003329,24.827354,-0.772652
1649350575.322853,3873.000000,1649350575.322505,0.000000,0.000000,1.000000,0.000000,0.000000,0.000000,0.000000,7.000480,24.827526,-0.785421
1649350575.424144,3874.000000,1649350575.423420,0.000000,0.000000,1.000000,0.000000,0.000000,0.000000,0.000000,7.004480,24.823270,-0.765759
1649350575.524691,3875.000000,1649350575.524011,0.000000,0.000000,1.000000,0.000000,0.000000,0.000000,0.000000,7.007303,24.819206,-0.745669
1649350575.622828,3876.000000,1649350575.622550,0.000000,0.000000,1.000000,0.000000,0.000000,0.000000,0.000000,7.007906,24.816429,-0.744577
1649350575.725761,3877.000000,1649350575.724405,0.000000,0.000000,1.000000,0.000000,0.000000,0.000000,0.000000,7.007492,24.815969,-0.753668
1649350575.825470,3878.000000,1649350575.824513,0.000000,0.000000,1.000000,0.000000,0.000000,0.000000,0.000000,7.001750,24.818793,-0.771724
1649350575.922920,3879.000000,1649350575.922607,0.000000,0.000000,1.000000,0.000000,0.000000,0.000000,0.000000,6.996435,24.821442,-0.798369
1649350576.022932,3880.000000,1649350576.022747,0.000000,0.000000,1.000000,0.000000,0.000000,0.000000,0.000000,6.989351,24.826100,-0.824356
1649350576.125569,3881.000000,1649350576.124935,0.000000,0.000000,1.000000,0.000000,0.000000,0.000000,0.000000,6.986064,24.827193,-0.834359
1649350576.224756,3882.000000,1649350576.224023,0.000000,0.000000,1.000000,0.000000,0.000000,0.000000,0.000000,6.989639,24.823822,-0.801606
1649350576.324738,3883.000000,1649350576.324052,0.000000,0.000000,1.000000,0.000000,0.000000,0.000000,0.000000,6.999684,24.817335,-0.746440
1649350576.426487,3884.000000,1649350576.425577,0.000000,0.000000,1.000000,0.000000,0.000000,0.000000,0.000000,7.012536,24.809013,-0.684390
1649350576.522245,3885.000000,1649350576.522073,0.000000,0.000000,1.000000,0.000000,0.000000,0.000000,0.000000,7.027997,24.801165,-0.603750
1649350576.624542,3886.000000,1649350576.624123,0.000000,0.000000,1.000000,0.000000,0.000000,0.000000,0.000000,7.034969,24.798149,-0.558639
1649350576.722351,3887.000000,1649350576.722169,0.000000,0.000000,1.000000,0.000000,0.000000,0.000000,0.000000,7.044800,24.793167,-0.492861
1649350576.823269,3888.000000,1649350576.822826,0.000000,0.000000,1.000000,0.000000,0.000000,0.000000,0.000000,7.058392,24.785249,-0.428324
1649350576.925462,3889.000000,1649350576.924466,0.000000,0.000000,1.000000,0.000000,0.000000,0.000000,0.000000,7.065691,24.782207,-0.395724
1649350577.025017,3890.000000,1649350577.024107,0.000000,0.000000,1.000000,0.000000,0.000000,0.000000,0.000000,7.067020,24.782692,-0.388979
1649350577.123607,3891.000000,1649350577.123156,0.000000,0.000000,1.000000,0.000000,0.000000,0.000000,0.000000,7.074703,24.779961,-0.353817
1649350577.225673,3892.000000,1649350577.225036,0.000000,0.000000,1.000000,0.000000,0.000000,0.000000,0.000000,7.080742,24.777466,-0.331750
1649350577.323517,3893.000000,1649350577.322821,0.000000,0.000000,1.000000,0.000000,0.000000,0.000000,0.000000,7.088488,24.771925,-0.294854
1649350577.423438,3894.000000,1649350577.423126,0.000000,0.000000,1.000000,0.000000,0.000000,0.000000,0.000000,7.098922,24.764606,-0.246190
1649350577.524839,3895.000000,1649350577.524427,0.000000,0.000000,1.000000,0.000000,0.000000,0.000000,0.000000,7.111873,24.756714,-0.186296
1649350577.624537,3896.000000,1649350577.623995,0.000000,0.000000,1.000000,0.000000,0.000000,0.000000,0.000000,7.116271,24.752660,-0.158446
1649350577.726532,3897.000000,1649350577.725108,0.000000,0.000000,1.000000,0.000000,0.000000,0.000000,0.000000,7.113671,24.753329,-0.149275
1649350577.824795,3898.000000,1649350577.824035,0.000000,0.000000,1.000000,0.000000,0.000000,0.000000,0.000000,7.107746,24.757365,-0.163664
1649350577.924251,3899.000000,1649350577.923757,0.000000,0.000000,1.000000,0.000000,0.000000,0.000000,0.000000,7.098706,24.762382,-0.194161
1649350578.024381,3900.000000,1649350578.023653,0.000000,0.000000,1.000000,0.000000,0.000000,0.000000,0.000000,7.093302,24.766125,-0.227140
1649350578.124396,3901.000000,1649350578.123908,0.000000,0.000000,1.000000,0.000000,0.000000,0.000000,0.000000,7.094631,24.765374,-0.226133
1649350578.224519,3902.000000,1649350578.223912,0.000000,0.000000,1.000000,0.000000,0.000000,0.000000,0.000000,7.092515,24.766914,-0.246528
1649350578.323631,3903.000000,1649350578.323033,0.000000,0.000000,1.000000,0.000000,0.000000,0.000000,0.000000,7.086063,24.770613,-0.273700
1649350578.425323,3904.000000,1649350578.424448,0.000000,0.000000,1.000000,0.000000,0.000000,0.000000,0.000000,7.080990,24.775246,-0.314574
1649350578.523600,3905.000000,1649350578.523118,0.000000,0.000000,1.000000,0.000000,0.000000,0.000000,0.000000,7.072877,24.782928,-0.364485
1649350578.623498,3906.000000,1649350578.623266,0.000000,0.000000,1.000000,0.000000,0.000000,0.000000,0.000000,7.070643,24.786922,-0.419749
1649350578.725409,3907.000000,1649350578.724705,0.000000,0.000000,1.000000,0.000000,0.000000,0.000000,0.000000,7.072884,24.785237,-0.431666
1649350578.826170,3908.000000,1649350578.824953,0.000000,0.000000,1.000000,0.000000,0.000000,0.000000,0.000000,7.073898,24.784731,-0.445510
1649350578.923793,3909.000000,1649350578.923289,0.000000,0.000000,1.000000,0.000000,0.000000,0.000000,0.000000,7.078111,24.783159,-0.421664
1649350579.024369,3910.000000,1649350579.023954,0.000000,0.000000,1.000000,0.000000,0.000000,0.000000,0.000000,7.082065,24.782767,-0.410883
1649350579.122889,3911.000000,1649350579.122530,0.000000,0.000000,1.000000,0.000000,0.000000,0.000000,0.000000,7.084673,24.783490,-0.404594
1649350579.224209,3912.000000,1649350579.223708,0.000000,0.000000,1.000000,0.000000,0.000000,0.000000,0.000000,7.081642,24.786356,-0.413916
1649350579.326352,3913.000000,1649350579.325164,0.000000,0.000000,1.000000,0.000000,0.000000,0.000000,0.000000,7.077652,24.791239,-0.439009
1649350579.424913,3914.000000,1649350579.424535,0.000000,0.000000,1.000000,0.000000,0.000000,0.000000,0.000000,7.070588,24.795834,-0.472742
1649350579.523422,3915.000000,1649350579.522842,0.000000,0.000000,1.000000,0.000000,0.000000,0.000000,0.000000,7.065004,24.801233,-0.516324
1649350579.622279,3916.000000,1649350579.622098,0.000000,0.000000,1.000000,0.000000,0.000000,0.000000,0.000000,7.066288,24.800835,-0.526545
1649350579.723828,3917.000000,1649350579.723458,0.000000,0.000000,1.000000,0.000000,0.000000,0.000000,0.000000,7.062066,24.803684,-0.550707
1649350579.822783,3918.000000,1649350579.822398,0.000000,0.000000,1.000000,0.000000,0.000000,0.000000,0.000000,7.057013,24.806324,-0.572892
1649350579.924273,3919.000000,1649350579.923536,0.000000,0.000000,1.000000,0.000000,0.000000,0.000000,0.000000,7.056639,24.803311,-0.566536
1649350580.024913,3920.000000,1649350580.024277,0.000000,0.000000,1.000000,0.000000,0.000000,0.000000,0.000000,7.053056,24.802598,-0.575552
1649350580.123542,3921.000000,1649350580.122999,0.000000,0.000000,1.000000,0.000000,0.000000,0.000000,0.000000,7.047537,24.802973,-0.593670
1649350580.222450,3922.000000,1649350580.222219,0.000000,0.000000,1.000000,0.000000,0.000000,0.000000,0.000000,7.048927,24.801108,-0.572113
1649350580.324680,3923.000000,1649350580.324226,0.000000,0.000000,1.000000,0.000000,0.000000,0.000000,0.000000,7.044846,24.802585,-0.568171
1649350580.425697,3924.000000,1649350580.424749,0.000000,0.000000,1.000000,0.000000,0.000000,0.000000,0.000000,7.037782,24.807219,-0.574699
1649350580.522333,3925.000000,1649350580.522206,0.000000,0.000000,1.000000,0.000000,0.000000,0.000000,0.000000,7.030097,24.812644,-0.594495
1649350580.624676,3926.000000,1649350580.623837,0.000000,0.000000,1.000000,0.000000,0.000000,0.000000,0.000000,7.022935,24.816622,-0.621355
1649350580.724072,3927.000000,1649350580.723727,0.000000,0.000000,1.000000,0.000000,0.000000,0.000000,0.000000,7.020646,24.820313,-0.647698
1649350580.822992,3928.000000,1649350580.822499,0.000000,0.000000,1.000000,0.000000,0.000000,0.000000,0.000000,7.015330,24.824817,-0.681575
1649350580.925039,3929.000000,1649350580.924445,0.000000,0.000000,1.000000,0.000000,0.000000,0.000000,0.000000,7.012616,24.828987,-0.722636
1649350581.023748,3930.000000,1649350581.023161,0.000000,0.000000,1.000000,0.000000,0.000000,0.000000,0.000000,7.016724,24.828474,-0.722149
1649350581.124884,3931.000000,1649350581.124278,0.000000,0.000000,1.000000,0.000000,0.000000,0.000000,0.000000,7.025080,24.823539,-0.695515
1649350581.222628,3932.000000,1649350581.222183,0.000000,0.000000,1.000000,0.000000,0.000000,0.000000,0.000000,7.034150,24.818805,-0.687396
1649350581.323335,3933.000000,1649350581.322984,0.000000,0.000000,1.000000,0.000000,0.000000,0.000000,0.000000,7.040590,24.815370,-0.682556
1649350581.422831,3934.000000,1649350581.422431,0.000000,0.000000,1.000000,0.000000,0.000000,0.000000,0.000000,7.049974,24.808816,-0.653463
1649350581.523113,3935.000000,1649350581.522716,0.000000,0.000000,1.000000,0.000000,0.000000,0.000000,0.000000,7.055566,24.805878,-0.647930
1649350581.623164,3936.000000,1649350581.622931,0.000000,0.000000,1.000000,0.000000,0.000000,0.000000,0.000000,7.065190,24.798736,-0.616636
1649350581.724210,3937.000000,1649350581.723630,0.000000,0.000000,1.000000,0.000000,0.000000,0.000000,0.000000,7.066603,24.796365,-0.603424
1649350581.821318,3938.000000,1649350581.821150,0.000000,0.000000,1.000000,0.000000,0.000000,0.000000,0.000000,7.067883,24.794149,-0.590654
1649350581.923188,3939.000000,1649350581.922781,0.000000,0.000000,1.000000,0.000000,0.000000,0.000000,0.000000,7.063584,24.795357,-0.589627
1649350582.022548,3940.000000,1649350582.022268,0.000000,0.000000,1.000000,0.000000,0.000000,0.000000,0.000000,7.064933,24.794344,-0.602292
1649350582.122534,3941.000000,1649350582.122226,0.000000,0.000000,1.000000,0.000000,0.000000,0.000000,0.000000,7.060714,24.797776,-0.624852
1649350582.226565,3942.000000,1649350582.225315,0.000000,0.000000,1.000000,0.000000,0.000000,0.000000,0.000000,7.057789,24.799947,-0.642358
1649350582.326621,3943.000000,1649350582.325099,0.000000,0.000000,1.000000,0.000000,0.000000,0.000000,0.000000,7.056099,24.802007,-0.671117
1649350582.422306,3944.000000,1649350582.422118,0.000000,0.000000,1.000000,0.000000,0.000000,0.000000,0.000000,7.052311,24.802865,-0.684020
1649350582.524426,3945.000000,1649350582.523782,0.000000,0.000000,1.000000,0.000000,0.000000,0.000000,0.000000,7.050913,24.803674,-0.698627
1649350582.623018,3946.000000,1649350582.622779,0.000000,0.000000,1.000000,0.000000,0.000000,0.000000,0.000000,7.053961,24.800074,-0.680982
1649350582.724634,3947.000000,1649350582.724177,0.000000,0.000000,1.000000,0.000000,0.000000,0.000000,0.000000,7.056840,24.797767,-0.672746
1649350582.822738,3948.000000,1649350582.822402,0.000000,0.000000,1.000000,0.000000,0.000000,0.000000,0.000000,7.062822,24.793419,-0.631626
1649350582.924252,3949.000000,1649350582.923913,0.000000,0.000000,1.000000,0.000000,0.000000,0.000000,0.000000,7.066268,24.790425,-0.604991
1649350583.022979,3950.000000,1649350583.022857,0.000000,0.000000,1.000000,0.000000,0.000000,0.000000,0.000000,7.058584,24.795262,-0.594724
1649350583.125083,3951.000000,1649350583.124141,0.000000,0.000000,1.000000,0.000000,0.000000,0.000000,0.000000,7.049125,24.800944,-0.600186
1649350583.222646,3952.000000,1649350583.222383,0.000000,0.000000,1.000000,0.000000,0.000000,0.000000,0.000000,7.047832,24.800862,-0.575571
1649350583.323080,3953.000000,1649350583.322771,0.000000,0.000000,1.000000,0.000000,0.000000,0.000000,0.000000,7.040089,24.805146,-0.573747
1649350583.423054,3954.000000,1649350583.422775,0.000000,0.000000,1.000000,0.000000,0.000000,0.000000,0.000000,7.036083,24.809182,-0.589766
1649350583.524804,3955.000000,1649350583.524182,0.000000,0.000000,1.000000,0.000000,0.000000,0.000000,0.000000,7.034531,24.812972,-0.616428
1649350583.623675,3956.000000,1649350583.623283,0.000000,0.000000,1.000000,0.000000,0.000000,0.000000,0.000000,7.036390,24.813247,-0.644389
1649350583.723445,3957.000000,1649350583.722913,0.000000,0.000000,1.000000,0.000000,0.000000,0.000000,0.000000,7.043648,24.809110,-0.635646
1649350583.822186,3958.000000,1649350583.822029,0.000000,0.000000,1.000000,0.000000,0.000000,0.000000,0.000000,7.053802,24.802998,-0.590086
1649350583.923600,3959.000000,1649350583.922825,0.000000,0.000000,1.000000,0.000000,0.000000,0.000000,0.000000,7.057940,24.799399,-0.568144
1649350584.022501,3960.000000,1649350584.022262,0.000000,0.000000,1.000000,0.000000,0.000000,0.000000,0.000000,7.058557,24.796008,-0.549549
1649350584.124523,3961.000000,1649350584.123765,0.000000,0.000000,1.000000,0.000000,0.000000,0.000000,0.000000,7.058026,24.795004,-0.530971
1649350584.223109,3962.000000,1649350584.222848,0.000000,0.000000,1.000000,0.000000,0.000000,0.000000,0.000000,7.056411,24.792987,-0.523727
1649350584.322317,3963.000000,1649350584.322114,0.000000,0.000000,1.000000,0.000000,0.000000,0.000000,0.000000,7.052689,24.790018,-0.515273
1649350584.422227,3964.000000,1649350584.422056,0.000000,0.000000,1.000000,0.000000,0.000000,0.000000,0.000000,7.054619,24.783976,-0.475827
1649350584.524666,3965.000000,1649350584.523853,0.000000,0.000000,1.000000,0.000000,0.000000,0.000000,0.000000,7.056435,24.779406,-0.459928
1649350584.625602,3966.000000,1649350584.624705,0.000000,0.000000,1.000000,0.000000,0.000000,0.000000,0.000000,7.052687,24.779511,-0.461805
1649350584.725823,3967.000000,1649350584.724984,0.000000,0.000000,1.000000,0.000000,0.000000,0.000000,0.000000,7.050232,24.780761,-0.474280
1649350584.823938,3968.000000,1649350584.823294,0.000000,0.000000,1.000000,0.000000,0.000000,0.000000,0.000000,7.047917,24.780905,-0.479961
1649350584.926675,3969.000000,1649350584.925485,0.000000,0.000000,1.000000,0.000000,0.000000,0.000000,0.000000,7.052284,24.781091,-0.448460
1649350585.023464,3970.000000,1649350585.023147,0.000000,0.000000,1.000000,0.000000,0.000000,0.000000,0.000000,7.052051,24.783493,-0.436968
1649350585.124408,3971.000000,1649350585.123976,0.000000,0.000000,1.000000,0.000000,0.000000,0.000000,0.000000,7.046379,24.790162,-0.443884
1649350585.222700,3972.000000,1649350585.222477,0.000000,0.000000,1.000000,0.000000,0.000000,0.000000,0.000000,7.042123,24.795390,-0.451510
1649350585.327090,3973.000000,1649350585.326637,0.000000,0.000000,1.000000,0.000000,0.000000,0.000000,0.000000,7.043581,24.795967,-0.425926
1649350585.422044,3974.000000,1649350585.421705,0.000000,0.000000,1.000000,0.000000,0.000000,0.000000,0.000000,7.044984,24.796506,-0.401572
1649350585.526842,3975.000000,1649350585.526201,0.000000,0.000000,1.000000,0.000000,0.000000,0.000000,0.000000,7.044147,24.798099,-0.396172
1649350585.624911,3976.000000,1649350585.624269,0.000000,0.000000,1.000000,0.000000,0.000000,0.000000,0.000000,7.040105,24.801774,-0.410576
1649350585.723717,3977.000000,1649350585.723287,0.000000,0.000000,1.000000,0.000000,0.000000,0.000000,0.000000,7.030862,24.807407,-0.431854
1649350585.824869,3978.000000,1649350585.824269,0.000000,0.000000,1.000000,0.000000,0.000000,0.000000,0.000000,7.025452,24.810512,-0.454847
1649350585.923560,3979.000000,1649350585.923124,0.000000,0.000000,1.000000,0.000000,0.000000,0.000000,0.000000,7.026951,24.811221,-0.485890
1649350586.025683,3980.000000,1649350586.024857,0.000000,0.000000,1.000000,0.000000,0.000000,0.000000,0.000000,7.026250,24.814026,-0.527022
1649350586.124149,3981.000000,1649350586.123559,0.000000,0.000000,1.000000,0.000000,0.000000,0.000000,0.000000,7.027831,24.816625,-0.574539
1649350586.223148,3982.000000,1649350586.222718,0.000000,0.000000,1.000000,0.000000,0.000000,0.000000,0.000000,7.033740,24.817935,-0.570846
1649350586.324668,3983.000000,1649350586.324069,0.000000,0.000000,1.000000,0.000000,0.000000,0.000000,0.000000,7.031727,24.821296,-0.571242
1649350586.424103,3984.000000,1649350586.423564,0.000000,0.000000,1.000000,0.000000,0.000000,0.000000,0.000000,7.025497,24.825498,-0.579599
1649350586.523626,3985.000000,1649350586.522969,0.000000,0.000000,1.000000,0.000000,0.000000,0.000000,0.000000,7.019661,24.829396,-0.590747
1649350586.622402,3986.000000,1649350586.622203,0.000000,0.000000,1.000000,0.000000,0.000000,0.000000,0.000000,7.018572,24.831909,-0.603751
1649350586.723644,3987.000000,1649350586.723190,0.000000,0.000000,1.000000,0.000000,0.000000,0.000000,0.000000,7.017612,24.833108,-0.608843
1649350586.823758,3988.000000,1649350586.823253,0.000000,0.000000,1.000000,0.000000,0.000000,0.000000,0.000000,7.018952,24.834157,-0.628918
1649350586.923903,3989.000000,1649350586.923550,0.000000,0.000000,1.000000,0.000000,0.000000,0.000000,0.000000,7.018097,24.837246,-0.660119
1649350587.022702,3990.000000,1649350587.022413,0.000000,0.000000,1.000000,0.000000,0.000000,0.000000,0.000000,7.019529,24.837897,-0.678564
1649350587.123032,3991.000000,1649350587.122678,0.000000,0.000000,1.000000,0.000000,0.000000,0.000000,0.000000,7.026385,24.836248,-0.651680
1649350587.222292,3992.000000,1649350587.222114,0.000000,0.000000,1.000000,0.000000,0.000000,0.000000,0.000000,7.037255,24.831341,-0.609575
1649350587.324072,3993.000000,1649350587.323087,0.000000,0.000000,1.000000,0.000000,0.000000,0.000000,0.000000,7.046434,24.826647,-0.572296
1649350587.422129,3994.000000,1649350587.421958,0.000000,0.000000,1.000000,0.000000,0.000000,0.000000,0.000000,7.050713,24.823261,-0.557457
1649350587.524502,3995.000000,1649350587.523788,0.000000,0.000000,1.000000,0.000000,0.000000,0.000000,0.000000,7.055800,24.820036,-0.552085
1649350587.625568,3996.000000,1649350587.624698,0.000000,0.000000,1.000000,0.000000,0.000000,0.000000,0.000000,7.059457,24.816972,-0.549355
1649350587.727704,3997.000000,1649350587.725003,0.000000,0.000000,1.000000,0.000000,0.000000,0.000000,0.000000,7.061754,24.812983,-0.563682
1649350587.822178,3998.000000,1649350587.822028,0.000000,0.000000,1.000000,0.000000,0.000000,0.000000,0.000000,7.061672,24.811402,-0.586287
1649350587.923672,3999.000000,1649350587.923295,0.000000,0.000000,1.000000,0.000000,0.000000,0.000000,0.000000,7.065887,24.805560,-0.580511
1649350588.022869,4000.000000,1649350588.022608,0.000000,0.000000,1.000000,0.000000,0.000000,0.000000,0.000000,7.065433,24.803340,-0.590249
1649350588.122233,4001.000000,1649350588.122093,0.000000,0.000000,1.000000,0.000000,0.000000,0.000000,0.000000,7.062750,24.803458,-0.614057
1649350588.222208,4002.000000,1649350588.222059,0.000000,0.000000,1.000000,0.000000,0.000000,0.000000,0.000000,7.057973,24.804696,-0.641651
1649350588.322367,4003.000000,1649350588.322145,0.000000,0.000000,1.000000,0.000000,0.000000,0.000000,0.000000,7.053415,24.805894,-0.676869
1649350588.422846,4004.000000,1649350588.422436,0.000000,0.000000,1.000000,0.000000,0.000000,0.000000,0.000000,7.051261,24.805960,-0.704832
1649350588.526652,4005.000000,1649350588.526111,0.000000,0.000000,1.000000,0.000000,0.000000,0.000000,0.000000,7.050299,24.806045,-0.729019
1649350588.625485,4006.000000,1649350588.624606,0.000000,0.000000,1.000000,0.000000,0.000000,0.000000,0.000000,7.046106,24.809416,-0.757617
1649350588.726039,4007.000000,1649350588.725082,0.000000,0.000000,1.000000,0.000000,0.000000,0.000000,0.000000,7.048685,24.809341,-0.742021
1649350588.824315,4008.000000,1649350588.823849,0.000000,0.000000,1.000000,0.000000,0.000000,0.000000,0.000000,7.054388,24.809278,-0.735666
1649350588.923552,4009.000000,1649350588.923126,0.000000,0.000000,1.000000,0.000000,0.000000,0.000000,0.000000,7.054305,24.810317,-0.743039
1649350589.023566,4010.000000,1649350589.023250,0.000000,0.000000,1.000000,0.000000,0.000000,0.000000,0.000000,7.057475,24.809123,-0.710359
1649350589.123161,4011.000000,1649350589.122825,0.000000,0.000000,1.000000,0.000000,0.000000,0.000000,0.000000,7.065892,24.809092,-0.685274
1649350589.222887,4012.000000,1649350589.222363,0.000000,0.000000,1.000000,0.000000,0.000000,0.000000,0.000000,7.070524,24.809071,-0.678010
1649350589.323549,4013.000000,1649350589.323112,0.000000,0.000000,1.000000,0.000000,0.000000,0.000000,0.000000,7.078108,24.804695,-0.651577
1649350589.423027,4014.000000,1649350589.422710,0.000000,0.000000,1.000000,0.000000,0.000000,0.000000,0.000000,7.079739,24.802760,-0.642281
1649350589.524270,4015.000000,1649350589.523541,0.000000,0.000000,1.000000,0.000000,0.000000,0.000000,0.000000,7.084466,24.797684,-0.605094
1649350589.624341,4016.000000,1649350589.623922,0.000000,0.000000,1.000000,0.000000,0.000000,0.000000,0.000000,7.089928,24.794014,-0.587173
1649350589.722695,4017.000000,1649350589.722459,0.000000,0.000000,1.000000,0.000000,0.000000,0.000000,0.000000,7.091712,24.793865,-0.584546
1649350589.823029,4018.000000,1649350589.822568,0.000000,0.000000,1.000000,0.000000,0.000000,0.000000,0.000000,7.088930,24.794861,-0.594984
1649350589.923847,4019.000000,1649350589.923511,0.000000,0.000000,1.000000,0.000000,0.000000,0.000000,0.000000,7.085115,24.795844,-0.599392
1649350590.022148,4020.000000,1649350590.021980,0.000000,0.000000,1.000000,0.000000,0.000000,0.000000,0.000000,7.081433,24.795718,-0.601232
1649350590.125095,4021.000000,1649350590.124368,0.000000,0.000000,1.000000,0.000000,0.000000,0.000000,0.000000,7.074620,24.796724,-0.609472
1649350590.222981,4022.000000,1649350590.222662,0.000000,0.000000,1.000000,0.000000,0.000000,0.000000,0.000000,7.068144,24.798793,-0.630292
1649350590.322702,4023.000000,1649350590.322466,0.000000,0.000000,1.000000,0.000000,0.000000,0.000000,0.000000,7.068550,24.799680,-0.607503
1649350590.423851,4024.000000,1649350590.423067,0.000000,0.000000,1.000000,0.000000,0.000000,0.000000,0.000000,7.073282,24.797264,-0.563871
1649350590.524059,4025.000000,1649350590.523448,0.000000,0.000000,1.000000,0.000000,0.000000,0.000000,0.000000,7.076640,24.796094,-0.548696
1649350590.622586,4026.000000,1649350590.622361,0.000000,0.000000,1.000000,0.000000,0.000000,0.000000,0.000000,7.076506,24.796103,-0.545532
1649350590.726568,4027.000000,1649350590.725779,0.000000,0.000000,1.000000,0.000000,0.000000,0.000000,0.000000,7.078528,24.795045,-0.560345
1649350590.824925,4028.000000,1649350590.823937,0.000000,0.000000,1.000000,0.000000,0.000000,0.000000,0.000000,7.084762,24.790799,-0.542383
1649350590.923130,4029.000000,1649350590.922904,0.000000,0.000000,1.000000,0.000000,0.000000,0.000000,0.000000,7.092783,24.783552,-0.504284
1649350591.023366,4030.000000,1649350591.022985,0.000000,0.000000,1.000000,0.000000,0.000000,0.000000,0.000000,7.095927,24.778938,-0.471918
1649350591.122817,4031.000000,1649350591.122464,0.000000,0.000000,1.000000,0.000000,0.000000,0.000000,0.000000,7.098817,24.776827,-0.466878
1649350591.223702,4032.000000,1649350591.223339,0.000000,0.000000,1.000000,0.000000,0.000000,0.000000,0.000000,7.097100,24.778173,-0.479191
1649350591.326155,4033.000000,1649350591.324519,0.000000,0.000000,1.000000,0.000000,0.000000,0.000000,0.000000,7.098672,24.776240,-0.460546
1649350591.425358,4034.000000,1649350591.424944,0.000000,0.000000,1.000000,0.000000,0.000000,0.000000,0.000000,7.097899,24.775568,-0.444474
1649350591.524648,4035.000000,1649350591.524230,0.000000,0.000000,1.000000,0.000000,0.000000,0.000000,0.000000,7.100370,24.772816,-0.400243
1649350591.624960,4036.000000,1649350591.624179,0.000000,0.000000,1.000000,0.000000,0.000000,0.000000,0.000000,7.104812,24.768103,-0.341958
1649350591.726239,4037.000000,1649350591.724693,0.000000,0.000000,1.000000,0.000000,0.000000,0.000000,0.000000,7.103477,24.766998,-0.316239
1649350591.822945,4038.000000,1649350591.822708,0.000000,0.000000,1.000000,0.000000,0.000000,0.000000,0.000000,7.097778,24.767123,-0.311318
1649350591.923532,4039.000000,1649350591.923012,0.000000,0.000000,1.000000,0.000000,0.000000,0.000000,0.000000,7.092337,24.769497,-0.310218
1649350592.022449,4040.000000,1649350592.022238,0.000000,0.000000,1.000000,0.000000,0.000000,0.000000,0.000000,7.092611,24.768532,-0.284546
1649350592.124853,4041.000000,1649350592.123698,0.000000,0.000000,1.000000,0.000000,0.000000,0.000000,0.000000,7.093930,24.765501,-0.262737
1649350592.225429,4042.000000,1649350592.224964,0.000000,0.000000,1.000000,0.000000,0.000000,0.000000,0.000000,7.098414,24.761612,-0.210786
1649350592.322623,4043.000000,1649350592.322319,0.000000,0.000000,1.000000,0.000000,0.000000,0.000000,0.000000,7.101518,24.759102,-0.175944
1649350592.425031,4044.000000,1649350592.424539,0.000000,0.000000,1.000000,0.000000,0.000000,0.000000,0.000000,7.098947,24.760079,-0.164012
