__time,/dwm1001/id_458E/pose_kf/header/seq,/dwm1001/id_458E/pose_kf/header/stamp,/dwm1001/id_458E/pose_kf/pose/orientation/pitch_deg,/dwm1001/id_458E/pose_kf/pose/orientation/roll_deg,/dwm1001/id_458E/pose_kf/pose/orientation/w,/dwm1001/id_458E/pose_kf/pose/orientation/x,/dwm1001/id_458E/pose_kf/pose/orientation/y,/dwm1001/id_458E/pose_kf/pose/orientation/yaw_deg,/dwm1001/id_458E/pose_kf/pose/orientation/z,/dwm1001/id_458E/pose_kf/pose/position/x,/dwm1001/id_458E/pose_kf/pose/position/y,/dwm1001/id_458E/pose_kf/pose/position/z
1649346704.633903,26182.000000,1649346704.633370,0.000000,0.000000,1.000000,0.000000,0.000000,0.000000,0.000000,7.840032,5.132184,-0.691588
1649346704.732412,26183.000000,1649346704.732106,0.000000,0.000000,1.000000,0.000000,0.000000,0.000000,0.000000,7.841144,5.131989,-0.686435
1649346704.833836,26184.000000,1649346704.833421,0.000000,0.000000,1.000000,0.000000,0.000000,0.000000,0.000000,7.842190,5.131803,-0.687185
1649346704.934512,26185.000000,1649346704.933933,0.000000,0.000000,1.000000,0.000000,0.000000,0.000000,0.000000,7.843171,5.132716,-0.691985
1649346705.034722,26186.000000,1649346705.034007,0.000000,0.000000,1.000000,0.000000,0.000000,0.000000,0.000000,7.842997,5.133576,-0.690982
1649346705.134451,26187.000000,1649346705.133408,0.000000,0.000000,1.000000,0.000000,0.000000,0.000000,0.000000,7.842824,5.134382,-0.687638
1649346705.234899,26188.000000,1649346705.234235,0.000000,0.000000,1.000000,0.000000,0.000000,0.000000,0.000000,7.842652,5.134046,-0.682857
1649346705.335582,26189.000000,1649346705.334699,0.000000,0.000000,1.000000,0.000000,0.000000,0.000000,0.000000,7.842482,5.134811,-0.671058
1649346705.438716,26190.000000,1649346705.438052,0.000000,0.000000,1.000000,0.000000,0.000000,0.000000,0.000000,7.841224,5.135525,-0.660607
1649346705.532839,26191.000000,1649346705.532372,0.000000,0.000000,1.000000,0.000000,0.000000,0.000000,0.000000,7.841123,5.136189,-0.657109
1649346705.634523,26192.000000,1649346705.634057,0.000000,0.000000,1.000000,0.000000,0.000000,0.000000,0.000000,7.841027,5.137896,-0.652223
1649346705.735324,26193.000000,1649346705.734686,0.000000,0.000000,1.000000,0.000000,0.000000,0.000000,0.000000,7.840934,5.138402,-0.651653
1649346705.833015,26194.000000,1649346705.832692,0.000000,0.000000,1.000000,0.000000,0.000000,0.000000,0.000000,7.840845,5.138863,-0.639901
1649346705.936368,26195.000000,1649346705.935610,0.000000,0.000000,1.000000,0.000000,0.000000,0.000000,0.000000,7.841852,5.139281,-0.634370
1649346706.038661,26196.000000,1649346706.036644,0.000000,0.000000,1.000000,0.000000,0.000000,0.000000,0.000000,7.841709,5.138567,-0.634813
1649346706.136751,26197.000000,1649346706.135942,0.000000,0.000000,1.000000,0.000000,0.000000,0.000000,0.000000,7.841571,5.137878,-0.642598
1649346706.233204,26198.000000,1649346706.232788,0.000000,0.000000,1.000000,0.000000,0.000000,0.000000,0.000000,7.841439,5.136123,-0.654186
1649346706.334218,26199.000000,1649346706.333597,0.000000,0.000000,1.000000,0.000000,0.000000,0.000000,0.000000,7.842402,5.134459,-0.666980
1649346706.433504,26200.000000,1649346706.432884,0.000000,0.000000,1.000000,0.000000,0.000000,0.000000,0.000000,7.842217,5.132885,-0.669617
1649346706.533830,26201.000000,1649346706.533203,0.000000,0.000000,1.000000,0.000000,0.000000,0.000000,0.000000,7.840949,5.132492,-0.668953
1649346706.633492,26202.000000,1649346706.632935,0.000000,0.000000,1.000000,0.000000,0.000000,0.000000,0.000000,7.838659,5.132126,-0.670765
1649346706.734017,26203.000000,1649346706.733208,0.000000,0.000000,1.000000,0.000000,0.000000,0.000000,0.000000,7.837592,5.132877,-0.667692
1649346706.834206,26204.000000,1649346706.833506,0.000000,0.000000,1.000000,0.000000,0.000000,0.000000,0.000000,7.835503,5.133590,-0.664772
1649346706.934598,26205.000000,1649346706.934015,0.000000,0.000000,1.000000,0.000000,0.000000,0.000000,0.000000,7.834635,5.134267,-0.664424
1649346707.036012,26206.000000,1649346707.035080,0.000000,0.000000,1.000000,0.000000,0.000000,0.000000,0.000000,7.833832,5.133815,-0.668961
1649346707.136558,26207.000000,1649346707.135977,0.000000,0.000000,1.000000,0.000000,0.000000,0.000000,0.000000,7.833093,5.132298,-0.674145
1649346707.234804,26208.000000,1649346707.234108,0.000000,0.000000,1.000000,0.000000,0.000000,0.000000,0.000000,7.831324,5.130870,-0.680748
1649346707.333277,26209.000000,1649346707.332757,0.000000,0.000000,1.000000,0.000000,0.000000,0.000000,0.000000,7.829678,5.129528,-0.677409
1649346707.434189,26210.000000,1649346707.433175,0.000000,0.000000,1.000000,0.000000,0.000000,0.000000,0.000000,7.828149,5.128273,-0.672600
1649346707.533403,26211.000000,1649346707.532871,0.000000,0.000000,1.000000,0.000000,0.000000,0.000000,0.000000,7.826736,5.128193,-0.668001
1649346707.636195,26212.000000,1649346707.635608,0.000000,0.000000,1.000000,0.000000,0.000000,0.000000,0.000000,7.825435,5.128133,-0.668448
1649346707.735577,26213.000000,1649346707.734188,0.000000,0.000000,1.000000,0.000000,0.000000,0.000000,0.000000,7.825332,5.129182,-0.667285
1649346707.836585,26214.000000,1649346707.835842,0.000000,0.000000,1.000000,0.000000,0.000000,0.000000,0.000000,7.825269,5.130185,-0.669418
1649346707.932959,26215.000000,1649346707.932593,0.000000,0.000000,1.000000,0.000000,0.000000,0.000000,0.000000,7.825243,5.130049,-0.677127
1649346708.032641,26216.000000,1649346708.032220,0.000000,0.000000,1.000000,0.000000,0.000000,0.000000,0.000000,7.825250,5.129928,-0.674045
1649346708.133126,26217.000000,1649346708.132733,0.000000,0.000000,1.000000,0.000000,0.000000,0.000000,0.000000,7.825286,5.130911,-0.674323
1649346708.236461,26218.000000,1649346708.235486,0.000000,0.000000,1.000000,0.000000,0.000000,0.000000,0.000000,7.825348,5.131845,-0.672984
1649346708.338734,26219.000000,1649346708.337244,0.000000,0.000000,1.000000,0.000000,0.000000,0.000000,0.000000,7.826522,5.131637,-0.680581
1649346708.433269,26220.000000,1649346708.432898,0.000000,0.000000,1.000000,0.000000,0.000000,0.000000,0.000000,7.828744,5.131441,-0.686254
1649346708.536928,26221.000000,1649346708.535976,0.000000,0.000000,1.000000,0.000000,0.000000,0.000000,0.000000,7.830857,5.132349,-0.686848
1649346708.632916,26222.000000,1649346708.632483,0.000000,0.000000,1.000000,0.000000,0.000000,0.000000,0.000000,7.832861,5.132115,-0.692243
1649346708.734692,26223.000000,1649346708.734260,0.000000,0.000000,1.000000,0.000000,0.000000,0.000000,0.000000,7.834753,5.131893,-0.695786
1649346708.832905,26224.000000,1649346708.832579,0.000000,0.000000,1.000000,0.000000,0.000000,0.000000,0.000000,7.836536,5.132774,-0.697547
1649346708.933794,26225.000000,1649346708.933110,0.000000,0.000000,1.000000,0.000000,0.000000,0.000000,0.000000,7.839299,5.133604,-0.699207
1649346709.034275,26226.000000,1649346709.033650,0.000000,0.000000,1.000000,0.000000,0.000000,0.000000,0.000000,7.841891,5.134384,-0.695126
1649346709.135336,26227.000000,1649346709.134007,0.000000,0.000000,1.000000,0.000000,0.000000,0.000000,0.000000,7.844314,5.135115,-0.691992
1649346709.235437,26228.000000,1649346709.234955,0.000000,0.000000,1.000000,0.000000,0.000000,0.000000,0.000000,7.845482,5.135796,-0.685744
1649346709.336592,26229.000000,1649346709.335472,0.000000,0.000000,1.000000,0.000000,0.000000,0.000000,0.000000,7.846550,5.136430,-0.678129
1649346709.433819,26230.000000,1649346709.433162,0.000000,0.000000,1.000000,0.000000,0.000000,0.000000,0.000000,7.847524,5.137017,-0.674863
1649346709.532685,26231.000000,1649346709.532250,0.000000,0.000000,1.000000,0.000000,0.000000,0.000000,0.000000,7.847317,5.136468,-0.671741
1649346709.635243,26232.000000,1649346709.634750,0.000000,0.000000,1.000000,0.000000,0.000000,0.000000,0.000000,7.847086,5.135938,-0.673602
1649346709.734850,26233.000000,1649346709.733998,0.000000,0.000000,1.000000,0.000000,0.000000,0.000000,0.000000,7.845745,5.135429,-0.677822
1649346709.836814,26234.000000,1649346709.836253,0.000000,0.000000,1.000000,0.000000,0.000000,0.000000,0.000000,7.845542,5.133851,-0.684298
1649346709.934114,26235.000000,1649346709.933059,0.000000,0.000000,1.000000,0.000000,0.000000,0.000000,0.000000,7.845327,5.133448,-0.692928
1649346710.034962,26236.000000,1649346710.034631,0.000000,0.000000,1.000000,0.000000,0.000000,0.000000,0.000000,7.844011,5.134158,-0.698772
1649346710.132308,26237.000000,1649346710.132044,0.000000,0.000000,1.000000,0.000000,0.000000,0.000000,0.000000,7.843840,5.133737,-0.704351
1649346710.241102,26238.000000,1649346710.238909,0.000000,0.000000,1.000000,0.000000,0.000000,0.000000,0.000000,7.843664,5.134428,-0.703218
1649346710.332891,26239.000000,1649346710.332324,0.000000,0.000000,1.000000,0.000000,0.000000,0.000000,0.000000,7.843484,5.135079,-0.703711
1649346710.437006,26240.000000,1649346710.436091,0.000000,0.000000,1.000000,0.000000,0.000000,0.000000,0.000000,7.842212,5.134600,-0.704151
1649346710.533982,26241.000000,1649346710.533736,0.000000,0.000000,1.000000,0.000000,0.000000,0.000000,0.000000,7.839911,5.135235,-0.694864
1649346710.636820,26242.000000,1649346710.635136,0.000000,0.000000,1.000000,0.000000,0.000000,0.000000,0.000000,7.837735,5.135830,-0.689162
1649346710.733058,26243.000000,1649346710.732785,0.000000,0.000000,1.000000,0.000000,0.000000,0.000000,0.000000,7.836776,5.135296,-0.690138
1649346710.832371,26244.000000,1649346710.832155,0.000000,0.000000,1.000000,0.000000,0.000000,0.000000,0.000000,7.835878,5.135878,-0.689455
1649346710.935589,26245.000000,1649346710.935018,0.000000,0.000000,1.000000,0.000000,0.000000,0.000000,0.000000,7.835042,5.135331,-0.696054
1649346711.036982,26246.000000,1649346711.035594,0.000000,0.000000,1.000000,0.000000,0.000000,0.000000,0.000000,7.834265,5.134811,-0.703983
1649346711.134217,26247.000000,1649346711.133714,0.000000,0.000000,1.000000,0.000000,0.000000,0.000000,0.000000,7.834636,5.134317,-0.709952
1649346711.233644,26248.000000,1649346711.233108,0.000000,0.000000,1.000000,0.000000,0.000000,0.000000,0.000000,7.835000,5.134940,-0.714837
1649346711.334852,26249.000000,1649346711.334299,0.000000,0.000000,1.000000,0.000000,0.000000,0.000000,0.000000,7.835357,5.134437,-0.718675
1649346711.438559,26250.000000,1649346711.435178,0.000000,0.000000,1.000000,0.000000,0.000000,0.000000,0.000000,7.836794,5.132870,-0.736019
1649346711.533274,26251.000000,1649346711.532883,0.000000,0.000000,1.000000,0.000000,0.000000,0.000000,0.000000,7.838157,5.132484,-0.747749
1649346711.632948,26252.000000,1649346711.632561,0.000000,0.000000,1.000000,0.000000,0.000000,0.000000,0.000000,7.838356,5.133214,-0.745204
1649346711.733416,26253.000000,1649346711.732499,0.000000,0.000000,1.000000,0.000000,0.000000,0.000000,0.000000,7.839634,5.134998,-0.740257
1649346711.834221,26254.000000,1649346711.833628,0.000000,0.000000,1.000000,0.000000,0.000000,0.000000,0.000000,7.839747,5.135591,-0.738664
1649346711.935656,26255.000000,1649346711.935036,0.000000,0.000000,1.000000,0.000000,0.000000,0.000000,0.000000,7.839850,5.136148,-0.729003
1649346712.032432,26256.000000,1649346712.032202,0.000000,0.000000,1.000000,0.000000,0.000000,0.000000,0.000000,7.839942,5.136668,-0.711620
1649346712.134061,26257.000000,1649346712.133431,0.000000,0.000000,1.000000,0.000000,0.000000,0.000000,0.000000,7.838934,5.138242,-0.700566
1649346712.234065,26258.000000,1649346712.233662,0.000000,0.000000,1.000000,0.000000,0.000000,0.000000,0.000000,7.839071,5.138629,-0.691574
1649346712.333143,26259.000000,1649346712.332291,0.000000,0.000000,1.000000,0.000000,0.000000,0.000000,0.000000,7.838108,5.138982,-0.686188
1649346712.434225,26260.000000,1649346712.433673,0.000000,0.000000,1.000000,0.000000,0.000000,0.000000,0.000000,7.838289,5.139303,-0.681047
1649346712.536596,26261.000000,1649346712.535940,0.000000,0.000000,1.000000,0.000000,0.000000,0.000000,0.000000,7.838461,5.139593,-0.680179
1649346712.634574,26262.000000,1649346712.634012,0.000000,0.000000,1.000000,0.000000,0.000000,0.000000,0.000000,7.838624,5.138764,-0.685832
1649346712.734003,26263.000000,1649346712.733019,0.000000,0.000000,1.000000,0.000000,0.000000,0.000000,0.000000,7.839869,5.136880,-0.697733
1649346712.835071,26264.000000,1649346712.834192,0.000000,0.000000,1.000000,0.000000,0.000000,0.000000,0.000000,7.841041,5.136185,-0.708349
1649346712.935641,26265.000000,1649346712.933858,0.000000,0.000000,1.000000,0.000000,0.000000,0.000000,0.000000,7.841052,5.135527,-0.717716
1649346713.034981,26266.000000,1649346713.034117,0.000000,0.000000,1.000000,0.000000,0.000000,0.000000,0.000000,7.842145,5.135997,-0.725061
1649346713.133009,26267.000000,1649346713.132684,0.000000,0.000000,1.000000,0.000000,0.000000,0.000000,0.000000,7.842078,5.136440,-0.732067
1649346713.233928,26268.000000,1649346713.233435,0.000000,0.000000,1.000000,0.000000,0.000000,0.000000,0.000000,7.843096,5.137948,-0.737932
1649346713.334139,26269.000000,1649346713.333712,0.000000,0.000000,1.000000,0.000000,0.000000,0.000000,0.000000,7.844046,5.137187,-0.749146
1649346713.433994,26270.000000,1649346713.433579,0.000000,0.000000,1.000000,0.000000,0.000000,0.000000,0.000000,7.844930,5.137553,-0.754993
1649346713.535228,26271.000000,1649346713.534466,0.000000,0.000000,1.000000,0.000000,0.000000,0.000000,0.000000,7.844659,5.137896,-0.754069
1649346713.632550,26272.000000,1649346713.632264,0.000000,0.000000,1.000000,0.000000,0.000000,0.000000,0.000000,7.845479,5.137123,-0.762782
1649346713.734013,26273.000000,1649346713.733523,0.000000,0.000000,1.000000,0.000000,0.000000,0.000000,0.000000,7.846238,5.136390,-0.765408
1649346713.832668,26274.000000,1649346713.832312,0.000000,0.000000,1.000000,0.000000,0.000000,0.000000,0.000000,7.845847,5.134607,-0.769452
1649346713.932821,26275.000000,1649346713.932460,0.000000,0.000000,1.000000,0.000000,0.000000,0.000000,0.000000,7.845463,5.134016,-0.769206
1649346714.034097,26276.000000,1649346714.033383,0.000000,0.000000,1.000000,0.000000,0.000000,0.000000,0.000000,7.843995,5.132374,-0.767268
1649346714.136579,26277.000000,1649346714.135530,0.000000,0.000000,1.000000,0.000000,0.000000,0.000000,0.000000,7.844780,5.131924,-0.768553
1649346714.234653,26278.000000,1649346714.234008,0.000000,0.000000,1.000000,0.000000,0.000000,0.000000,0.000000,7.845512,5.131511,-0.769704
1649346714.332657,26279.000000,1649346714.332407,0.000000,0.000000,1.000000,0.000000,0.000000,0.000000,0.000000,7.846193,5.131133,-0.773956
1649346714.436516,26280.000000,1649346714.435573,0.000000,0.000000,1.000000,0.000000,0.000000,0.000000,0.000000,7.845733,5.130789,-0.775534
1649346714.539082,26281.000000,1649346714.537689,0.000000,0.000000,1.000000,0.000000,0.000000,0.000000,0.000000,7.845287,5.129388,-0.780998
1649346714.637350,26282.000000,1649346714.636232,0.000000,0.000000,1.000000,0.000000,0.000000,0.000000,0.000000,7.844857,5.129170,-0.775670
1649346714.737717,26283.000000,1649346714.736853,0.000000,0.000000,1.000000,0.000000,0.000000,0.000000,0.000000,7.844443,5.128982,-0.769674
1649346714.832981,26284.000000,1649346714.832678,0.000000,0.000000,1.000000,0.000000,0.000000,0.000000,0.000000,7.842955,5.128820,-0.770310
1649346714.935880,26285.000000,1649346714.935288,0.000000,0.000000,1.000000,0.000000,0.000000,0.000000,0.000000,7.841549,5.129774,-0.766827
1649346715.032623,26286.000000,1649346715.032309,0.000000,0.000000,1.000000,0.000000,0.000000,0.000000,0.000000,7.839132,5.130688,-0.760207
1649346715.133177,26287.000000,1649346715.132593,0.000000,0.000000,1.000000,0.000000,0.000000,0.000000,0.000000,7.836859,5.131561,-0.753008
1649346715.235445,26288.000000,1649346715.234366,0.000000,0.000000,1.000000,0.000000,0.000000,0.000000,0.000000,7.835818,5.132392,-0.747687
1649346715.332383,26289.000000,1649346715.332093,0.000000,0.000000,1.000000,0.000000,0.000000,0.000000,0.000000,7.835944,5.133181,-0.738534
1649346715.432349,26290.000000,1649346715.432126,0.000000,0.000000,1.000000,0.000000,0.000000,0.000000,0.000000,7.836082,5.133926,-0.735396
1649346715.536785,26291.000000,1649346715.535734,0.000000,0.000000,1.000000,0.000000,0.000000,0.000000,0.000000,7.836230,5.134628,-0.730779
1649346715.634189,26292.000000,1649346715.633370,0.000000,0.000000,1.000000,0.000000,0.000000,0.000000,0.000000,7.836385,5.135287,-0.727974
1649346715.733343,26293.000000,1649346715.732971,0.000000,0.000000,1.000000,0.000000,0.000000,0.000000,0.000000,7.836546,5.134814,-0.728527
1649346715.834111,26294.000000,1649346715.833323,0.000000,0.000000,1.000000,0.000000,0.000000,0.000000,0.000000,7.836711,5.134362,-0.732299
1649346715.934549,26295.000000,1649346715.933618,0.000000,0.000000,1.000000,0.000000,0.000000,0.000000,0.000000,7.835789,5.132842,-0.738349
1649346716.035879,26296.000000,1649346716.034869,0.000000,0.000000,1.000000,0.000000,0.000000,0.000000,0.000000,7.834930,5.132497,-0.733670
1649346716.132913,26297.000000,1649346716.132313,0.000000,0.000000,1.000000,0.000000,0.000000,0.000000,0.000000,7.834135,5.132174,-0.734025
1649346716.235903,26298.000000,1649346716.234783,0.000000,0.000000,1.000000,0.000000,0.000000,0.000000,0.000000,7.833400,5.131872,-0.728726
1649346716.336277,26299.000000,1649346716.335170,0.000000,0.000000,1.000000,0.000000,0.000000,0.000000,0.000000,7.831633,5.131591,-0.717204
1649346716.433918,26300.000000,1649346716.433465,0.000000,0.000000,1.000000,0.000000,0.000000,0.000000,0.000000,7.832166,5.131332,-0.723922
1649346716.536144,26301.000000,1649346716.535336,0.000000,0.000000,1.000000,0.000000,0.000000,0.000000,0.000000,7.832691,5.131092,-0.729583
1649346716.635734,26302.000000,1649346716.634926,0.000000,0.000000,1.000000,0.000000,0.000000,0.000000,0.000000,7.833205,5.130871,-0.724543
1649346716.732728,26303.000000,1649346716.732316,0.000000,0.000000,1.000000,0.000000,0.000000,0.000000,0.000000,7.833705,5.130669,-0.718111
1649346716.834548,26304.000000,1649346716.833932,0.000000,0.000000,1.000000,0.000000,0.000000,0.000000,0.000000,7.834190,5.130485,-0.720032
1649346716.933388,26305.000000,1649346716.932899,0.000000,0.000000,1.000000,0.000000,0.000000,0.000000,0.000000,7.834659,5.130317,-0.724319
1649346717.034755,26306.000000,1649346717.034133,0.000000,0.000000,1.000000,0.000000,0.000000,0.000000,0.000000,7.834020,5.129076,-0.732481
1649346717.134056,26307.000000,1649346717.133412,0.000000,0.000000,1.000000,0.000000,0.000000,0.000000,0.000000,7.833425,5.129003,-0.741928
1649346717.235231,26308.000000,1649346717.233877,0.000000,0.000000,1.000000,0.000000,0.000000,0.000000,0.000000,7.831784,5.127854,-0.755012
1649346717.334348,26309.000000,1649346717.333577,0.000000,0.000000,1.000000,0.000000,0.000000,0.000000,0.000000,7.831337,5.126781,-0.757855
1649346717.435045,26310.000000,1649346717.434332,0.000000,0.000000,1.000000,0.000000,0.000000,0.000000,0.000000,7.830931,5.126873,-0.759738
1649346717.533861,26311.000000,1649346717.533502,0.000000,0.000000,1.000000,0.000000,0.000000,0.000000,0.000000,7.829473,5.126974,-0.755858
1649346717.633677,26312.000000,1649346717.633277,0.000000,0.000000,1.000000,0.000000,0.000000,0.000000,0.000000,7.829205,5.127084,-0.758553
1649346717.732443,26313.000000,1649346717.732155,0.000000,0.000000,1.000000,0.000000,0.000000,0.000000,0.000000,7.830061,5.126109,-0.762717
1649346717.833560,26314.000000,1649346717.833054,0.000000,0.000000,1.000000,0.000000,0.000000,0.000000,0.000000,7.830886,5.125202,-0.765058
1649346717.936336,26315.000000,1649346717.935746,0.000000,0.000000,1.000000,0.000000,0.000000,0.000000,0.000000,7.831679,5.124361,-0.765648
1649346718.033958,26316.000000,1649346718.033211,0.000000,0.000000,1.000000,0.000000,0.000000,0.000000,0.000000,7.833528,5.123585,-0.769397
1649346718.133510,26317.000000,1649346718.133081,0.000000,0.000000,1.000000,0.000000,0.000000,0.000000,0.000000,7.835279,5.122871,-0.774561
1649346718.237373,26318.000000,1649346718.236586,0.000000,0.000000,1.000000,0.000000,0.000000,0.000000,0.000000,7.835842,5.123307,-0.773011
1649346718.335739,26319.000000,1649346718.335212,0.000000,0.000000,1.000000,0.000000,0.000000,0.000000,0.000000,7.836369,5.123737,-0.773086
1649346718.436676,26320.000000,1649346718.435902,0.000000,0.000000,1.000000,0.000000,0.000000,0.000000,0.000000,7.835771,5.125250,-0.768273
1649346718.535160,26321.000000,1649346718.534454,0.000000,0.000000,1.000000,0.000000,0.000000,0.000000,0.000000,7.835202,5.126691,-0.763616
1649346718.636338,26322.000000,1649346718.634608,0.000000,0.000000,1.000000,0.000000,0.000000,0.000000,0.000000,7.834663,5.126969,-0.759119
1649346718.734981,26323.000000,1649346718.734678,0.000000,0.000000,1.000000,0.000000,0.000000,0.000000,0.000000,7.834153,5.128325,-0.750752
1649346718.835471,26324.000000,1649346718.834800,0.000000,0.000000,1.000000,0.000000,0.000000,0.000000,0.000000,7.833672,5.129608,-0.745944
1649346718.933928,26325.000000,1649346718.933220,0.000000,0.000000,1.000000,0.000000,0.000000,0.000000,0.000000,7.833221,5.129725,-0.738108
1649346719.034977,26326.000000,1649346719.034704,0.000000,0.000000,1.000000,0.000000,0.000000,0.000000,0.000000,7.832798,5.129831,-0.723348
1649346719.134145,26327.000000,1649346719.133071,0.000000,0.000000,1.000000,0.000000,0.000000,0.000000,0.000000,7.831314,5.129927,-0.705191
1649346719.232955,26328.000000,1649346719.232662,0.000000,0.000000,1.000000,0.000000,0.000000,0.000000,0.000000,7.831011,5.130013,-0.693483
1649346719.334197,26329.000000,1649346719.333306,0.000000,0.000000,1.000000,0.000000,0.000000,0.000000,0.000000,7.829644,5.128999,-0.687173
1649346719.433726,26330.000000,1649346719.432975,0.000000,0.000000,1.000000,0.000000,0.000000,0.000000,0.000000,7.829456,5.128038,-0.682018
1649346719.535820,26331.000000,1649346719.535470,0.000000,0.000000,1.000000,0.000000,0.000000,0.000000,0.000000,7.829291,5.128223,-0.673138
1649346719.632576,26332.000000,1649346719.632179,0.000000,0.000000,1.000000,0.000000,0.000000,0.000000,0.000000,7.829150,5.129489,-0.664726
1649346719.735371,26333.000000,1649346719.734320,0.000000,0.000000,1.000000,0.000000,0.000000,0.000000,0.000000,7.829028,5.130683,-0.659193
1649346719.835098,26334.000000,1649346719.834495,0.000000,0.000000,1.000000,0.000000,0.000000,0.000000,0.000000,7.827836,5.131805,-0.651587
1649346719.935656,26335.000000,1649346719.934718,0.000000,0.000000,1.000000,0.000000,0.000000,0.000000,0.000000,7.826725,5.133947,-0.643614
1649346720.035162,26336.000000,1649346720.034607,0.000000,0.000000,1.000000,0.000000,0.000000,0.000000,0.000000,7.826783,5.135956,-0.633682
1649346720.134347,26337.000000,1649346720.132544,0.000000,0.000000,1.000000,0.000000,0.000000,0.000000,0.000000,7.827945,5.137835,-0.621883
1649346720.234029,26338.000000,1649346720.233334,0.000000,0.000000,1.000000,0.000000,0.000000,0.000000,0.000000,7.829056,5.139586,-0.610723
1649346720.336411,26339.000000,1649346720.335486,0.000000,0.000000,1.000000,0.000000,0.000000,0.000000,0.000000,7.831205,5.139030,-0.618738
1649346720.432832,26340.000000,1649346720.432396,0.000000,0.000000,1.000000,0.000000,0.000000,0.000000,0.000000,7.833239,5.138478,-0.629812
1649346720.534832,26341.000000,1649346720.534277,0.000000,0.000000,1.000000,0.000000,0.000000,0.000000,0.000000,7.835156,5.137933,-0.636537
1649346720.637191,26342.000000,1649346720.636497,0.000000,0.000000,1.000000,0.000000,0.000000,0.000000,0.000000,7.834776,5.138488,-0.631007
1649346720.734855,26343.000000,1649346720.734315,0.000000,0.000000,1.000000,0.000000,0.000000,0.000000,0.000000,7.835499,5.138991,-0.626625
1649346720.835878,26344.000000,1649346720.835198,0.000000,0.000000,1.000000,0.000000,0.000000,0.000000,0.000000,7.835080,5.140537,-0.624959
1649346720.935687,26345.000000,1649346720.933361,0.000000,0.000000,1.000000,0.000000,0.000000,0.000000,0.000000,7.834675,5.139793,-0.629930
1649346721.034686,26346.000000,1649346721.033930,0.000000,0.000000,1.000000,0.000000,0.000000,0.000000,0.000000,7.835376,5.139068,-0.636419
1649346721.133053,26347.000000,1649346721.132838,0.000000,0.000000,1.000000,0.000000,0.000000,0.000000,0.000000,7.836029,5.138366,-0.637897
1649346721.235097,26348.000000,1649346721.234464,0.000000,0.000000,1.000000,0.000000,0.000000,0.000000,0.000000,7.835545,5.137687,-0.641817
1649346721.334717,26349.000000,1649346721.333920,0.000000,0.000000,1.000000,0.000000,0.000000,0.000000,0.000000,7.836170,5.137034,-0.652104
1649346721.432751,26350.000000,1649346721.432441,0.000000,0.000000,1.000000,0.000000,0.000000,0.000000,0.000000,7.835660,5.136408,-0.655578
1649346721.534119,26351.000000,1649346721.533292,0.000000,0.000000,1.000000,0.000000,0.000000,0.000000,0.000000,7.834080,5.136900,-0.647665
1649346721.632536,26352.000000,1649346721.632165,0.000000,0.000000,1.000000,0.000000,0.000000,0.000000,0.000000,7.833674,5.137358,-0.634482
1649346721.736861,26353.000000,1649346721.736008,0.000000,0.000000,1.000000,0.000000,0.000000,0.000000,0.000000,7.834379,5.137783,-0.627552
1649346721.832595,26354.000000,1649346721.832281,0.000000,0.000000,1.000000,0.000000,0.000000,0.000000,0.000000,7.835043,5.137085,-0.629856
1649346721.937580,26355.000000,1649346721.936490,0.000000,0.000000,1.000000,0.000000,0.000000,0.000000,0.000000,7.835666,5.137509,-0.624886
1649346722.033779,26356.000000,1649346722.033215,0.000000,0.000000,1.000000,0.000000,0.000000,0.000000,0.000000,7.835158,5.136812,-0.625844
1649346722.133729,26357.000000,1649346722.133157,0.000000,0.000000,1.000000,0.000000,0.000000,0.000000,0.000000,7.834672,5.136148,-0.628454
1649346722.235142,26358.000000,1649346722.233442,0.000000,0.000000,1.000000,0.000000,0.000000,0.000000,0.000000,7.834210,5.135518,-0.639092
1649346722.334072,26359.000000,1649346722.333509,0.000000,0.000000,1.000000,0.000000,0.000000,0.000000,0.000000,7.833772,5.133831,-0.650963
1649346722.433852,26360.000000,1649346722.432801,0.000000,0.000000,1.000000,0.000000,0.000000,0.000000,0.000000,7.833358,5.132241,-0.662382
1649346722.536707,26361.000000,1649346722.535063,0.000000,0.000000,1.000000,0.000000,0.000000,0.000000,0.000000,7.831878,5.131838,-0.680605
1649346722.636451,26362.000000,1649346722.634575,0.000000,0.000000,1.000000,0.000000,0.000000,0.000000,0.000000,7.830485,5.131468,-0.689197
1649346722.734945,26363.000000,1649346722.733924,0.000000,0.000000,1.000000,0.000000,0.000000,0.000000,0.000000,7.829177,5.131128,-0.699016
1649346722.832565,26364.000000,1649346722.832192,0.000000,0.000000,1.000000,0.000000,0.000000,0.000000,0.000000,7.827954,5.130819,-0.706774
1649346722.935498,26365.000000,1649346722.934522,0.000000,0.000000,1.000000,0.000000,0.000000,0.000000,0.000000,7.827905,5.130538,-0.714154
1649346723.033648,26366.000000,1649346723.033248,0.000000,0.000000,1.000000,0.000000,0.000000,0.000000,0.000000,7.827874,5.131374,-0.715516
1649346723.134673,26367.000000,1649346723.134064,0.000000,0.000000,1.000000,0.000000,0.000000,0.000000,0.000000,7.827860,5.132174,-0.707073
1649346723.235934,26368.000000,1649346723.234954,0.000000,0.000000,1.000000,0.000000,0.000000,0.000000,0.000000,7.828952,5.132936,-0.704559
1649346723.335581,26369.000000,1649346723.334701,0.000000,0.000000,1.000000,0.000000,0.000000,0.000000,0.000000,7.831084,5.132569,-0.703709
1649346723.433588,26370.000000,1649346723.433219,0.000000,0.000000,1.000000,0.000000,0.000000,0.000000,0.000000,7.832013,5.132225,-0.705267
1649346723.532472,26371.000000,1649346723.532173,0.000000,0.000000,1.000000,0.000000,0.000000,0.000000,0.000000,7.832890,5.131905,-0.709942
1649346723.633839,26372.000000,1649346723.633396,0.000000,0.000000,1.000000,0.000000,0.000000,0.000000,0.000000,7.833717,5.132699,-0.711149
1649346723.732360,26373.000000,1649346723.732086,0.000000,0.000000,1.000000,0.000000,0.000000,0.000000,0.000000,7.834493,5.133452,-0.708223
1649346723.836308,26374.000000,1649346723.834913,0.000000,0.000000,1.000000,0.000000,0.000000,0.000000,0.000000,7.836309,5.134164,-0.711821
1649346723.933841,26375.000000,1649346723.933334,0.000000,0.000000,1.000000,0.000000,0.000000,0.000000,0.000000,7.836923,5.135925,-0.711998
1649346724.036726,26376.000000,1649346724.035837,0.000000,0.000000,1.000000,0.000000,0.000000,0.000000,0.000000,7.837490,5.135402,-0.716153
1649346724.133414,26377.000000,1649346724.132940,0.000000,0.000000,1.000000,0.000000,0.000000,0.000000,0.000000,7.838010,5.134902,-0.722507
1649346724.236112,26378.000000,1649346724.234744,0.000000,0.000000,1.000000,0.000000,0.000000,0.000000,0.000000,7.838487,5.134426,-0.723704
1649346724.333680,26379.000000,1649346724.333255,0.000000,0.000000,1.000000,0.000000,0.000000,0.000000,0.000000,7.837830,5.133974,-0.721567
1649346724.436538,26380.000000,1649346724.435855,0.000000,0.000000,1.000000,0.000000,0.000000,0.000000,0.000000,7.836106,5.133546,-0.721880
1649346724.534188,26381.000000,1649346724.533699,0.000000,0.000000,1.000000,0.000000,0.000000,0.000000,0.000000,7.835558,5.133143,-0.725354
1649346724.635175,26382.000000,1649346724.634112,0.000000,0.000000,1.000000,0.000000,0.000000,0.000000,0.000000,7.833945,5.134944,-0.721373
1649346724.733198,26383.000000,1649346724.732823,0.000000,0.000000,1.000000,0.000000,0.000000,0.000000,0.000000,7.832420,5.136644,-0.706214
1649346724.833250,26384.000000,1649346724.832885,0.000000,0.000000,1.000000,0.000000,0.000000,0.000000,0.000000,7.832073,5.138243,-0.695680
1649346724.934076,26385.000000,1649346724.933508,0.000000,0.000000,1.000000,0.000000,0.000000,0.000000,0.000000,7.830661,5.138650,-0.684762
1649346725.034364,26386.000000,1649346725.033452,0.000000,0.000000,1.000000,0.000000,0.000000,0.000000,0.000000,7.829336,5.139022,-0.671076
1649346725.134533,26387.000000,1649346725.134118,0.000000,0.000000,1.000000,0.000000,0.000000,0.000000,0.000000,7.827006,5.140450,-0.661207
1649346725.235085,26388.000000,1649346725.234304,0.000000,0.000000,1.000000,0.000000,0.000000,0.000000,0.000000,7.825914,5.140692,-0.669533
1649346725.334822,26389.000000,1649346725.334308,0.000000,0.000000,1.000000,0.000000,0.000000,0.000000,0.000000,7.825994,5.140903,-0.676756
1649346725.433223,26390.000000,1649346725.432837,0.000000,0.000000,1.000000,0.000000,0.000000,0.000000,0.000000,7.826090,5.141085,-0.677260
1649346725.532208,26391.000000,1649346725.531965,0.000000,0.000000,1.000000,0.000000,0.000000,0.000000,0.000000,7.826200,5.141241,-0.676961
1649346725.633488,26392.000000,1649346725.633003,0.000000,0.000000,1.000000,0.000000,0.000000,0.000000,0.000000,7.826323,5.141372,-0.679115
1649346725.733987,26393.000000,1649346725.733234,0.000000,0.000000,1.000000,0.000000,0.000000,0.000000,0.000000,7.827545,5.140390,-0.681201
1649346725.834300,26394.000000,1649346725.833550,0.000000,0.000000,1.000000,0.000000,0.000000,0.000000,0.000000,7.827622,5.139449,-0.679183
1649346725.934093,26395.000000,1649346725.933759,0.000000,0.000000,1.000000,0.000000,0.000000,0.000000,0.000000,7.828796,5.139642,-0.677264
1649346726.033144,26396.000000,1649346726.032505,0.000000,0.000000,1.000000,0.000000,0.000000,0.000000,0.000000,7.829913,5.138726,-0.678666
1649346726.133075,26397.000000,1649346726.132770,0.000000,0.000000,1.000000,0.000000,0.000000,0.000000,0.000000,7.830971,5.138945,-0.675995
1649346726.234134,26398.000000,1649346726.233519,0.000000,0.000000,1.000000,0.000000,0.000000,0.000000,0.000000,7.831971,5.138056,-0.672646
1649346726.334316,26399.000000,1649346726.333725,0.000000,0.000000,1.000000,0.000000,0.000000,0.000000,0.000000,7.832912,5.136123,-0.678326
1649346726.434526,26400.000000,1649346726.433411,0.000000,0.000000,1.000000,0.000000,0.000000,0.000000,0.000000,7.833795,5.135390,-0.678146
1649346726.534704,26401.000000,1649346726.533881,0.000000,0.000000,1.000000,0.000000,0.000000,0.000000,0.000000,7.834621,5.134703,-0.677181
1649346726.633421,26402.000000,1649346726.632995,0.000000,0.000000,1.000000,0.000000,0.000000,0.000000,0.000000,7.834301,5.134061,-0.672237
1649346726.732703,26403.000000,1649346726.732335,0.000000,0.000000,1.000000,0.000000,0.000000,0.000000,0.000000,7.835078,5.133464,-0.662676
1649346726.834118,26404.000000,1649346726.833396,0.000000,0.000000,1.000000,0.000000,0.000000,0.000000,0.000000,7.835802,5.131820,-0.659183
1649346726.932504,26405.000000,1649346726.932160,0.000000,0.000000,1.000000,0.000000,0.000000,0.000000,0.000000,7.837564,5.131371,-0.659905
1649346727.033861,26406.000000,1649346727.033325,0.000000,0.000000,1.000000,0.000000,0.000000,0.000000,0.000000,7.839212,5.130962,-0.663056
1649346727.132512,26407.000000,1649346727.132204,0.000000,0.000000,1.000000,0.000000,0.000000,0.000000,0.000000,7.839657,5.131682,-0.662886
1649346727.234827,26408.000000,1649346727.234163,0.000000,0.000000,1.000000,0.000000,0.000000,0.000000,0.000000,7.840057,5.132376,-0.661948
1649346727.334778,26409.000000,1649346727.334153,0.000000,0.000000,1.000000,0.000000,0.000000,0.000000,0.000000,7.840412,5.134133,-0.657853
1649346727.433215,26410.000000,1649346727.432847,0.000000,0.000000,1.000000,0.000000,0.000000,0.000000,0.000000,7.840726,5.135798,-0.650734
1649346727.534665,26411.000000,1649346727.534219,0.000000,0.000000,1.000000,0.000000,0.000000,0.000000,0.000000,7.839911,5.136280,-0.647982
1649346727.633023,26412.000000,1649346727.632506,0.000000,0.000000,1.000000,0.000000,0.000000,0.000000,0.000000,7.840213,5.135643,-0.655068
1649346727.733060,26413.000000,1649346727.732727,0.000000,0.000000,1.000000,0.000000,0.000000,0.000000,0.000000,7.840480,5.132859,-0.670776
1649346727.834652,26414.000000,1649346727.834116,0.000000,0.000000,1.000000,0.000000,0.000000,0.000000,0.000000,7.840715,5.130235,-0.686664
1649346727.932492,26415.000000,1649346727.932172,0.000000,0.000000,1.000000,0.000000,0.000000,0.000000,0.000000,7.840921,5.127769,-0.702700
1649346728.036943,26416.000000,1649346728.036261,0.000000,0.000000,1.000000,0.000000,0.000000,0.000000,0.000000,7.841098,5.125461,-0.719656
1649346728.136355,26417.000000,1649346728.135605,0.000000,0.000000,1.000000,0.000000,0.000000,0.000000,0.000000,7.842339,5.124397,-0.729404
1649346728.233494,26418.000000,1649346728.232881,0.000000,0.000000,1.000000,0.000000,0.000000,0.000000,0.000000,7.842402,5.123422,-0.735448
1649346728.335317,26419.000000,1649346728.334689,0.000000,0.000000,1.000000,0.000000,0.000000,0.000000,0.000000,7.842444,5.123622,-0.737122
1649346728.432507,26420.000000,1649346728.432158,0.000000,0.000000,1.000000,0.000000,0.000000,0.000000,0.000000,7.842466,5.124930,-0.737025
1649346728.536325,26421.000000,1649346728.535322,0.000000,0.000000,1.000000,0.000000,0.000000,0.000000,0.000000,7.841379,5.126191,-0.730393
1649346728.633986,26422.000000,1649346728.633234,0.000000,0.000000,1.000000,0.000000,0.000000,0.000000,0.000000,7.841430,5.127401,-0.727180
1649346728.736373,26423.000000,1649346728.735466,0.000000,0.000000,1.000000,0.000000,0.000000,0.000000,0.000000,7.839285,5.129649,-0.712743
1649346728.832998,26424.000000,1649346728.832558,0.000000,0.000000,1.000000,0.000000,0.000000,0.000000,0.000000,7.836163,5.131780,-0.693205
1649346728.935563,26425.000000,1649346728.934731,0.000000,0.000000,1.000000,0.000000,0.000000,0.000000,0.000000,7.834306,5.132703,-0.684130
1649346729.036436,26426.000000,1649346729.035549,0.000000,0.000000,1.000000,0.000000,0.000000,0.000000,0.000000,7.833653,5.133571,-0.684305
1649346729.134475,26427.000000,1649346729.133833,0.000000,0.000000,1.000000,0.000000,0.000000,0.000000,0.000000,7.833048,5.133294,-0.689323
1649346729.235581,26428.000000,1649346729.234869,0.000000,0.000000,1.000000,0.000000,0.000000,0.000000,0.000000,7.832489,5.134118,-0.690917
1649346729.334680,26429.000000,1649346729.333923,0.000000,0.000000,1.000000,0.000000,0.000000,0.000000,0.000000,7.830885,5.133798,-0.693253
1649346729.434099,26430.000000,1649346729.433557,0.000000,0.000000,1.000000,0.000000,0.000000,0.000000,0.000000,7.829388,5.132399,-0.701943
1649346729.533701,26431.000000,1649346729.533000,0.000000,0.000000,1.000000,0.000000,0.000000,0.000000,0.000000,7.829086,5.132164,-0.709459
1649346729.632404,26432.000000,1649346729.632165,0.000000,0.000000,1.000000,0.000000,0.000000,0.000000,0.000000,7.829912,5.131942,-0.713415
1649346729.734166,26433.000000,1649346729.733285,0.000000,0.000000,1.000000,0.000000,0.000000,0.000000,0.000000,7.830712,5.131731,-0.721209
1649346729.832891,26434.000000,1649346729.832562,0.000000,0.000000,1.000000,0.000000,0.000000,0.000000,0.000000,7.831483,5.132624,-0.715738
1649346729.934783,26435.000000,1649346729.933937,0.000000,0.000000,1.000000,0.000000,0.000000,0.000000,0.000000,7.832224,5.132374,-0.712871
1649346730.034828,26436.000000,1649346730.034195,0.000000,0.000000,1.000000,0.000000,0.000000,0.000000,0.000000,7.834023,5.132137,-0.725412
1649346730.134123,26437.000000,1649346730.133652,0.000000,0.000000,1.000000,0.000000,0.000000,0.000000,0.000000,7.835726,5.131913,-0.734979
1649346730.234107,26438.000000,1649346730.233374,0.000000,0.000000,1.000000,0.000000,0.000000,0.000000,0.000000,7.836243,5.132791,-0.735226
1649346730.335201,26439.000000,1649346730.334542,0.000000,0.000000,1.000000,0.000000,0.000000,0.000000,0.000000,7.837818,5.133619,-0.733788
1649346730.433738,26440.000000,1649346730.433160,0.000000,0.000000,1.000000,0.000000,0.000000,0.000000,0.000000,7.839298,5.133306,-0.737996
1649346730.534732,26441.000000,1649346730.534124,0.000000,0.000000,1.000000,0.000000,0.000000,0.000000,0.000000,7.839593,5.134097,-0.740361
1649346730.632819,26442.000000,1649346730.632570,0.000000,0.000000,1.000000,0.000000,0.000000,0.000000,0.000000,7.839859,5.133749,-0.746600
1649346730.735555,26443.000000,1649346730.734813,0.000000,0.000000,1.000000,0.000000,0.000000,0.000000,0.000000,7.840097,5.133415,-0.750904
1649346730.833599,26444.000000,1649346730.833105,0.000000,0.000000,1.000000,0.000000,0.000000,0.000000,0.000000,7.840308,5.133096,-0.753347
1649346730.933373,26445.000000,1649346730.932862,0.000000,0.000000,1.000000,0.000000,0.000000,0.000000,0.000000,7.840494,5.133882,-0.752389
1649346731.033711,26446.000000,1649346731.033164,0.000000,0.000000,1.000000,0.000000,0.000000,0.000000,0.000000,7.839566,5.134622,-0.748980
1649346731.134309,26447.000000,1649346731.133524,0.000000,0.000000,1.000000,0.000000,0.000000,0.000000,0.000000,7.838680,5.135314,-0.760161
1649346731.232731,26448.000000,1649346731.232344,0.000000,0.000000,1.000000,0.000000,0.000000,0.000000,0.000000,7.836745,5.135961,-0.765168
1649346731.332227,26449.000000,1649346731.331945,0.000000,0.000000,1.000000,0.000000,0.000000,0.000000,0.000000,7.834915,5.136562,-0.766664
1649346731.433801,26450.000000,1649346731.432719,0.000000,0.000000,1.000000,0.000000,0.000000,0.000000,0.000000,7.833192,5.136029,-0.768823
1649346731.535943,26451.000000,1649346731.535003,0.000000,0.000000,1.000000,0.000000,0.000000,0.000000,0.000000,7.831573,5.135517,-0.763553
1649346731.634582,26452.000000,1649346731.633595,0.000000,0.000000,1.000000,0.000000,0.000000,0.000000,0.000000,7.830058,5.135025,-0.759232
1649346731.734847,26453.000000,1649346731.734185,0.000000,0.000000,1.000000,0.000000,0.000000,0.000000,0.000000,7.829735,5.134555,-0.750186
1649346731.833735,26454.000000,1649346731.833335,0.000000,0.000000,1.000000,0.000000,0.000000,0.000000,0.000000,7.830539,5.134108,-0.747107
1649346731.933800,26455.000000,1649346731.933311,0.000000,0.000000,1.000000,0.000000,0.000000,0.000000,0.000000,7.830225,5.132594,-0.746536
1649346732.033442,26456.000000,1649346732.032847,0.000000,0.000000,1.000000,0.000000,0.000000,0.000000,0.000000,7.829944,5.131165,-0.747568
1649346732.133026,26457.000000,1649346732.132647,0.000000,0.000000,1.000000,0.000000,0.000000,0.000000,0.000000,7.829694,5.130913,-0.747719
1649346732.236038,26458.000000,1649346732.234211,0.000000,0.000000,1.000000,0.000000,0.000000,0.000000,0.000000,7.829472,5.130682,-0.742186
1649346732.334858,26459.000000,1649346732.333920,0.000000,0.000000,1.000000,0.000000,0.000000,0.000000,0.000000,7.829279,5.130472,-0.741693
1649346732.432626,26460.000000,1649346732.432261,0.000000,0.000000,1.000000,0.000000,0.000000,0.000000,0.000000,7.830201,5.131372,-0.740394
1649346732.532362,26461.000000,1649346732.532080,0.000000,0.000000,1.000000,0.000000,0.000000,0.000000,0.000000,7.829994,5.131138,-0.739131
1649346732.632286,26462.000000,1649346732.632100,0.000000,0.000000,1.000000,0.000000,0.000000,0.000000,0.000000,7.828720,5.130922,-0.729033
1649346732.732427,26463.000000,1649346732.732127,0.000000,0.000000,1.000000,0.000000,0.000000,0.000000,0.000000,7.827529,5.130724,-0.726605
1649346732.836820,26464.000000,1649346732.835902,0.000000,0.000000,1.000000,0.000000,0.000000,0.000000,0.000000,7.826421,5.130544,-0.720250
1649346732.938285,26465.000000,1649346732.937176,0.000000,0.000000,1.000000,0.000000,0.000000,0.000000,0.000000,7.824303,5.131469,-0.713362
1649346733.034770,26466.000000,1649346733.033503,0.000000,0.000000,1.000000,0.000000,0.000000,0.000000,0.000000,7.823416,5.131257,-0.722911
1649346733.133155,26467.000000,1649346733.132770,0.000000,0.000000,1.000000,0.000000,0.000000,0.000000,0.000000,7.821514,5.131061,-0.726441
1649346733.236035,26468.000000,1649346733.235045,0.000000,0.000000,1.000000,0.000000,0.000000,0.000000,0.000000,7.820838,5.130879,-0.728222
1649346733.333647,26469.000000,1649346733.333157,0.000000,0.000000,1.000000,0.000000,0.000000,0.000000,0.000000,7.821320,5.131802,-0.729126
1649346733.433362,26470.000000,1649346733.432926,0.000000,0.000000,1.000000,0.000000,0.000000,0.000000,0.000000,7.821804,5.133766,-0.720316
1649346733.533832,26471.000000,1649346733.533401,0.000000,0.000000,1.000000,0.000000,0.000000,0.000000,0.000000,7.822287,5.134528,-0.715910
1649346733.633049,26472.000000,1649346733.632329,0.000000,0.000000,1.000000,0.000000,0.000000,0.000000,0.000000,7.822766,5.135241,-0.711703
1649346733.732625,26473.000000,1649346733.732275,0.000000,0.000000,1.000000,0.000000,0.000000,0.000000,0.000000,7.823238,5.135906,-0.703661
1649346733.834644,26474.000000,1649346733.833907,0.000000,0.000000,1.000000,0.000000,0.000000,0.000000,0.000000,7.823702,5.136525,-0.698404
1649346733.934338,26475.000000,1649346733.933770,0.000000,0.000000,1.000000,0.000000,0.000000,0.000000,0.000000,7.825244,5.136007,-0.699859
1649346734.032847,26476.000000,1649346734.032528,0.000000,0.000000,1.000000,0.000000,0.000000,0.000000,0.000000,7.826712,5.135508,-0.707749
1649346734.133617,26477.000000,1649346734.132796,0.000000,0.000000,1.000000,0.000000,0.000000,0.000000,0.000000,7.829193,5.135029,-0.717770
1649346734.234580,26478.000000,1649346734.233637,0.000000,0.000000,1.000000,0.000000,0.000000,0.000000,0.000000,7.831535,5.134571,-0.729010
1649346734.334667,26479.000000,1649346734.334264,0.000000,0.000000,1.000000,0.000000,0.000000,0.000000,0.000000,7.832647,5.134134,-0.732529
1649346734.434659,26480.000000,1649346734.434051,0.000000,0.000000,1.000000,0.000000,0.000000,0.000000,0.000000,7.833684,5.133718,-0.739117
1649346734.537244,26481.000000,1649346734.535828,0.000000,0.000000,1.000000,0.000000,0.000000,0.000000,0.000000,7.834648,5.133324,-0.742189
1649346734.634344,26482.000000,1649346734.633625,0.000000,0.000000,1.000000,0.000000,0.000000,0.000000,0.000000,7.834450,5.134043,-0.742687
1649346734.733906,26483.000000,1649346734.733019,0.000000,0.000000,1.000000,0.000000,0.000000,0.000000,0.000000,7.834246,5.133630,-0.749588
1649346734.835154,26484.000000,1649346734.834556,0.000000,0.000000,1.000000,0.000000,0.000000,0.000000,0.000000,7.834037,5.133240,-0.757784
1649346734.934602,26485.000000,1649346734.934031,0.000000,0.000000,1.000000,0.000000,0.000000,0.000000,0.000000,7.832735,5.133962,-0.758340
1649346735.034117,26486.000000,1649346735.033604,0.000000,0.000000,1.000000,0.000000,0.000000,0.000000,0.000000,7.832586,5.133553,-0.762855
1649346735.134149,26487.000000,1649346735.133510,0.000000,0.000000,1.000000,0.000000,0.000000,0.000000,0.000000,7.832436,5.133166,-0.766325
1649346735.232476,26488.000000,1649346735.232244,0.000000,0.000000,1.000000,0.000000,0.000000,0.000000,0.000000,7.833378,5.132802,-0.768789
1649346735.333987,26489.000000,1649346735.333412,0.000000,0.000000,1.000000,0.000000,0.000000,0.000000,0.000000,7.834259,5.132460,-0.773512
1649346735.432864,26490.000000,1649346735.432445,0.000000,0.000000,1.000000,0.000000,0.000000,0.000000,0.000000,7.836170,5.131049,-0.777171
1649346735.537005,26491.000000,1649346735.536289,0.000000,0.000000,1.000000,0.000000,0.000000,0.000000,0.000000,7.837960,5.130812,-0.777387
1649346735.633807,26492.000000,1649346735.633295,0.000000,0.000000,1.000000,0.000000,0.000000,0.000000,0.000000,7.840721,5.129506,-0.785591
1649346735.735847,26493.000000,1649346735.734817,0.000000,0.000000,1.000000,0.000000,0.000000,0.000000,0.000000,7.841121,5.129374,-0.788547
1649346735.832281,26494.000000,1649346735.831951,0.000000,0.000000,1.000000,0.000000,0.000000,0.000000,0.000000,7.841471,5.129259,-0.791303
1649346735.934815,26495.000000,1649346735.934224,0.000000,0.000000,1.000000,0.000000,0.000000,0.000000,0.000000,7.840683,5.129162,-0.789028
1649346736.033977,26496.000000,1649346736.033762,0.000000,0.000000,1.000000,0.000000,0.000000,0.000000,0.000000,7.841004,5.129080,-0.788383
1649346736.134156,26497.000000,1649346736.133398,0.000000,0.000000,1.000000,0.000000,0.000000,0.000000,0.000000,7.840193,5.127923,-0.798177
1649346736.233368,26498.000000,1649346736.232886,0.000000,0.000000,1.000000,0.000000,0.000000,0.000000,0.000000,7.839406,5.125752,-0.819590
1649346736.335129,26499.000000,1649346736.334623,0.000000,0.000000,1.000000,0.000000,0.000000,0.000000,0.000000,7.838647,5.124808,-0.831152
1649346736.432799,26500.000000,1649346736.432502,0.000000,0.000000,1.000000,0.000000,0.000000,0.000000,0.000000,7.837915,5.122847,-0.846956
1649346736.538907,26501.000000,1649346736.538061,0.000000,0.000000,1.000000,0.000000,0.000000,0.000000,0.000000,7.837214,5.121019,-0.855518
1649346736.635693,26502.000000,1649346736.635033,0.000000,0.000000,1.000000,0.000000,0.000000,0.000000,0.000000,7.836543,5.120412,-0.857929
1649346736.733223,26503.000000,1649346736.732747,0.000000,0.000000,1.000000,0.000000,0.000000,0.000000,0.000000,7.835905,5.120958,-0.857666
1649346736.834375,26504.000000,1649346736.833710,0.000000,0.000000,1.000000,0.000000,0.000000,0.000000,0.000000,7.835299,5.121502,-0.857263
1649346736.934067,26505.000000,1649346736.933334,0.000000,0.000000,1.000000,0.000000,0.000000,0.000000,0.000000,7.834725,5.122039,-0.846247
1649346737.033162,26506.000000,1649346737.032876,0.000000,0.000000,1.000000,0.000000,0.000000,0.000000,0.000000,7.833095,5.122569,-0.828299
1649346737.135519,26507.000000,1649346737.134811,0.000000,0.000000,1.000000,0.000000,0.000000,0.000000,0.000000,7.832649,5.123087,-0.819861
1649346737.233501,26508.000000,1649346737.232954,0.000000,0.000000,1.000000,0.000000,0.000000,0.000000,0.000000,7.833327,5.124683,-0.800407
1649346737.335954,26509.000000,1649346737.335394,0.000000,0.000000,1.000000,0.000000,0.000000,0.000000,0.000000,7.832882,5.126201,-0.783319
1649346737.432679,26510.000000,1649346737.432327,0.000000,0.000000,1.000000,0.000000,0.000000,0.000000,0.000000,7.834648,5.126550,-0.774986
1649346737.535427,26511.000000,1649346737.534191,0.000000,0.000000,1.000000,0.000000,0.000000,0.000000,0.000000,7.836318,5.127973,-0.761356
1649346737.633127,26512.000000,1649346737.632877,0.000000,0.000000,1.000000,0.000000,0.000000,0.000000,0.000000,7.836802,5.129317,-0.743475
1649346737.733042,26513.000000,1649346737.732630,0.000000,0.000000,1.000000,0.000000,0.000000,0.000000,0.000000,7.836162,5.129491,-0.744121
1649346737.833133,26514.000000,1649346737.832801,0.000000,0.000000,1.000000,0.000000,0.000000,0.000000,0.000000,7.835554,5.130739,-0.742384
1649346737.933879,26515.000000,1649346737.933335,0.000000,0.000000,1.000000,0.000000,0.000000,0.000000,0.000000,7.836067,5.131910,-0.736746
1649346738.032911,26516.000000,1649346738.032485,0.000000,0.000000,1.000000,0.000000,0.000000,0.000000,0.000000,7.836550,5.131913,-0.735437
1649346738.135349,26517.000000,1649346738.134824,0.000000,0.000000,1.000000,0.000000,0.000000,0.000000,0.000000,7.835911,5.132995,-0.728604
1649346738.238557,26518.000000,1649346738.234915,0.000000,0.000000,1.000000,0.000000,0.000000,0.000000,0.000000,7.835304,5.134003,-0.724542
1649346738.332662,26519.000000,1649346738.332390,0.000000,0.000000,1.000000,0.000000,0.000000,0.000000,0.000000,7.833640,5.136029,-0.721532
1649346738.432455,26520.000000,1649346738.432167,0.000000,0.000000,1.000000,0.000000,0.000000,0.000000,0.000000,7.833162,5.136831,-0.723563
1649346738.538184,26521.000000,1649346738.536640,0.000000,0.000000,1.000000,0.000000,0.000000,0.000000,0.000000,7.832716,5.137566,-0.723976
1649346738.635331,26522.000000,1649346738.634594,0.000000,0.000000,1.000000,0.000000,0.000000,0.000000,0.000000,7.833392,5.137146,-0.727669
1649346738.735988,26523.000000,1649346738.735176,0.000000,0.000000,1.000000,0.000000,0.000000,0.000000,0.000000,7.832945,5.137817,-0.728856
1649346738.833454,26524.000000,1649346738.833129,0.000000,0.000000,1.000000,0.000000,0.000000,0.000000,0.000000,7.833619,5.137338,-0.728441
1649346738.934139,26525.000000,1649346738.933603,0.000000,0.000000,1.000000,0.000000,0.000000,0.000000,0.000000,7.835350,5.136865,-0.735356
1649346739.033997,26526.000000,1649346739.033567,0.000000,0.000000,1.000000,0.000000,0.000000,0.000000,0.000000,7.835894,5.136401,-0.736389
1649346739.134067,26527.000000,1649346739.133790,0.000000,0.000000,1.000000,0.000000,0.000000,0.000000,0.000000,7.835315,5.137037,-0.731773
1649346739.232451,26528.000000,1649346739.232155,0.000000,0.000000,1.000000,0.000000,0.000000,0.000000,0.000000,7.835855,5.137623,-0.720130
1649346739.333341,26529.000000,1649346739.332983,0.000000,0.000000,1.000000,0.000000,0.000000,0.000000,0.000000,7.836363,5.137069,-0.726761
1649346739.432392,26530.000000,1649346739.432179,0.000000,0.000000,1.000000,0.000000,0.000000,0.000000,0.000000,7.836838,5.136531,-0.730754
1649346739.534342,26531.000000,1649346739.533737,0.000000,0.000000,1.000000,0.000000,0.000000,0.000000,0.000000,7.837281,5.136011,-0.736238
1649346739.636355,26532.000000,1649346739.635424,0.000000,0.000000,1.000000,0.000000,0.000000,0.000000,0.000000,7.837693,5.134419,-0.744756
1649346739.733754,26533.000000,1649346739.733032,0.000000,0.000000,1.000000,0.000000,0.000000,0.000000,0.000000,7.838074,5.132910,-0.752138
1649346739.834737,26534.000000,1649346739.834144,0.000000,0.000000,1.000000,0.000000,0.000000,0.000000,0.000000,7.838426,5.131485,-0.758415
1649346739.934174,26535.000000,1649346739.933846,0.000000,0.000000,1.000000,0.000000,0.000000,0.000000,0.000000,7.839840,5.131233,-0.763623
1649346740.032275,26536.000000,1649346740.031982,0.000000,0.000000,1.000000,0.000000,0.000000,0.000000,0.000000,7.840074,5.129910,-0.769408
1649346740.134268,26537.000000,1649346740.133584,0.000000,0.000000,1.000000,0.000000,0.000000,0.000000,0.000000,7.840281,5.128669,-0.775738
1649346740.236609,26538.000000,1649346740.235541,0.000000,0.000000,1.000000,0.000000,0.000000,0.000000,0.000000,7.840464,5.127509,-0.778550
1649346740.334785,26539.000000,1649346740.333805,0.000000,0.000000,1.000000,0.000000,0.000000,0.000000,0.000000,7.841715,5.128609,-0.772337
1649346740.438271,26540.000000,1649346740.437195,0.000000,0.000000,1.000000,0.000000,0.000000,0.000000,0.000000,7.842881,5.128570,-0.781669
1649346740.536516,26541.000000,1649346740.535865,0.000000,0.000000,1.000000,0.000000,0.000000,0.000000,0.000000,7.843965,5.129635,-0.784936
1649346740.635022,26542.000000,1649346740.634383,0.000000,0.000000,1.000000,0.000000,0.000000,0.000000,0.000000,7.842788,5.129559,-0.784799
1649346740.735750,26543.000000,1649346740.734096,0.000000,0.000000,1.000000,0.000000,0.000000,0.000000,0.000000,7.841659,5.128403,-0.785429
1649346740.834966,26544.000000,1649346740.834137,0.000000,0.000000,1.000000,0.000000,0.000000,0.000000,0.000000,7.841670,5.127320,-0.787603
1649346740.935084,26545.000000,1649346740.934651,0.000000,0.000000,1.000000,0.000000,0.000000,0.000000,0.000000,7.841669,5.127400,-0.788030
1649346741.035810,26546.000000,1649346741.035021,0.000000,0.000000,1.000000,0.000000,0.000000,0.000000,0.000000,7.840568,5.128578,-0.781944
1649346741.133878,26547.000000,1649346741.133313,0.000000,0.000000,1.000000,0.000000,0.000000,0.000000,0.000000,7.839520,5.129699,-0.773652
1649346741.235108,26548.000000,1649346741.233911,0.000000,0.000000,1.000000,0.000000,0.000000,0.000000,0.000000,7.838526,5.131854,-0.760032
1649346741.333588,26549.000000,1649346741.333160,0.000000,0.000000,1.000000,0.000000,0.000000,0.000000,0.000000,7.838678,5.132797,-0.763904
1649346741.434890,26550.000000,1649346741.434278,0.000000,0.000000,1.000000,0.000000,0.000000,0.000000,0.000000,7.837731,5.133682,-0.765200
1649346741.533541,26551.000000,1649346741.533208,0.000000,0.000000,1.000000,0.000000,0.000000,0.000000,0.000000,7.837929,5.134511,-0.765635
1649346741.633197,26552.000000,1649346741.632616,0.000000,0.000000,1.000000,0.000000,0.000000,0.000000,0.000000,7.837028,5.135284,-0.762018
1649346741.732949,26553.000000,1649346741.732525,0.000000,0.000000,1.000000,0.000000,0.000000,0.000000,0.000000,7.836181,5.136003,-0.755324
1649346741.834638,26554.000000,1649346741.833181,0.000000,0.000000,1.000000,0.000000,0.000000,0.000000,0.000000,7.837568,5.135577,-0.753754
1649346741.933349,26555.000000,1649346741.932870,0.000000,0.000000,1.000000,0.000000,0.000000,0.000000,0.000000,7.839972,5.136254,-0.754683
1649346742.034966,26556.000000,1649346742.033981,0.000000,0.000000,1.000000,0.000000,0.000000,0.000000,0.000000,7.841150,5.135790,-0.767685
1649346742.135219,26557.000000,1649346742.134164,0.000000,0.000000,1.000000,0.000000,0.000000,0.000000,0.000000,7.843346,5.135340,-0.774511
1649346742.235204,26558.000000,1649346742.234279,0.000000,0.000000,1.000000,0.000000,0.000000,0.000000,0.000000,7.844317,5.134905,-0.783461
1649346742.334351,26559.000000,1649346742.333939,0.000000,0.000000,1.000000,0.000000,0.000000,0.000000,0.000000,7.845217,5.133397,-0.794436
1649346742.433611,26560.000000,1649346742.432937,0.000000,0.000000,1.000000,0.000000,0.000000,0.000000,0.000000,7.844959,5.130878,-0.803304
1649346742.533070,26561.000000,1649346742.532671,0.000000,0.000000,1.000000,0.000000,0.000000,0.000000,0.000000,7.844698,5.129594,-0.807719
1649346742.634584,26562.000000,1649346742.633730,0.000000,0.000000,1.000000,0.000000,0.000000,0.000000,0.000000,7.844436,5.127298,-0.813501
1649346742.736453,26563.000000,1649346742.735129,0.000000,0.000000,1.000000,0.000000,0.000000,0.000000,0.000000,7.844175,5.125144,-0.830264
1649346742.834388,26564.000000,1649346742.834023,0.000000,0.000000,1.000000,0.000000,0.000000,0.000000,0.000000,7.843916,5.124220,-0.841412
1649346742.932628,26565.000000,1649346742.932350,0.000000,0.000000,1.000000,0.000000,0.000000,0.000000,0.000000,7.844751,5.124460,-0.847963
1649346743.032650,26566.000000,1649346743.032226,0.000000,0.000000,1.000000,0.000000,0.000000,0.000000,0.000000,7.845527,5.123619,-0.854934
1649346743.137778,26567.000000,1649346743.136993,0.000000,0.000000,1.000000,0.000000,0.000000,0.000000,0.000000,7.845157,5.122846,-0.853432
1649346743.233267,26568.000000,1649346743.232701,0.000000,0.000000,1.000000,0.000000,0.000000,0.000000,0.000000,7.844795,5.122140,-0.849450
1649346743.335579,26569.000000,1649346743.334773,0.000000,0.000000,1.000000,0.000000,0.000000,0.000000,0.000000,7.843352,5.122588,-0.843907
1649346743.432872,26570.000000,1649346743.432525,0.000000,0.000000,1.000000,0.000000,0.000000,0.000000,0.000000,7.843072,5.121944,-0.838493
1649346743.534707,26571.000000,1649346743.533960,0.000000,0.000000,1.000000,0.000000,0.000000,0.000000,0.000000,7.842804,5.121357,-0.835634
1649346743.635327,26572.000000,1649346743.634598,0.000000,0.000000,1.000000,0.000000,0.000000,0.000000,0.000000,7.841457,5.120826,-0.834431
1649346743.734053,26573.000000,1649346743.733505,0.000000,0.000000,1.000000,0.000000,0.000000,0.000000,0.000000,7.839094,5.120347,-0.830788
1649346743.833741,26574.000000,1649346743.833218,0.000000,0.000000,1.000000,0.000000,0.000000,0.000000,0.000000,7.837959,5.119919,-0.825621
1649346743.933436,26575.000000,1649346743.932949,0.000000,0.000000,1.000000,0.000000,0.000000,0.000000,0.000000,7.837988,5.119537,-0.821420
1649346744.033921,26576.000000,1649346744.033492,0.000000,0.000000,1.000000,0.000000,0.000000,0.000000,0.000000,7.838027,5.120291,-0.812511
1649346744.136958,26577.000000,1649346744.136338,0.000000,0.000000,1.000000,0.000000,0.000000,0.000000,0.000000,7.836983,5.119933,-0.804745
1649346744.234689,26578.000000,1649346744.232409,0.000000,0.000000,1.000000,0.000000,0.000000,0.000000,0.000000,7.834919,5.119615,-0.800511
1649346744.335622,26579.000000,1649346744.335115,0.000000,0.000000,1.000000,0.000000,0.000000,0.000000,0.000000,7.832986,5.120424,-0.786769
1649346744.435629,26580.000000,1649346744.434497,0.000000,0.000000,1.000000,0.000000,0.000000,0.000000,0.000000,7.831182,5.121205,-0.775217
1649346744.532557,26581.000000,1649346744.532233,0.000000,0.000000,1.000000,0.000000,0.000000,0.000000,0.000000,7.829505,5.123047,-0.764978
1649346744.635793,26582.000000,1649346744.635455,0.000000,0.000000,1.000000,0.000000,0.000000,0.000000,0.000000,7.827950,5.124794,-0.754403
1649346744.732702,26583.000000,1649346744.732383,0.000000,0.000000,1.000000,0.000000,0.000000,0.000000,0.000000,7.826516,5.126447,-0.744327
1649346744.835199,26584.000000,1649346744.834510,0.000000,0.000000,1.000000,0.000000,0.000000,0.000000,0.000000,7.825196,5.128005,-0.735550
1649346744.934220,26585.000000,1649346744.933664,0.000000,0.000000,1.000000,0.000000,0.000000,0.000000,0.000000,7.822897,5.128378,-0.731257
1649346745.032429,26586.000000,1649346745.032205,0.000000,0.000000,1.000000,0.000000,0.000000,0.000000,0.000000,7.820768,5.128720,-0.719980
1649346745.134713,26587.000000,1649346745.134403,0.000000,0.000000,1.000000,0.000000,0.000000,0.000000,0.000000,7.819894,5.129034,-0.712500
1649346745.232649,26588.000000,1649346745.232346,0.000000,0.000000,1.000000,0.000000,0.000000,0.000000,0.000000,7.819115,5.129319,-0.701412
1649346745.333243,26589.000000,1649346745.332672,0.000000,0.000000,1.000000,0.000000,0.000000,0.000000,0.000000,7.818427,5.128487,-0.707844
1649346745.433952,26590.000000,1649346745.433428,0.000000,0.000000,1.000000,0.000000,0.000000,0.000000,0.000000,7.818915,5.127692,-0.713332
1649346745.534777,26591.000000,1649346745.534209,0.000000,0.000000,1.000000,0.000000,0.000000,0.000000,0.000000,7.819419,5.126936,-0.716285
1649346745.635797,26592.000000,1649346745.635004,0.000000,0.000000,1.000000,0.000000,0.000000,0.000000,0.000000,7.819934,5.126218,-0.715990
1649346745.732675,26593.000000,1649346745.732337,0.000000,0.000000,1.000000,0.000000,0.000000,0.000000,0.000000,7.819366,5.125539,-0.716606
1649346745.834700,26594.000000,1649346745.834075,0.000000,0.000000,1.000000,0.000000,0.000000,0.000000,0.000000,7.819955,5.124900,-0.715674
1649346745.934097,26595.000000,1649346745.933666,0.000000,0.000000,1.000000,0.000000,0.000000,0.000000,0.000000,7.819452,5.125390,-0.716478
1649346746.034463,26596.000000,1649346746.033970,0.000000,0.000000,1.000000,0.000000,0.000000,0.000000,0.000000,7.820098,5.125856,-0.712492
1649346746.134242,26597.000000,1649346746.133260,0.000000,0.000000,1.000000,0.000000,0.000000,0.000000,0.000000,7.819646,5.126296,-0.709558
1649346746.234770,26598.000000,1649346746.233919,0.000000,0.000000,1.000000,0.000000,0.000000,0.000000,0.000000,7.820335,5.126712,-0.710860
1649346746.335900,26599.000000,1649346746.335340,0.000000,0.000000,1.000000,0.000000,0.000000,0.000000,0.000000,7.819920,5.127104,-0.708964
1649346746.437218,26600.000000,1649346746.436379,0.000000,0.000000,1.000000,0.000000,0.000000,0.000000,0.000000,7.819550,5.128561,-0.705611
1649346746.537363,26601.000000,1649346746.535881,0.000000,0.000000,1.000000,0.000000,0.000000,0.000000,0.000000,7.820314,5.128841,-0.707315
1649346746.635301,26602.000000,1649346746.634477,0.000000,0.000000,1.000000,0.000000,0.000000,0.000000,0.000000,7.821056,5.130188,-0.704188
1649346746.736096,26603.000000,1649346746.735293,0.000000,0.000000,1.000000,0.000000,0.000000,0.000000,0.000000,7.821773,5.131450,-0.691587
1649346746.833058,26604.000000,1649346746.832541,0.000000,0.000000,1.000000,0.000000,0.000000,0.000000,0.000000,7.823554,5.133719,-0.685235
1649346746.933237,26605.000000,1649346746.932631,0.000000,0.000000,1.000000,0.000000,0.000000,0.000000,0.000000,7.824153,5.135842,-0.678435
