__time,/dwm1001/id_458E/pose_kf/header/seq,/dwm1001/id_458E/pose_kf/header/stamp,/dwm1001/id_458E/pose_kf/pose/orientation/pitch_deg,/dwm1001/id_458E/pose_kf/pose/orientation/roll_deg,/dwm1001/id_458E/pose_kf/pose/orientation/w,/dwm1001/id_458E/pose_kf/pose/orientation/x,/dwm1001/id_458E/pose_kf/pose/orientation/y,/dwm1001/id_458E/pose_kf/pose/orientation/yaw_deg,/dwm1001/id_458E/pose_kf/pose/orientation/z,/dwm1001/id_458E/pose_kf/pose/position/x,/dwm1001/id_458E/pose_kf/pose/position/y,/dwm1001/id_458E/pose_kf/pose/position/z
1649344856.934228,7800.000000,1649344856.933665,0.000000,0.000000,1.000000,0.000000,0.000000,0.000000,0.000000,4.524399,7.405321,0.700577
1649344857.034154,7801.000000,1649344857.033809,0.000000,0.000000,1.000000,0.000000,0.000000,0.000000,0.000000,4.530459,7.403938,0.733987
1649344857.137493,7802.000000,1649344857.133761,0.000000,0.000000,1.000000,0.000000,0.000000,0.000000,0.000000,4.535981,7.401655,0.769162
1649344857.234721,7803.000000,1649344857.233910,0.000000,0.000000,1.000000,0.000000,0.000000,0.000000,0.000000,4.532266,7.406152,0.760042
1649344857.335422,7804.000000,1649344857.334846,0.000000,0.000000,1.000000,0.000000,0.000000,0.000000,0.000000,4.530745,7.409407,0.764113
1649344857.432733,7805.000000,1649344857.432404,0.000000,0.000000,1.000000,0.000000,0.000000,0.000000,0.000000,4.530224,7.411472,0.778454
1649344857.533696,7806.000000,1649344857.533066,0.000000,0.000000,1.000000,0.000000,0.000000,0.000000,0.000000,4.520847,7.418944,0.749437
1649344857.633315,7807.000000,1649344857.632932,0.000000,0.000000,1.000000,0.000000,0.000000,0.000000,0.000000,4.516219,7.422777,0.737765
1649344857.735874,7808.000000,1649344857.735543,0.000000,0.000000,1.000000,0.000000,0.000000,0.000000,0.000000,4.512832,7.425336,0.741178
1649344857.835166,7809.000000,1649344857.834776,0.000000,0.000000,1.000000,0.000000,0.000000,0.000000,0.000000,4.512816,7.425590,0.751834
1649344857.933959,7810.000000,1649344857.933260,0.000000,0.000000,1.000000,0.000000,0.000000,0.000000,0.000000,4.512721,7.424754,0.770259
1649344858.033126,7811.000000,1649344858.032793,0.000000,0.000000,1.000000,0.000000,0.000000,0.000000,0.000000,4.513647,7.423979,0.793716
1649344858.134238,7812.000000,1649344858.133742,0.000000,0.000000,1.000000,0.000000,0.000000,0.000000,0.000000,4.515539,7.421083,0.813926
1649344858.234997,7813.000000,1649344858.234451,0.000000,0.000000,1.000000,0.000000,0.000000,0.000000,0.000000,4.517253,7.418370,0.839081
1649344858.336296,7814.000000,1649344858.335444,0.000000,0.000000,1.000000,0.000000,0.000000,0.000000,0.000000,4.520979,7.415837,0.864129
1649344858.434141,7815.000000,1649344858.433526,0.000000,0.000000,1.000000,0.000000,0.000000,0.000000,0.000000,4.526598,7.412390,0.887447
1649344858.532419,7816.000000,1649344858.532206,0.000000,0.000000,1.000000,0.000000,0.000000,0.000000,0.000000,4.530725,7.408088,0.867968
1649344858.634700,7817.000000,1649344858.633472,0.000000,0.000000,1.000000,0.000000,0.000000,0.000000,0.000000,4.534523,7.404078,0.820383
1649344858.733494,7818.000000,1649344858.733066,0.000000,0.000000,1.000000,0.000000,0.000000,0.000000,0.000000,4.538004,7.400354,0.749160
1649344858.833468,7819.000000,1649344858.833122,0.000000,0.000000,1.000000,0.000000,0.000000,0.000000,0.000000,4.542271,7.395818,0.669104
1649344858.932642,7820.000000,1649344858.932479,0.000000,0.000000,1.000000,0.000000,0.000000,0.000000,0.000000,4.545095,7.390523,0.577500
1649344859.034230,7821.000000,1649344859.033748,0.000000,0.000000,1.000000,0.000000,0.000000,0.000000,0.000000,4.547641,7.384523,0.486269
1649344859.133608,7822.000000,1649344859.133262,0.000000,0.000000,1.000000,0.000000,0.000000,0.000000,0.000000,4.540111,7.385503,0.437491
1649344859.235089,7823.000000,1649344859.234275,0.000000,0.000000,1.000000,0.000000,0.000000,0.000000,0.000000,4.536169,7.384349,0.406147
1649344859.336518,7824.000000,1649344859.335525,0.000000,0.000000,1.000000,0.000000,0.000000,0.000000,0.000000,4.523644,7.389898,0.398033
1649344859.432775,7825.000000,1649344859.432405,0.000000,0.000000,1.000000,0.000000,0.000000,0.000000,0.000000,4.506317,7.400673,0.358187
1649344859.533017,7826.000000,1649344859.532766,0.000000,0.000000,1.000000,0.000000,0.000000,0.000000,0.000000,4.485597,7.414169,0.300043
1649344859.635053,7827.000000,1649344859.634646,0.000000,0.000000,1.000000,0.000000,0.000000,0.000000,0.000000,4.461733,7.429103,0.223620
1649344859.735223,7828.000000,1649344859.734635,0.000000,0.000000,1.000000,0.000000,0.000000,0.000000,0.000000,4.446960,7.437718,0.188640
1649344859.836352,7829.000000,1649344859.835291,0.000000,0.000000,1.000000,0.000000,0.000000,0.000000,0.000000,4.428826,7.450147,0.130571
1649344859.933913,7830.000000,1649344859.933200,0.000000,0.000000,1.000000,0.000000,0.000000,0.000000,0.000000,4.419554,7.457424,0.110098
1649344860.035750,7831.000000,1649344860.035444,0.000000,0.000000,1.000000,0.000000,0.000000,0.000000,0.000000,4.415406,7.461995,0.108780
1649344860.133797,7832.000000,1649344860.133221,0.000000,0.000000,1.000000,0.000000,0.000000,0.000000,0.000000,4.406287,7.471633,0.077436
1649344860.233664,7833.000000,1649344860.233240,0.000000,0.000000,1.000000,0.000000,0.000000,0.000000,0.000000,4.402296,7.477316,0.074563
1649344860.335989,7834.000000,1649344860.334179,0.000000,0.000000,1.000000,0.000000,0.000000,0.000000,0.000000,4.403150,7.480341,0.094156
1649344860.438484,7835.000000,1649344860.437838,0.000000,0.000000,1.000000,0.000000,0.000000,0.000000,0.000000,4.407477,7.480854,0.126379
1649344860.532642,7836.000000,1649344860.532340,0.000000,0.000000,1.000000,0.000000,0.000000,0.000000,0.000000,4.412879,7.478999,0.171455
1649344860.632431,7837.000000,1649344860.632245,0.000000,0.000000,1.000000,0.000000,0.000000,0.000000,0.000000,4.410544,7.483642,0.173125
1649344860.733149,7838.000000,1649344860.732762,0.000000,0.000000,1.000000,0.000000,0.000000,0.000000,0.000000,4.403072,7.490064,0.142798
1649344860.836394,7839.000000,1649344860.835222,0.000000,0.000000,1.000000,0.000000,0.000000,0.000000,0.000000,4.394025,7.498154,0.089060
1649344860.933990,7840.000000,1649344860.933603,0.000000,0.000000,1.000000,0.000000,0.000000,0.000000,0.000000,4.391140,7.499083,0.059704
1649344861.032629,7841.000000,1649344861.032434,0.000000,0.000000,1.000000,0.000000,0.000000,0.000000,0.000000,4.391896,7.497610,0.057004
1649344861.132861,7842.000000,1649344861.132616,0.000000,0.000000,1.000000,0.000000,0.000000,0.000000,0.000000,4.396081,7.494970,0.071807
1649344861.232381,7843.000000,1649344861.232210,0.000000,0.000000,1.000000,0.000000,0.000000,0.000000,0.000000,4.394760,7.497788,0.059008
1649344861.333921,7844.000000,1649344861.332976,0.000000,0.000000,1.000000,0.000000,0.000000,0.000000,0.000000,4.398040,7.494860,0.057626
1649344861.434461,7845.000000,1649344861.433789,0.000000,0.000000,1.000000,0.000000,0.000000,0.000000,0.000000,4.404561,7.486517,0.056703
1649344861.535412,7846.000000,1649344861.534490,0.000000,0.000000,1.000000,0.000000,0.000000,0.000000,0.000000,4.410845,7.477449,0.057011
1649344861.632289,7847.000000,1649344861.632085,0.000000,0.000000,1.000000,0.000000,0.000000,0.000000,0.000000,4.409247,7.473181,0.073806
1649344861.733495,7848.000000,1649344861.732991,0.000000,0.000000,1.000000,0.000000,0.000000,0.000000,0.000000,4.403466,7.473468,0.060413
1649344861.833002,7849.000000,1649344861.832713,0.000000,0.000000,1.000000,0.000000,0.000000,0.000000,0.000000,4.391562,7.476973,0.025313
1649344861.933442,7850.000000,1649344861.933177,0.000000,0.000000,1.000000,0.000000,0.000000,0.000000,0.000000,4.388076,7.474789,0.024268
1649344862.033221,7851.000000,1649344862.032967,0.000000,0.000000,1.000000,0.000000,0.000000,0.000000,0.000000,4.390371,7.468326,0.048631
1649344862.135769,7852.000000,1649344862.134816,0.000000,0.000000,1.000000,0.000000,0.000000,0.000000,0.000000,4.386123,7.465471,0.040064
1649344862.235943,7853.000000,1649344862.235020,0.000000,0.000000,1.000000,0.000000,0.000000,0.000000,0.000000,4.375695,7.468220,0.012799
1649344862.339554,7854.000000,1649344862.338686,0.000000,0.000000,1.000000,0.000000,0.000000,0.000000,0.000000,4.371442,7.465353,-0.002538
1649344862.436868,7855.000000,1649344862.435726,0.000000,0.000000,1.000000,0.000000,0.000000,0.000000,0.000000,4.362129,7.467002,-0.037869
1649344862.532686,7856.000000,1649344862.532380,0.000000,0.000000,1.000000,0.000000,0.000000,0.000000,0.000000,4.348051,7.471823,-0.088310
1649344862.636913,7857.000000,1649344862.635311,0.000000,0.000000,1.000000,0.000000,0.000000,0.000000,0.000000,4.344768,7.469817,-0.122539
1649344862.732710,7858.000000,1649344862.732379,0.000000,0.000000,1.000000,0.000000,0.000000,0.000000,0.000000,4.346237,7.464634,-0.120203
1649344862.836108,7859.000000,1649344862.835872,0.000000,0.000000,1.000000,0.000000,0.000000,0.000000,0.000000,4.351093,7.456464,-0.093285
1649344862.933420,7860.000000,1649344862.932598,0.000000,0.000000,1.000000,0.000000,0.000000,0.000000,0.000000,4.348220,7.454218,-0.050905
1649344863.034344,7861.000000,1649344863.033498,0.000000,0.000000,1.000000,0.000000,0.000000,0.000000,0.000000,4.352214,7.448857,0.004609
1649344863.135460,7862.000000,1649344863.134500,0.000000,0.000000,1.000000,0.000000,0.000000,0.000000,0.000000,4.360497,7.440564,0.070203
1649344863.236088,7863.000000,1649344863.235698,0.000000,0.000000,1.000000,0.000000,0.000000,0.000000,0.000000,4.370621,7.430614,0.089704
1649344863.334492,7864.000000,1649344863.333810,0.000000,0.000000,1.000000,0.000000,0.000000,0.000000,0.000000,4.381357,7.419124,0.091545
1649344863.435752,7865.000000,1649344863.435311,0.000000,0.000000,1.000000,0.000000,0.000000,0.000000,0.000000,4.394815,7.406208,0.065948
1649344863.532518,7866.000000,1649344863.532310,0.000000,0.000000,1.000000,0.000000,0.000000,0.000000,0.000000,4.410801,7.391977,0.021319
1649344863.634073,7867.000000,1649344863.633538,0.000000,0.000000,1.000000,0.000000,0.000000,0.000000,0.000000,4.426947,7.378718,-0.038279
1649344863.733072,7868.000000,1649344863.732862,0.000000,0.000000,1.000000,0.000000,0.000000,0.000000,0.000000,4.444288,7.366411,-0.104889
1649344863.834594,7869.000000,1649344863.834088,0.000000,0.000000,1.000000,0.000000,0.000000,0.000000,0.000000,4.460529,7.353937,-0.162804
1649344863.933435,7870.000000,1649344863.933251,0.000000,0.000000,1.000000,0.000000,0.000000,0.000000,0.000000,4.474597,7.341330,-0.228422
1649344864.033233,7871.000000,1649344864.032879,0.000000,0.000000,1.000000,0.000000,0.000000,0.000000,0.000000,4.488760,7.329712,-0.300532
1649344864.134703,7872.000000,1649344864.133960,0.000000,0.000000,1.000000,0.000000,0.000000,0.000000,0.000000,4.499708,7.319048,-0.377162
1649344864.238325,7873.000000,1649344864.236638,0.000000,0.000000,1.000000,0.000000,0.000000,0.000000,0.000000,4.510870,7.309301,-0.452379
1649344864.332914,7874.000000,1649344864.332668,0.000000,0.000000,1.000000,0.000000,0.000000,0.000000,0.000000,4.521124,7.300433,-0.505984
1649344864.435268,7875.000000,1649344864.434718,0.000000,0.000000,1.000000,0.000000,0.000000,0.000000,0.000000,4.531595,7.292403,-0.550082
1649344864.535827,7876.000000,1649344864.534914,0.000000,0.000000,1.000000,0.000000,0.000000,0.000000,0.000000,4.541165,7.285170,-0.598729
1649344864.635439,7877.000000,1649344864.634764,0.000000,0.000000,1.000000,0.000000,0.000000,0.000000,0.000000,4.549874,7.278694,-0.632344
1649344864.733587,7878.000000,1649344864.733025,0.000000,0.000000,1.000000,0.000000,0.000000,0.000000,0.000000,4.558850,7.271841,-0.657967
1649344864.832342,7879.000000,1649344864.832165,0.000000,0.000000,1.000000,0.000000,0.000000,0.000000,0.000000,4.564800,7.265724,-0.682372
1649344864.934753,7880.000000,1649344864.934348,0.000000,0.000000,1.000000,0.000000,0.000000,0.000000,0.000000,4.568980,7.260302,-0.697542
1649344865.033435,7881.000000,1649344865.033062,0.000000,0.000000,1.000000,0.000000,0.000000,0.000000,0.000000,4.562771,7.264254,-0.676446
1649344865.132527,7882.000000,1649344865.132221,0.000000,0.000000,1.000000,0.000000,0.000000,0.000000,0.000000,4.559864,7.266134,-0.667398
1649344865.234365,7883.000000,1649344865.233937,0.000000,0.000000,1.000000,0.000000,0.000000,0.000000,0.000000,4.559016,7.267121,-0.662707
1649344865.336557,7884.000000,1649344865.335878,0.000000,0.000000,1.000000,0.000000,0.000000,0.000000,0.000000,4.547047,7.274875,-0.629176
1649344865.435116,7885.000000,1649344865.434483,0.000000,0.000000,1.000000,0.000000,0.000000,0.000000,0.000000,4.538792,7.280265,-0.605961
1649344865.532215,7886.000000,1649344865.532043,0.000000,0.000000,1.000000,0.000000,0.000000,0.000000,0.000000,4.532996,7.284478,-0.608039
1649344865.633727,7887.000000,1649344865.632772,0.000000,0.000000,1.000000,0.000000,0.000000,0.000000,0.000000,4.519741,7.294096,-0.574737
1649344865.733810,7888.000000,1649344865.733301,0.000000,0.000000,1.000000,0.000000,0.000000,0.000000,0.000000,4.512566,7.300061,-0.516432
1649344865.833865,7889.000000,1649344865.833483,0.000000,0.000000,1.000000,0.000000,0.000000,0.000000,0.000000,4.507897,7.304724,-0.477804
1649344865.933272,7890.000000,1649344865.932934,0.000000,0.000000,1.000000,0.000000,0.000000,0.000000,0.000000,4.505618,7.307047,-0.454917
1649344866.033233,7891.000000,1649344866.032860,0.000000,0.000000,1.000000,0.000000,0.000000,0.000000,0.000000,4.507786,7.308233,-0.453640
1649344866.133928,7892.000000,1649344866.133269,0.000000,0.000000,1.000000,0.000000,0.000000,0.000000,0.000000,4.501073,7.315969,-0.421503
1649344866.234977,7893.000000,1649344866.234453,0.000000,0.000000,1.000000,0.000000,0.000000,0.000000,0.000000,4.496887,7.320056,-0.400945
1649344866.332506,7894.000000,1649344866.332238,0.000000,0.000000,1.000000,0.000000,0.000000,0.000000,0.000000,4.495107,7.322859,-0.393962
1649344866.435393,7895.000000,1649344866.434519,0.000000,0.000000,1.000000,0.000000,0.000000,0.000000,0.000000,4.495607,7.323346,-0.392767
1649344866.536574,7896.000000,1649344866.536145,0.000000,0.000000,1.000000,0.000000,0.000000,0.000000,0.000000,4.496080,7.323822,-0.401167
1649344866.638146,7897.000000,1649344866.636727,0.000000,0.000000,1.000000,0.000000,0.000000,0.000000,0.000000,4.487802,7.330827,-0.379250
1649344866.736038,7898.000000,1649344866.734642,0.000000,0.000000,1.000000,0.000000,0.000000,0.000000,0.000000,4.485453,7.335260,-0.378282
1649344866.833732,7899.000000,1649344866.833380,0.000000,0.000000,1.000000,0.000000,0.000000,0.000000,0.000000,4.486534,7.337247,-0.383713
1649344866.932900,7900.000000,1649344866.932611,0.000000,0.000000,1.000000,0.000000,0.000000,0.000000,0.000000,4.488672,7.336917,-0.387217
1649344867.032658,7901.000000,1649344867.032479,0.000000,0.000000,1.000000,0.000000,0.000000,0.000000,0.000000,4.491801,7.335489,-0.409836
1649344867.133664,7902.000000,1649344867.133007,0.000000,0.000000,1.000000,0.000000,0.000000,0.000000,0.000000,4.494767,7.331939,-0.445121
1649344867.235608,7903.000000,1649344867.234669,0.000000,0.000000,1.000000,0.000000,0.000000,0.000000,0.000000,4.499749,7.327484,-0.484443
1649344867.335330,7904.000000,1649344867.333810,0.000000,0.000000,1.000000,0.000000,0.000000,0.000000,0.000000,4.503350,7.323280,-0.511451
1649344867.436299,7905.000000,1649344867.435824,0.000000,0.000000,1.000000,0.000000,0.000000,0.000000,0.000000,4.506727,7.319324,-0.548379
1649344867.532946,7906.000000,1649344867.532414,0.000000,0.000000,1.000000,0.000000,0.000000,0.000000,0.000000,4.509881,7.315615,-0.589939
1649344867.634360,7907.000000,1649344867.633906,0.000000,0.000000,1.000000,0.000000,0.000000,0.000000,0.000000,4.515000,7.312149,-0.621372
1649344867.733043,7908.000000,1649344867.732724,0.000000,0.000000,1.000000,0.000000,0.000000,0.000000,0.000000,4.508876,7.316555,-0.612402
1649344867.833002,7909.000000,1649344867.832576,0.000000,0.000000,1.000000,0.000000,0.000000,0.000000,0.000000,4.506321,7.318573,-0.609047
1649344867.935469,7910.000000,1649344867.934560,0.000000,0.000000,1.000000,0.000000,0.000000,0.000000,0.000000,4.495156,7.327048,-0.574006
1649344868.034069,7911.000000,1649344868.033689,0.000000,0.000000,1.000000,0.000000,0.000000,0.000000,0.000000,4.488971,7.332877,-0.530404
1649344868.132470,7912.000000,1649344868.132261,0.000000,0.000000,1.000000,0.000000,0.000000,0.000000,0.000000,4.486423,7.335096,-0.498029
1649344868.232233,7913.000000,1649344868.232067,0.000000,0.000000,1.000000,0.000000,0.000000,0.000000,0.000000,4.475327,7.344799,-0.447459
1649344868.332274,7914.000000,1649344868.332114,0.000000,0.000000,1.000000,0.000000,0.000000,0.000000,0.000000,4.471446,7.350646,-0.377099
1649344868.433819,7915.000000,1649344868.433604,0.000000,0.000000,1.000000,0.000000,0.000000,0.000000,0.000000,4.471124,7.353923,-0.342709
1649344868.533809,7916.000000,1649344868.533355,0.000000,0.000000,1.000000,0.000000,0.000000,0.000000,0.000000,4.471984,7.354763,-0.337248
1649344868.640747,7917.000000,1649344868.638654,0.000000,0.000000,1.000000,0.000000,0.000000,0.000000,0.000000,4.476134,7.353301,-0.353102
1649344868.734489,7918.000000,1649344868.733380,0.000000,0.000000,1.000000,0.000000,0.000000,0.000000,0.000000,4.480108,7.350761,-0.365188
1649344868.834567,7919.000000,1649344868.834161,0.000000,0.000000,1.000000,0.000000,0.000000,0.000000,0.000000,4.484990,7.346123,-0.391374
1649344868.932465,7920.000000,1649344868.932122,0.000000,0.000000,1.000000,0.000000,0.000000,0.000000,0.000000,4.488533,7.341701,-0.419754
1649344869.034473,7921.000000,1649344869.033775,0.000000,0.000000,1.000000,0.000000,0.000000,0.000000,0.000000,4.484255,7.346222,-0.408255
1649344869.133002,7922.000000,1649344869.132517,0.000000,0.000000,1.000000,0.000000,0.000000,0.000000,0.000000,4.474775,7.357005,-0.371408
1649344869.234164,7923.000000,1649344869.233539,0.000000,0.000000,1.000000,0.000000,0.000000,0.000000,0.000000,4.459317,7.372586,-0.357072
1649344869.333038,7924.000000,1649344869.332687,0.000000,0.000000,1.000000,0.000000,0.000000,0.000000,0.000000,4.441522,7.390478,-0.365167
1649344869.435540,7925.000000,1649344869.434554,0.000000,0.000000,1.000000,0.000000,0.000000,0.000000,0.000000,4.433562,7.402873,-0.343967
1649344869.534029,7926.000000,1649344869.533546,0.000000,0.000000,1.000000,0.000000,0.000000,0.000000,0.000000,4.424016,7.416582,-0.345492
1649344869.632359,7927.000000,1649344869.632147,0.000000,0.000000,1.000000,0.000000,0.000000,0.000000,0.000000,4.412990,7.434774,-0.366399
1649344869.734561,7928.000000,1649344869.734001,0.000000,0.000000,1.000000,0.000000,0.000000,0.000000,0.000000,4.409312,7.447345,-0.356675
1649344869.835674,7929.000000,1649344869.835224,0.000000,0.000000,1.000000,0.000000,0.000000,0.000000,0.000000,4.400588,7.463302,-0.368375
1649344869.934304,7930.000000,1649344869.933376,0.000000,0.000000,1.000000,0.000000,0.000000,0.000000,0.000000,4.395831,7.474793,-0.344162
1649344870.034626,7931.000000,1649344870.034156,0.000000,0.000000,1.000000,0.000000,0.000000,0.000000,0.000000,4.388284,7.487496,-0.340361
1649344870.133919,7932.000000,1649344870.133514,0.000000,0.000000,1.000000,0.000000,0.000000,0.000000,0.000000,4.377021,7.503506,-0.355346
1649344870.233888,7933.000000,1649344870.233168,0.000000,0.000000,1.000000,0.000000,0.000000,0.000000,0.000000,4.365537,7.518252,-0.380266
1649344870.335370,7934.000000,1649344870.334497,0.000000,0.000000,1.000000,0.000000,0.000000,0.000000,0.000000,4.361498,7.527417,-0.366289
1649344870.434807,7935.000000,1649344870.433940,0.000000,0.000000,1.000000,0.000000,0.000000,0.000000,0.000000,4.362314,7.530209,-0.328716
1649344870.532599,7936.000000,1649344870.532207,0.000000,0.000000,1.000000,0.000000,0.000000,0.000000,0.000000,4.366612,7.528083,-0.289528
1649344870.636365,7937.000000,1649344870.635434,0.000000,0.000000,1.000000,0.000000,0.000000,0.000000,0.000000,4.375266,7.522426,-0.243207
1649344870.732642,7938.000000,1649344870.732322,0.000000,0.000000,1.000000,0.000000,0.000000,0.000000,0.000000,4.385815,7.514561,-0.178015
1649344870.836789,7939.000000,1649344870.836033,0.000000,0.000000,1.000000,0.000000,0.000000,0.000000,0.000000,4.395933,7.504651,-0.114170
1649344870.934814,7940.000000,1649344870.934407,0.000000,0.000000,1.000000,0.000000,0.000000,0.000000,0.000000,4.396879,7.499400,-0.039614
1649344871.034148,7941.000000,1649344871.033553,0.000000,0.000000,1.000000,0.000000,0.000000,0.000000,0.000000,4.390235,7.498582,-0.004887
1649344871.135394,7942.000000,1649344871.134197,0.000000,0.000000,1.000000,0.000000,0.000000,0.000000,0.000000,4.389514,7.493250,0.025449
1649344871.232750,7943.000000,1649344871.232464,0.000000,0.000000,1.000000,0.000000,0.000000,0.000000,0.000000,4.392209,7.485857,0.066868
1649344871.336469,7944.000000,1649344871.335641,0.000000,0.000000,1.000000,0.000000,0.000000,0.000000,0.000000,4.389396,7.484182,0.080975
1649344871.432754,7945.000000,1649344871.432233,0.000000,0.000000,1.000000,0.000000,0.000000,0.000000,0.000000,4.392282,7.479203,0.119679
1649344871.534910,7946.000000,1649344871.534439,0.000000,0.000000,1.000000,0.000000,0.000000,0.000000,0.000000,4.398362,7.472214,0.174692
1649344871.633628,7947.000000,1649344871.633321,0.000000,0.000000,1.000000,0.000000,0.000000,0.000000,0.000000,4.407439,7.462262,0.238842
1649344871.734031,7948.000000,1649344871.733526,0.000000,0.000000,1.000000,0.000000,0.000000,0.000000,0.000000,4.408412,7.458266,0.303617
1649344871.833205,7949.000000,1649344871.832760,0.000000,0.000000,1.000000,0.000000,0.000000,0.000000,0.000000,4.413714,7.451194,0.356014
1649344871.932810,7950.000000,1649344871.932486,0.000000,0.000000,1.000000,0.000000,0.000000,0.000000,0.000000,4.422000,7.441236,0.365836
1649344872.033005,7951.000000,1649344872.032754,0.000000,0.000000,1.000000,0.000000,0.000000,0.000000,0.000000,4.419997,7.438396,0.391272
1649344872.132720,7952.000000,1649344872.132377,0.000000,0.000000,1.000000,0.000000,0.000000,0.000000,0.000000,4.422448,7.432478,0.413142
1649344872.235903,7953.000000,1649344872.233345,0.000000,0.000000,1.000000,0.000000,0.000000,0.000000,0.000000,4.426923,7.424758,0.398526
1649344872.332645,7954.000000,1649344872.332284,0.000000,0.000000,1.000000,0.000000,0.000000,0.000000,0.000000,4.434389,7.416444,0.375571
1649344872.435005,7955.000000,1649344872.434343,0.000000,0.000000,1.000000,0.000000,0.000000,0.000000,0.000000,4.432669,7.414134,0.381786
1649344872.533192,7956.000000,1649344872.532627,0.000000,0.000000,1.000000,0.000000,0.000000,0.000000,0.000000,4.435354,7.408778,0.406340
1649344872.633886,7957.000000,1649344872.633416,0.000000,0.000000,1.000000,0.000000,0.000000,0.000000,0.000000,4.441110,7.400554,0.392840
1649344872.733850,7958.000000,1649344872.733453,0.000000,0.000000,1.000000,0.000000,0.000000,0.000000,0.000000,4.447574,7.391818,0.363841
1649344872.833539,7959.000000,1649344872.833335,0.000000,0.000000,1.000000,0.000000,0.000000,0.000000,0.000000,4.444877,7.390251,0.363598
1649344872.933657,7960.000000,1649344872.933302,0.000000,0.000000,1.000000,0.000000,0.000000,0.000000,0.000000,4.446616,7.385646,0.371622
1649344873.033007,7961.000000,1649344873.032822,0.000000,0.000000,1.000000,0.000000,0.000000,0.000000,0.000000,4.440554,7.385805,0.395658
1649344873.133741,7962.000000,1649344873.133109,0.000000,0.000000,1.000000,0.000000,0.000000,0.000000,0.000000,4.439133,7.383919,0.435852
1649344873.235065,7963.000000,1649344873.234554,0.000000,0.000000,1.000000,0.000000,0.000000,0.000000,0.000000,4.441018,7.380095,0.450380
1649344873.335222,7964.000000,1649344873.334667,0.000000,0.000000,1.000000,0.000000,0.000000,0.000000,0.000000,4.446025,7.374445,0.439474
1649344873.433952,7965.000000,1649344873.433304,0.000000,0.000000,1.000000,0.000000,0.000000,0.000000,0.000000,4.452881,7.367075,0.416302
1649344873.533382,7966.000000,1649344873.532985,0.000000,0.000000,1.000000,0.000000,0.000000,0.000000,0.000000,4.460376,7.359186,0.387067
1649344873.633512,7967.000000,1649344873.633122,0.000000,0.000000,1.000000,0.000000,0.000000,0.000000,0.000000,4.470637,7.350820,0.335152
1649344873.733225,7968.000000,1649344873.732793,0.000000,0.000000,1.000000,0.000000,0.000000,0.000000,0.000000,4.481307,7.342019,0.284159
1649344873.837204,7969.000000,1649344873.836335,0.000000,0.000000,1.000000,0.000000,0.000000,0.000000,0.000000,4.491245,7.332823,0.215604
1649344873.935142,7970.000000,1649344873.934592,0.000000,0.000000,1.000000,0.000000,0.000000,0.000000,0.000000,4.500469,7.324360,0.157742
1649344874.035308,7971.000000,1649344874.034647,0.000000,0.000000,1.000000,0.000000,0.000000,0.000000,0.000000,4.511180,7.315513,0.104600
1649344874.136864,7972.000000,1649344874.135957,0.000000,0.000000,1.000000,0.000000,0.000000,0.000000,0.000000,4.521093,7.307407,0.040757
1649344874.234384,7973.000000,1649344874.233872,0.000000,0.000000,1.000000,0.000000,0.000000,0.000000,0.000000,4.530233,7.300013,-0.033250
1649344874.336213,7974.000000,1649344874.335172,0.000000,0.000000,1.000000,0.000000,0.000000,0.000000,0.000000,4.537536,7.293299,-0.099151
1649344874.433877,7975.000000,1649344874.433154,0.000000,0.000000,1.000000,0.000000,0.000000,0.000000,0.000000,4.533281,7.294866,-0.123302
1649344874.534222,7976.000000,1649344874.533519,0.000000,0.000000,1.000000,0.000000,0.000000,0.000000,0.000000,4.531209,7.296610,-0.160586
1649344874.632899,7977.000000,1649344874.632635,0.000000,0.000000,1.000000,0.000000,0.000000,0.000000,0.000000,4.530131,7.298499,-0.212042
1649344874.735718,7978.000000,1649344874.734791,0.000000,0.000000,1.000000,0.000000,0.000000,0.000000,0.000000,4.520195,7.307048,-0.223803
1649344874.833414,7979.000000,1649344874.833108,0.000000,0.000000,1.000000,0.000000,0.000000,0.000000,0.000000,4.504107,7.320765,-0.257956
1649344874.934331,7980.000000,1649344874.933405,0.000000,0.000000,1.000000,0.000000,0.000000,0.000000,0.000000,4.494255,7.331682,-0.260337
1649344875.032851,7981.000000,1649344875.032602,0.000000,0.000000,1.000000,0.000000,0.000000,0.000000,0.000000,4.488155,7.337729,-0.232245
1649344875.132705,7982.000000,1649344875.132421,0.000000,0.000000,1.000000,0.000000,0.000000,0.000000,0.000000,4.484536,7.342417,-0.195140
1649344875.232492,7983.000000,1649344875.232296,0.000000,0.000000,1.000000,0.000000,0.000000,0.000000,0.000000,4.473461,7.351256,-0.142210
1649344875.334291,7984.000000,1649344875.333740,0.000000,0.000000,1.000000,0.000000,0.000000,0.000000,0.000000,4.456463,7.365078,-0.126619
1649344875.434712,7985.000000,1649344875.434319,0.000000,0.000000,1.000000,0.000000,0.000000,0.000000,0.000000,4.445912,7.373754,-0.088834
1649344875.532901,7986.000000,1649344875.532682,0.000000,0.000000,1.000000,0.000000,0.000000,0.000000,0.000000,4.441485,7.378631,-0.049985
1649344875.635878,7987.000000,1649344875.634984,0.000000,0.000000,1.000000,0.000000,0.000000,0.000000,0.000000,4.430864,7.387534,-0.038416
1649344875.732899,7988.000000,1649344875.732379,0.000000,0.000000,1.000000,0.000000,0.000000,0.000000,0.000000,4.426406,7.393679,-0.024016
1649344875.834729,7989.000000,1649344875.834050,0.000000,0.000000,1.000000,0.000000,0.000000,0.000000,0.000000,4.427784,7.396111,0.012427
1649344875.934109,7990.000000,1649344875.933604,0.000000,0.000000,1.000000,0.000000,0.000000,0.000000,0.000000,4.431395,7.396122,0.045767
1649344876.032310,7991.000000,1649344876.032137,0.000000,0.000000,1.000000,0.000000,0.000000,0.000000,0.000000,4.437098,7.393849,0.054300
1649344876.133815,7992.000000,1649344876.133389,0.000000,0.000000,1.000000,0.000000,0.000000,0.000000,0.000000,4.433853,7.398154,0.077725
1649344876.235957,7993.000000,1649344876.235233,0.000000,0.000000,1.000000,0.000000,0.000000,0.000000,0.000000,4.424332,7.406488,0.072662
1649344876.334596,7994.000000,1649344876.333931,0.000000,0.000000,1.000000,0.000000,0.000000,0.000000,0.000000,4.421986,7.410979,0.094306
1649344876.432582,7995.000000,1649344876.432269,0.000000,0.000000,1.000000,0.000000,0.000000,0.000000,0.000000,4.412252,7.418371,0.085904
1649344876.535570,7996.000000,1649344876.534895,0.000000,0.000000,1.000000,0.000000,0.000000,0.000000,0.000000,4.407548,7.421948,0.105137
1649344876.632207,7997.000000,1649344876.632055,0.000000,0.000000,1.000000,0.000000,0.000000,0.000000,0.000000,4.406518,7.420824,0.141995
1649344876.734309,7998.000000,1649344876.733420,0.000000,0.000000,1.000000,0.000000,0.000000,0.000000,0.000000,4.410047,7.416358,0.139259
1649344876.833214,7999.000000,1649344876.832848,0.000000,0.000000,1.000000,0.000000,0.000000,0.000000,0.000000,4.417866,7.408752,0.113053
1649344876.934413,8000.000000,1649344876.933910,0.000000,0.000000,1.000000,0.000000,0.000000,0.000000,0.000000,4.415537,7.409114,0.109539
1649344877.033480,8001.000000,1649344877.033263,0.000000,0.000000,1.000000,0.000000,0.000000,0.000000,0.000000,4.405794,7.414830,0.085070
1649344877.133102,8002.000000,1649344877.132818,0.000000,0.000000,1.000000,0.000000,0.000000,0.000000,0.000000,4.403242,7.416873,0.071184
1649344877.234344,8003.000000,1649344877.233671,0.000000,0.000000,1.000000,0.000000,0.000000,0.000000,0.000000,4.404218,7.415442,0.086836
1649344877.334722,8004.000000,1649344877.334050,0.000000,0.000000,1.000000,0.000000,0.000000,0.000000,0.000000,4.409612,7.411826,0.093714
1649344877.434584,8005.000000,1649344877.434189,0.000000,0.000000,1.000000,0.000000,0.000000,0.000000,0.000000,4.407165,7.412703,0.119583
1649344877.534197,8006.000000,1649344877.533575,0.000000,0.000000,1.000000,0.000000,0.000000,0.000000,0.000000,4.408211,7.410196,0.162832
1649344877.635080,8007.000000,1649344877.634415,0.000000,0.000000,1.000000,0.000000,0.000000,0.000000,0.000000,4.413642,7.404501,0.189626
1649344877.733659,8008.000000,1649344877.733248,0.000000,0.000000,1.000000,0.000000,0.000000,0.000000,0.000000,4.419925,7.397993,0.194140
1649344877.834409,8009.000000,1649344877.832907,0.000000,0.000000,1.000000,0.000000,0.000000,0.000000,0.000000,4.429173,7.390740,0.169209
1649344877.932989,8010.000000,1649344877.932687,0.000000,0.000000,1.000000,0.000000,0.000000,0.000000,0.000000,4.440102,7.381715,0.142687
1649344878.033529,8011.000000,1649344878.033060,0.000000,0.000000,1.000000,0.000000,0.000000,0.000000,0.000000,4.451495,7.372133,0.110655
1649344878.138987,8012.000000,1649344878.138158,0.000000,0.000000,1.000000,0.000000,0.000000,0.000000,0.000000,4.463293,7.363141,0.062107
1649344878.233662,8013.000000,1649344878.233337,0.000000,0.000000,1.000000,0.000000,0.000000,0.000000,0.000000,4.464537,7.361274,0.051825
1649344878.335804,8014.000000,1649344878.334670,0.000000,0.000000,1.000000,0.000000,0.000000,0.000000,0.000000,4.467797,7.357423,0.035542
1649344878.434616,8015.000000,1649344878.434062,0.000000,0.000000,1.000000,0.000000,0.000000,0.000000,0.000000,4.474050,7.350610,-0.003411
1649344878.534009,8016.000000,1649344878.533032,0.000000,0.000000,1.000000,0.000000,0.000000,0.000000,0.000000,4.482028,7.344285,-0.056797
1649344878.634329,8017.000000,1649344878.633474,0.000000,0.000000,1.000000,0.000000,0.000000,0.000000,0.000000,4.490528,7.338434,-0.102176
1649344878.733389,8018.000000,1649344878.732966,0.000000,0.000000,1.000000,0.000000,0.000000,0.000000,0.000000,4.487509,7.340675,-0.110770
1649344878.833443,8019.000000,1649344878.833059,0.000000,0.000000,1.000000,0.000000,0.000000,0.000000,0.000000,4.488882,7.339647,-0.141317
1649344878.932647,8020.000000,1649344878.932404,0.000000,0.000000,1.000000,0.000000,0.000000,0.000000,0.000000,4.482416,7.343158,-0.139666
1649344879.033225,8021.000000,1649344879.032889,0.000000,0.000000,1.000000,0.000000,0.000000,0.000000,0.000000,4.480562,7.343310,-0.149873
1649344879.133450,8022.000000,1649344879.133039,0.000000,0.000000,1.000000,0.000000,0.000000,0.000000,0.000000,4.483078,7.340280,-0.181940
1649344879.234176,8023.000000,1649344879.233652,0.000000,0.000000,1.000000,0.000000,0.000000,0.000000,0.000000,4.476641,7.344057,-0.182524
1649344879.335844,8024.000000,1649344879.335219,0.000000,0.000000,1.000000,0.000000,0.000000,0.000000,0.000000,4.473758,7.345531,-0.183554
1649344879.434910,8025.000000,1649344879.434534,0.000000,0.000000,1.000000,0.000000,0.000000,0.000000,0.000000,4.475338,7.344817,-0.205992
1649344879.534254,8026.000000,1649344879.533562,0.000000,0.000000,1.000000,0.000000,0.000000,0.000000,0.000000,4.468052,7.349666,-0.201370
1649344879.633274,8027.000000,1649344879.632941,0.000000,0.000000,1.000000,0.000000,0.000000,0.000000,0.000000,4.464403,7.351032,-0.187737
1649344879.734558,8028.000000,1649344879.733973,0.000000,0.000000,1.000000,0.000000,0.000000,0.000000,0.000000,4.453303,7.358910,-0.155815
1649344879.833329,8029.000000,1649344879.833006,0.000000,0.000000,1.000000,0.000000,0.000000,0.000000,0.000000,4.447188,7.363105,-0.104794
1649344879.933216,8030.000000,1649344879.932830,0.000000,0.000000,1.000000,0.000000,0.000000,0.000000,0.000000,4.445804,7.365985,-0.050057
1649344880.032603,8031.000000,1649344880.032272,0.000000,0.000000,1.000000,0.000000,0.000000,0.000000,0.000000,4.447806,7.365431,-0.033788
1649344880.135936,8032.000000,1649344880.134701,0.000000,0.000000,1.000000,0.000000,0.000000,0.000000,0.000000,4.450819,7.362722,-0.028657
1649344880.232739,8033.000000,1649344880.232518,0.000000,0.000000,1.000000,0.000000,0.000000,0.000000,0.000000,4.454778,7.359076,-0.050354
1649344880.332436,8034.000000,1649344880.332203,0.000000,0.000000,1.000000,0.000000,0.000000,0.000000,0.000000,4.460708,7.354553,-0.092116
1649344880.433800,8035.000000,1649344880.433326,0.000000,0.000000,1.000000,0.000000,0.000000,0.000000,0.000000,4.457578,7.357939,-0.099031
1649344880.533232,8036.000000,1649344880.532959,0.000000,0.000000,1.000000,0.000000,0.000000,0.000000,0.000000,4.456797,7.358977,-0.129755
1649344880.635027,8037.000000,1649344880.634337,0.000000,0.000000,1.000000,0.000000,0.000000,0.000000,0.000000,4.458239,7.358880,-0.163925
1649344880.733514,8038.000000,1649344880.733150,0.000000,0.000000,1.000000,0.000000,0.000000,0.000000,0.000000,4.450874,7.365344,-0.165868
1649344880.834217,8039.000000,1649344880.832923,0.000000,0.000000,1.000000,0.000000,0.000000,0.000000,0.000000,4.448291,7.368175,-0.139307
1649344880.934289,8040.000000,1649344880.933599,0.000000,0.000000,1.000000,0.000000,0.000000,0.000000,0.000000,4.449146,7.367564,-0.142702
1649344881.035522,8041.000000,1649344881.034669,0.000000,0.000000,1.000000,0.000000,0.000000,0.000000,0.000000,4.453247,7.365881,-0.168394
1649344881.132459,8042.000000,1649344881.132240,0.000000,0.000000,1.000000,0.000000,0.000000,0.000000,0.000000,4.460403,7.361011,-0.210610
1649344881.236367,8043.000000,1649344881.235648,0.000000,0.000000,1.000000,0.000000,0.000000,0.000000,0.000000,4.467154,7.356414,-0.246038
1649344881.334297,8044.000000,1649344881.333912,0.000000,0.000000,1.000000,0.000000,0.000000,0.000000,0.000000,4.463688,7.358631,-0.249902
1649344881.433521,8045.000000,1649344881.433057,0.000000,0.000000,1.000000,0.000000,0.000000,0.000000,0.000000,4.463659,7.358561,-0.275094
1649344881.535810,8046.000000,1649344881.535200,0.000000,0.000000,1.000000,0.000000,0.000000,0.000000,0.000000,4.465791,7.356326,-0.315884
1649344881.633010,8047.000000,1649344881.632651,0.000000,0.000000,1.000000,0.000000,0.000000,0.000000,0.000000,4.469961,7.352051,-0.344169
1649344881.735912,8048.000000,1649344881.735111,0.000000,0.000000,1.000000,0.000000,0.000000,0.000000,0.000000,4.464052,7.354583,-0.337034
1649344881.833750,8049.000000,1649344881.833132,0.000000,0.000000,1.000000,0.000000,0.000000,0.000000,0.000000,4.451904,7.362451,-0.307225
1649344881.934511,8050.000000,1649344881.933583,0.000000,0.000000,1.000000,0.000000,0.000000,0.000000,0.000000,4.446982,7.366615,-0.271046
1649344882.033223,8051.000000,1649344882.033015,0.000000,0.000000,1.000000,0.000000,0.000000,0.000000,0.000000,4.444545,7.367264,-0.213505
1649344882.133659,8052.000000,1649344882.132993,0.000000,0.000000,1.000000,0.000000,0.000000,0.000000,0.000000,4.444463,7.365678,-0.192830
1649344882.233922,8053.000000,1649344882.233626,0.000000,0.000000,1.000000,0.000000,0.000000,0.000000,0.000000,4.436792,7.370709,-0.154349
1649344882.337982,8054.000000,1649344882.337226,0.000000,0.000000,1.000000,0.000000,0.000000,0.000000,0.000000,4.424148,7.380891,-0.141590
1649344882.436216,8055.000000,1649344882.435032,0.000000,0.000000,1.000000,0.000000,0.000000,0.000000,0.000000,4.416652,7.386099,-0.126121
1649344882.534819,8056.000000,1649344882.533942,0.000000,0.000000,1.000000,0.000000,0.000000,0.000000,0.000000,4.411860,7.388771,-0.090335
1649344882.633162,8057.000000,1649344882.632923,0.000000,0.000000,1.000000,0.000000,0.000000,0.000000,0.000000,4.402001,7.396675,-0.079464
1649344882.736088,8058.000000,1649344882.735291,0.000000,0.000000,1.000000,0.000000,0.000000,0.000000,0.000000,4.400460,7.401871,-0.041714
1649344882.833824,8059.000000,1649344882.833487,0.000000,0.000000,1.000000,0.000000,0.000000,0.000000,0.000000,4.402418,7.402317,-0.001613
1649344882.934445,8060.000000,1649344882.933857,0.000000,0.000000,1.000000,0.000000,0.000000,0.000000,0.000000,4.407671,7.400455,0.021325
1649344883.032635,8061.000000,1649344883.032450,0.000000,0.000000,1.000000,0.000000,0.000000,0.000000,0.000000,4.414923,7.396425,0.011636
1649344883.135319,8062.000000,1649344883.134876,0.000000,0.000000,1.000000,0.000000,0.000000,0.000000,0.000000,4.422948,7.390360,-0.020468
1649344883.235677,8063.000000,1649344883.235141,0.000000,0.000000,1.000000,0.000000,0.000000,0.000000,0.000000,4.429492,7.383487,-0.059504
1649344883.333756,8064.000000,1649344883.333414,0.000000,0.000000,1.000000,0.000000,0.000000,0.000000,0.000000,4.437884,7.375873,-0.094635
1649344883.434239,8065.000000,1649344883.433748,0.000000,0.000000,1.000000,0.000000,0.000000,0.000000,0.000000,4.436001,7.375218,-0.094504
1649344883.534535,8066.000000,1649344883.533699,0.000000,0.000000,1.000000,0.000000,0.000000,0.000000,0.000000,4.437494,7.372420,-0.108112
1649344883.633569,8067.000000,1649344883.633328,0.000000,0.000000,1.000000,0.000000,0.000000,0.000000,0.000000,4.441084,7.368696,-0.117945
1649344883.733168,8068.000000,1649344883.732857,0.000000,0.000000,1.000000,0.000000,0.000000,0.000000,0.000000,4.447735,7.363016,-0.148333
1649344883.834712,8069.000000,1649344883.833923,0.000000,0.000000,1.000000,0.000000,0.000000,0.000000,0.000000,4.455081,7.356595,-0.192752
1649344883.932925,8070.000000,1649344883.932661,0.000000,0.000000,1.000000,0.000000,0.000000,0.000000,0.000000,4.465242,7.349490,-0.227981
1649344884.034822,8071.000000,1649344884.034391,0.000000,0.000000,1.000000,0.000000,0.000000,0.000000,0.000000,4.474766,7.341758,-0.275307
1649344884.133463,8072.000000,1649344884.133199,0.000000,0.000000,1.000000,0.000000,0.000000,0.000000,0.000000,4.476029,7.343267,-0.278524
1649344884.235017,8073.000000,1649344884.234572,0.000000,0.000000,1.000000,0.000000,0.000000,0.000000,0.000000,4.480387,7.342599,-0.295060
1649344884.335479,8074.000000,1649344884.334489,0.000000,0.000000,1.000000,0.000000,0.000000,0.000000,0.000000,4.485485,7.342050,-0.325975
1649344884.438110,8075.000000,1649344884.437564,0.000000,0.000000,1.000000,0.000000,0.000000,0.000000,0.000000,4.490180,7.342701,-0.363390
1649344884.535818,8076.000000,1649344884.535066,0.000000,0.000000,1.000000,0.000000,0.000000,0.000000,0.000000,4.494488,7.342300,-0.411832
1649344884.636277,8077.000000,1649344884.634926,0.000000,0.000000,1.000000,0.000000,0.000000,0.000000,0.000000,4.499515,7.343081,-0.462726
1649344884.732602,8078.000000,1649344884.732278,0.000000,0.000000,1.000000,0.000000,0.000000,0.000000,0.000000,4.505213,7.343884,-0.519937
1649344884.833423,8079.000000,1649344884.832832,0.000000,0.000000,1.000000,0.000000,0.000000,0.000000,0.000000,4.509355,7.344700,-0.580714
1649344884.933562,8080.000000,1649344884.933136,0.000000,0.000000,1.000000,0.000000,0.000000,0.000000,0.000000,4.505480,7.354247,-0.590803
1649344885.032606,8081.000000,1649344885.032427,0.000000,0.000000,1.000000,0.000000,0.000000,0.000000,0.000000,4.503858,7.362202,-0.566775
1649344885.133842,8082.000000,1649344885.133275,0.000000,0.000000,1.000000,0.000000,0.000000,0.000000,0.000000,4.506563,7.368626,-0.519748
1649344885.233731,8083.000000,1649344885.233068,0.000000,0.000000,1.000000,0.000000,0.000000,0.000000,0.000000,4.501361,7.381215,-0.501561
1649344885.333283,8084.000000,1649344885.332706,0.000000,0.000000,1.000000,0.000000,0.000000,0.000000,0.000000,4.499611,7.390872,-0.453844
1649344885.432958,8085.000000,1649344885.432623,0.000000,0.000000,1.000000,0.000000,0.000000,0.000000,0.000000,4.500047,7.397731,-0.389983
1649344885.533696,8086.000000,1649344885.533009,0.000000,0.000000,1.000000,0.000000,0.000000,0.000000,0.000000,4.501462,7.401927,-0.315589
1649344885.633814,8087.000000,1649344885.633490,0.000000,0.000000,1.000000,0.000000,0.000000,0.000000,0.000000,4.504895,7.404688,-0.230415
1649344885.735712,8088.000000,1649344885.735305,0.000000,0.000000,1.000000,0.000000,0.000000,0.000000,0.000000,4.508048,7.406092,-0.139881
1649344885.834634,8089.000000,1649344885.833797,0.000000,0.000000,1.000000,0.000000,0.000000,0.000000,0.000000,4.502210,7.413847,-0.096774
1649344885.936059,8090.000000,1649344885.935510,0.000000,0.000000,1.000000,0.000000,0.000000,0.000000,0.000000,4.500978,7.418865,-0.040373
1649344886.033266,8091.000000,1649344886.032827,0.000000,0.000000,1.000000,0.000000,0.000000,0.000000,0.000000,4.501930,7.422379,0.026282
1649344886.132250,8092.000000,1649344886.132000,0.000000,0.000000,1.000000,0.000000,0.000000,0.000000,0.000000,4.503855,7.425558,0.097842
1649344886.232936,8093.000000,1649344886.232749,0.000000,0.000000,1.000000,0.000000,0.000000,0.000000,0.000000,4.500158,7.427328,0.158686
1649344886.332872,8094.000000,1649344886.332655,0.000000,0.000000,1.000000,0.000000,0.000000,0.000000,0.000000,4.500973,7.428858,0.222875
1649344886.432510,8095.000000,1649344886.432261,0.000000,0.000000,1.000000,0.000000,0.000000,0.000000,0.000000,4.502783,7.429076,0.293420
1649344886.533638,8096.000000,1649344886.533195,0.000000,0.000000,1.000000,0.000000,0.000000,0.000000,0.000000,4.506622,7.429150,0.365138
1649344886.636258,8097.000000,1649344886.635300,0.000000,0.000000,1.000000,0.000000,0.000000,0.000000,0.000000,4.512370,7.429095,0.432247
1649344886.733478,8098.000000,1649344886.732995,0.000000,0.000000,1.000000,0.000000,0.000000,0.000000,0.000000,4.509005,7.434378,0.450505
1649344886.833867,8099.000000,1649344886.832849,0.000000,0.000000,1.000000,0.000000,0.000000,0.000000,0.000000,4.509033,7.435975,0.479954
1649344886.935402,8100.000000,1649344886.934502,0.000000,0.000000,1.000000,0.000000,0.000000,0.000000,0.000000,4.511181,7.436270,0.520942
1649344887.032778,8101.000000,1649344887.032584,0.000000,0.000000,1.000000,0.000000,0.000000,0.000000,0.000000,4.504428,7.441883,0.518942
1649344887.132654,8102.000000,1649344887.132370,0.000000,0.000000,1.000000,0.000000,0.000000,0.000000,0.000000,4.500186,7.443789,0.533798
1649344887.233177,8103.000000,1649344887.232774,0.000000,0.000000,1.000000,0.000000,0.000000,0.000000,0.000000,4.488522,7.450915,0.518072
1649344887.332255,8104.000000,1649344887.332095,0.000000,0.000000,1.000000,0.000000,0.000000,0.000000,0.000000,4.472057,7.460782,0.477902
1649344887.433331,8105.000000,1649344887.432976,0.000000,0.000000,1.000000,0.000000,0.000000,0.000000,0.000000,4.462009,7.465583,0.456313
1649344887.532552,8106.000000,1649344887.532331,0.000000,0.000000,1.000000,0.000000,0.000000,0.000000,0.000000,4.447151,7.473223,0.413111
1649344887.632987,8107.000000,1649344887.632609,0.000000,0.000000,1.000000,0.000000,0.000000,0.000000,0.000000,4.428877,7.484623,0.350881
1649344887.734424,8108.000000,1649344887.733991,0.000000,0.000000,1.000000,0.000000,0.000000,0.000000,0.000000,4.419418,7.488649,0.310845
1649344887.834034,8109.000000,1649344887.833623,0.000000,0.000000,1.000000,0.000000,0.000000,0.000000,0.000000,4.405227,7.496606,0.253487
1649344887.933012,8110.000000,1649344887.932554,0.000000,0.000000,1.000000,0.000000,0.000000,0.000000,0.000000,4.398590,7.498454,0.224779
1649344888.032782,8111.000000,1649344888.032609,0.000000,0.000000,1.000000,0.000000,0.000000,0.000000,0.000000,4.388198,7.504345,0.176046
1649344888.136958,8112.000000,1649344888.136151,0.000000,0.000000,1.000000,0.000000,0.000000,0.000000,0.000000,4.374274,7.512964,0.113026
1649344888.234671,8113.000000,1649344888.234205,0.000000,0.000000,1.000000,0.000000,0.000000,0.000000,0.000000,4.359220,7.523057,0.042051
1649344888.335946,8114.000000,1649344888.334882,0.000000,0.000000,1.000000,0.000000,0.000000,0.000000,0.000000,4.342038,7.532345,-0.031598
1649344888.433209,8115.000000,1649344888.432884,0.000000,0.000000,1.000000,0.000000,0.000000,0.000000,0.000000,4.335964,7.534315,-0.074628
1649344888.536938,8116.000000,1649344888.536116,0.000000,0.000000,1.000000,0.000000,0.000000,0.000000,0.000000,4.327306,7.539188,-0.130953
1649344888.633059,8117.000000,1649344888.632672,0.000000,0.000000,1.000000,0.000000,0.000000,0.000000,0.000000,4.317303,7.545715,-0.196727
1649344888.736615,8118.000000,1649344888.735853,0.000000,0.000000,1.000000,0.000000,0.000000,0.000000,0.000000,4.315851,7.546169,-0.228733
1649344888.832367,8119.000000,1649344888.832205,0.000000,0.000000,1.000000,0.000000,0.000000,0.000000,0.000000,4.320287,7.541984,-0.227489
1649344888.934544,8120.000000,1649344888.933472,0.000000,0.000000,1.000000,0.000000,0.000000,0.000000,0.000000,4.319353,7.542164,-0.250006
1649344889.033085,8121.000000,1649344889.032878,0.000000,0.000000,1.000000,0.000000,0.000000,0.000000,0.000000,4.314414,7.546484,-0.288049
1649344889.133231,8122.000000,1649344889.132504,0.000000,0.000000,1.000000,0.000000,0.000000,0.000000,0.000000,4.306778,7.553626,-0.332885
1649344889.233207,8123.000000,1649344889.232957,0.000000,0.000000,1.000000,0.000000,0.000000,0.000000,0.000000,4.307501,7.552522,-0.348703
1649344889.333255,8124.000000,1649344889.332896,0.000000,0.000000,1.000000,0.000000,0.000000,0.000000,0.000000,4.313928,7.548000,-0.331831
1649344889.432251,8125.000000,1649344889.432055,0.000000,0.000000,1.000000,0.000000,0.000000,0.000000,0.000000,4.324621,7.540272,-0.311061
1649344889.534613,8126.000000,1649344889.533773,0.000000,0.000000,1.000000,0.000000,0.000000,0.000000,0.000000,4.328394,7.537180,-0.316447
1649344889.633713,8127.000000,1649344889.633288,0.000000,0.000000,1.000000,0.000000,0.000000,0.000000,0.000000,4.328872,7.537400,-0.342108
1649344889.737320,8128.000000,1649344889.736191,0.000000,0.000000,1.000000,0.000000,0.000000,0.000000,0.000000,4.326223,7.539667,-0.383170
1649344889.833148,8129.000000,1649344889.832756,0.000000,0.000000,1.000000,0.000000,0.000000,0.000000,0.000000,4.331519,7.535146,-0.395415
1649344889.934241,8130.000000,1649344889.933620,0.000000,0.000000,1.000000,0.000000,0.000000,0.000000,0.000000,4.341030,7.527500,-0.380814
1649344890.032931,8131.000000,1649344890.032772,0.000000,0.000000,1.000000,0.000000,0.000000,0.000000,0.000000,4.353398,7.516929,-0.354206
1649344890.136224,8132.000000,1649344890.135184,0.000000,0.000000,1.000000,0.000000,0.000000,0.000000,0.000000,4.367332,7.504720,-0.312916
1649344890.235046,8133.000000,1649344890.234360,0.000000,0.000000,1.000000,0.000000,0.000000,0.000000,0.000000,4.383790,7.492093,-0.264074
1649344890.332769,8134.000000,1649344890.332448,0.000000,0.000000,1.000000,0.000000,0.000000,0.000000,0.000000,4.400400,7.476929,-0.238728
1649344890.435244,8135.000000,1649344890.434845,0.000000,0.000000,1.000000,0.000000,0.000000,0.000000,0.000000,4.417106,7.460502,-0.241630
1649344890.536405,8136.000000,1649344890.535155,0.000000,0.000000,1.000000,0.000000,0.000000,0.000000,0.000000,4.432763,7.444018,-0.245031
1649344890.636033,8137.000000,1649344890.635058,0.000000,0.000000,1.000000,0.000000,0.000000,0.000000,0.000000,4.448478,7.426432,-0.270687
1649344890.737066,8138.000000,1649344890.736358,0.000000,0.000000,1.000000,0.000000,0.000000,0.000000,0.000000,4.463118,7.410032,-0.288634
1649344890.833843,8139.000000,1649344890.833558,0.000000,0.000000,1.000000,0.000000,0.000000,0.000000,0.000000,4.475619,7.393700,-0.303193
1649344890.935528,8140.000000,1649344890.934023,0.000000,0.000000,1.000000,0.000000,0.000000,0.000000,0.000000,4.488252,7.377469,-0.314487
1649344891.033086,8141.000000,1649344891.032622,0.000000,0.000000,1.000000,0.000000,0.000000,0.000000,0.000000,4.500986,7.362457,-0.342800
1649344891.134552,8142.000000,1649344891.134186,0.000000,0.000000,1.000000,0.000000,0.000000,0.000000,0.000000,4.513794,7.346445,-0.376927
1649344891.233078,8143.000000,1649344891.232862,0.000000,0.000000,1.000000,0.000000,0.000000,0.000000,0.000000,4.524468,7.332789,-0.423038
1649344891.334018,8144.000000,1649344891.333642,0.000000,0.000000,1.000000,0.000000,0.000000,0.000000,0.000000,4.523298,7.329012,-0.433007
1649344891.432821,8145.000000,1649344891.432572,0.000000,0.000000,1.000000,0.000000,0.000000,0.000000,0.000000,4.514225,7.331294,-0.413129
1649344891.532927,8146.000000,1649344891.532597,0.000000,0.000000,1.000000,0.000000,0.000000,0.000000,0.000000,4.509721,7.331642,-0.367884
1649344891.633993,8147.000000,1649344891.633555,0.000000,0.000000,1.000000,0.000000,0.000000,0.000000,0.000000,4.508477,7.329048,-0.354033
1649344891.733046,8148.000000,1649344891.732779,0.000000,0.000000,1.000000,0.000000,0.000000,0.000000,0.000000,4.509245,7.325841,-0.363892
1649344891.832922,8149.000000,1649344891.832679,0.000000,0.000000,1.000000,0.000000,0.000000,0.000000,0.000000,4.511926,7.322046,-0.375532
1649344891.936921,8150.000000,1649344891.936472,0.000000,0.000000,1.000000,0.000000,0.000000,0.000000,0.000000,4.516420,7.316597,-0.388065
1649344892.034661,8151.000000,1649344892.033737,0.000000,0.000000,1.000000,0.000000,0.000000,0.000000,0.000000,4.520447,7.311763,-0.391767
1649344892.134640,8152.000000,1649344892.133952,0.000000,0.000000,1.000000,0.000000,0.000000,0.000000,0.000000,4.526213,7.306417,-0.411191
1649344892.235837,8153.000000,1649344892.235128,0.000000,0.000000,1.000000,0.000000,0.000000,0.000000,0.000000,4.531436,7.300587,-0.432779
1649344892.334724,8154.000000,1649344892.333875,0.000000,0.000000,1.000000,0.000000,0.000000,0.000000,0.000000,4.536144,7.295389,-0.451580
1649344892.436582,8155.000000,1649344892.435658,0.000000,0.000000,1.000000,0.000000,0.000000,0.000000,0.000000,4.542544,7.290787,-0.483816
1649344892.533720,8156.000000,1649344892.533371,0.000000,0.000000,1.000000,0.000000,0.000000,0.000000,0.000000,4.548356,7.286744,-0.514389
1649344892.633488,8157.000000,1649344892.632916,0.000000,0.000000,1.000000,0.000000,0.000000,0.000000,0.000000,4.543793,7.290858,-0.505426
1649344892.733432,8158.000000,1649344892.733104,0.000000,0.000000,1.000000,0.000000,0.000000,0.000000,0.000000,4.541445,7.292841,-0.501294
1649344892.836914,8159.000000,1649344892.836044,0.000000,0.000000,1.000000,0.000000,0.000000,0.000000,0.000000,4.541210,7.293877,-0.506659
1649344892.935386,8160.000000,1649344892.934581,0.000000,0.000000,1.000000,0.000000,0.000000,0.000000,0.000000,4.541894,7.294000,-0.527597
1649344893.032522,8161.000000,1649344893.032250,0.000000,0.000000,1.000000,0.000000,0.000000,0.000000,0.000000,4.543457,7.293246,-0.548942
1649344893.133129,8162.000000,1649344893.132626,0.000000,0.000000,1.000000,0.000000,0.000000,0.000000,0.000000,4.544764,7.292742,-0.566624
1649344893.234202,8163.000000,1649344893.233810,0.000000,0.000000,1.000000,0.000000,0.000000,0.000000,0.000000,4.536023,7.300097,-0.542874
1649344893.332263,8164.000000,1649344893.332088,0.000000,0.000000,1.000000,0.000000,0.000000,0.000000,0.000000,4.521088,7.313759,-0.491516
1649344893.432960,8165.000000,1649344893.432641,0.000000,0.000000,1.000000,0.000000,0.000000,0.000000,0.000000,4.513436,7.324607,-0.425860
1649344893.532953,8166.000000,1649344893.532654,0.000000,0.000000,1.000000,0.000000,0.000000,0.000000,0.000000,4.499614,7.340388,-0.395798
1649344893.634396,8167.000000,1649344893.633881,0.000000,0.000000,1.000000,0.000000,0.000000,0.000000,0.000000,4.491998,7.350965,-0.355596
1649344893.734054,8168.000000,1649344893.733806,0.000000,0.000000,1.000000,0.000000,0.000000,0.000000,0.000000,4.478280,7.364220,-0.341217
1649344893.833705,8169.000000,1649344893.833364,0.000000,0.000000,1.000000,0.000000,0.000000,0.000000,0.000000,4.459925,7.379966,-0.341161
1649344893.935213,8170.000000,1649344893.934527,0.000000,0.000000,1.000000,0.000000,0.000000,0.000000,0.000000,4.449233,7.389299,-0.310494
1649344894.036417,8171.000000,1649344894.036107,0.000000,0.000000,1.000000,0.000000,0.000000,0.000000,0.000000,4.443633,7.393635,-0.256147
1649344894.135072,8172.000000,1649344894.134345,0.000000,0.000000,1.000000,0.000000,0.000000,0.000000,0.000000,4.442856,7.394330,-0.183999
1649344894.234133,8173.000000,1649344894.233541,0.000000,0.000000,1.000000,0.000000,0.000000,0.000000,0.000000,4.433548,7.399220,-0.104563
1649344894.334772,8174.000000,1649344894.334528,0.000000,0.000000,1.000000,0.000000,0.000000,0.000000,0.000000,4.419467,7.409160,-0.067447
1649344894.436020,8175.000000,1649344894.435003,0.000000,0.000000,1.000000,0.000000,0.000000,0.000000,0.000000,4.411810,7.414038,-0.020185
1649344894.536512,8176.000000,1649344894.535582,0.000000,0.000000,1.000000,0.000000,0.000000,0.000000,0.000000,4.409149,7.414122,0.026269
1649344894.634300,8177.000000,1649344894.633847,0.000000,0.000000,1.000000,0.000000,0.000000,0.000000,0.000000,4.400305,7.419497,0.088019
1649344894.735403,8178.000000,1649344894.734430,0.000000,0.000000,1.000000,0.000000,0.000000,0.000000,0.000000,4.397623,7.420054,0.157917
1649344894.833738,8179.000000,1649344894.833206,0.000000,0.000000,1.000000,0.000000,0.000000,0.000000,0.000000,4.398582,7.418243,0.221834
1649344894.933885,8180.000000,1649344894.933512,0.000000,0.000000,1.000000,0.000000,0.000000,0.000000,0.000000,4.404059,7.413118,0.258965
1649344895.033030,8181.000000,1649344895.032774,0.000000,0.000000,1.000000,0.000000,0.000000,0.000000,0.000000,4.400694,7.414696,0.306653
1649344895.132813,8182.000000,1649344895.132602,0.000000,0.000000,1.000000,0.000000,0.000000,0.000000,0.000000,4.392239,7.420435,0.316846
1649344895.232369,8183.000000,1649344895.232203,0.000000,0.000000,1.000000,0.000000,0.000000,0.000000,0.000000,4.389893,7.421372,0.344301
1649344895.333319,8184.000000,1649344895.332629,0.000000,0.000000,1.000000,0.000000,0.000000,0.000000,0.000000,4.392227,7.418865,0.372991
1649344895.435519,8185.000000,1649344895.434365,0.000000,0.000000,1.000000,0.000000,0.000000,0.000000,0.000000,4.398969,7.414205,0.386725
1649344895.533747,8186.000000,1649344895.533122,0.000000,0.000000,1.000000,0.000000,0.000000,0.000000,0.000000,4.406576,7.407532,0.383701
1649344895.633562,8187.000000,1649344895.633273,0.000000,0.000000,1.000000,0.000000,0.000000,0.000000,0.000000,4.406246,7.407704,0.395281
1649344895.733164,8188.000000,1649344895.732826,0.000000,0.000000,1.000000,0.000000,0.000000,0.000000,0.000000,4.409310,7.405627,0.409603
1649344895.833435,8189.000000,1649344895.832946,0.000000,0.000000,1.000000,0.000000,0.000000,0.000000,0.000000,4.414476,7.406887,0.441889
1649344895.933699,8190.000000,1649344895.933329,0.000000,0.000000,1.000000,0.000000,0.000000,0.000000,0.000000,4.422700,7.404758,0.461556
1649344896.036163,8191.000000,1649344896.035049,0.000000,0.000000,1.000000,0.000000,0.000000,0.000000,0.000000,4.432694,7.399435,0.467500
1649344896.134011,8192.000000,1649344896.133384,0.000000,0.000000,1.000000,0.000000,0.000000,0.000000,0.000000,4.442148,7.392199,0.439333
1649344896.235288,8193.000000,1649344896.234573,0.000000,0.000000,1.000000,0.000000,0.000000,0.000000,0.000000,4.452151,7.384271,0.386575
1649344896.336607,8194.000000,1649344896.335914,0.000000,0.000000,1.000000,0.000000,0.000000,0.000000,0.000000,4.462644,7.375713,0.317595
1649344896.436816,8195.000000,1649344896.436067,0.000000,0.000000,1.000000,0.000000,0.000000,0.000000,0.000000,4.473569,7.367674,0.256577
1649344896.539130,8196.000000,1649344896.538155,0.000000,0.000000,1.000000,0.000000,0.000000,0.000000,0.000000,4.473971,7.366692,0.229130
1649344896.634843,8197.000000,1649344896.633893,0.000000,0.000000,1.000000,0.000000,0.000000,0.000000,0.000000,4.476422,7.363656,0.196057
1649344896.735359,8198.000000,1649344896.734488,0.000000,0.000000,1.000000,0.000000,0.000000,0.000000,0.000000,4.470996,7.366317,0.191526
1649344896.833250,8199.000000,1649344896.832870,0.000000,0.000000,1.000000,0.000000,0.000000,0.000000,0.000000,4.460325,7.375443,0.163594
1649344896.935029,8200.000000,1649344896.934329,0.000000,0.000000,1.000000,0.000000,0.000000,0.000000,0.000000,4.455639,7.379744,0.145519
1649344897.032209,8201.000000,1649344897.032041,0.000000,0.000000,1.000000,0.000000,0.000000,0.000000,0.000000,4.455538,7.381648,0.136135
1649344897.133126,8202.000000,1649344897.132652,0.000000,0.000000,1.000000,0.000000,0.000000,0.000000,0.000000,4.458684,7.381280,0.140755
1649344897.236034,8203.000000,1649344897.235355,0.000000,0.000000,1.000000,0.000000,0.000000,0.000000,0.000000,4.462712,7.378763,0.130586
1649344897.335596,8204.000000,1649344897.334683,0.000000,0.000000,1.000000,0.000000,0.000000,0.000000,0.000000,4.458840,7.381854,0.141728
1649344897.434077,8205.000000,1649344897.433289,0.000000,0.000000,1.000000,0.000000,0.000000,0.000000,0.000000,4.458416,7.381514,0.157177
1649344897.535137,8206.000000,1649344897.534812,0.000000,0.000000,1.000000,0.000000,0.000000,0.000000,0.000000,4.461257,7.379021,0.140447
1649344897.632439,8207.000000,1649344897.632261,0.000000,0.000000,1.000000,0.000000,0.000000,0.000000,0.000000,4.466087,7.374500,0.117867
1649344897.733338,8208.000000,1649344897.733011,0.000000,0.000000,1.000000,0.000000,0.000000,0.000000,0.000000,4.473875,7.366983,0.077618
1649344897.833045,8209.000000,1649344897.832753,0.000000,0.000000,1.000000,0.000000,0.000000,0.000000,0.000000,4.482257,7.359927,0.034190
1649344897.932984,8210.000000,1649344897.932664,0.000000,0.000000,1.000000,0.000000,0.000000,0.000000,0.000000,4.490088,7.352236,-0.023506
1649344898.033120,8211.000000,1649344898.032823,0.000000,0.000000,1.000000,0.000000,0.000000,0.000000,0.000000,4.487567,7.353778,-0.048833
1649344898.132613,8212.000000,1649344898.132405,0.000000,0.000000,1.000000,0.000000,0.000000,0.000000,0.000000,4.488355,7.352045,-0.076935
1649344898.235397,8213.000000,1649344898.234584,0.000000,0.000000,1.000000,0.000000,0.000000,0.000000,0.000000,4.481371,7.358122,-0.071369
1649344898.334156,8214.000000,1649344898.333407,0.000000,0.000000,1.000000,0.000000,0.000000,0.000000,0.000000,4.469249,7.370467,-0.090774
1649344898.432569,8215.000000,1649344898.432173,0.000000,0.000000,1.000000,0.000000,0.000000,0.000000,0.000000,4.463212,7.378885,-0.089764
1649344898.535918,8216.000000,1649344898.534930,0.000000,0.000000,1.000000,0.000000,0.000000,0.000000,0.000000,4.462951,7.383561,-0.069177
1649344898.633541,8217.000000,1649344898.633311,0.000000,0.000000,1.000000,0.000000,0.000000,0.000000,0.000000,4.456157,7.394499,-0.080653
1649344898.734213,8218.000000,1649344898.733249,0.000000,0.000000,1.000000,0.000000,0.000000,0.000000,0.000000,4.444299,7.408053,-0.114020
1649344898.833469,8219.000000,1649344898.833179,0.000000,0.000000,1.000000,0.000000,0.000000,0.000000,0.000000,4.438592,7.415319,-0.121573
1649344898.936090,8220.000000,1649344898.935080,0.000000,0.000000,1.000000,0.000000,0.000000,0.000000,0.000000,4.435446,7.418802,-0.114030
1649344899.034258,8221.000000,1649344899.033869,0.000000,0.000000,1.000000,0.000000,0.000000,0.000000,0.000000,4.436907,7.418706,-0.102507
1649344899.133877,8222.000000,1649344899.133052,0.000000,0.000000,1.000000,0.000000,0.000000,0.000000,0.000000,4.440535,7.417411,-0.081549
1649344899.233531,8223.000000,1649344899.233218,0.000000,0.000000,1.000000,0.000000,0.000000,0.000000,0.000000,4.436382,7.422628,-0.041097
1649344899.334911,8224.000000,1649344899.334339,0.000000,0.000000,1.000000,0.000000,0.000000,0.000000,0.000000,4.427065,7.432900,-0.039272
1649344899.435000,8225.000000,1649344899.434134,0.000000,0.000000,1.000000,0.000000,0.000000,0.000000,0.000000,4.423794,7.439203,-0.016460
1649344899.537306,8226.000000,1649344899.536494,0.000000,0.000000,1.000000,0.000000,0.000000,0.000000,0.000000,4.424063,7.441741,0.013549
1649344899.634207,8227.000000,1649344899.633831,0.000000,0.000000,1.000000,0.000000,0.000000,0.000000,0.000000,4.426584,7.441811,0.050410
1649344899.735541,8228.000000,1649344899.734667,0.000000,0.000000,1.000000,0.000000,0.000000,0.000000,0.000000,4.430131,7.438465,0.084915
