__time,/dwm1001/id_458E/pose_kf/header/seq,/dwm1001/id_458E/pose_kf/header/stamp,/dwm1001/id_458E/pose_kf/pose/orientation/pitch_deg,/dwm1001/id_458E/pose_kf/pose/orientation/roll_deg,/dwm1001/id_458E/pose_kf/pose/orientation/w,/dwm1001/id_458E/pose_kf/pose/orientation/x,/dwm1001/id_458E/pose_kf/pose/orientation/y,/dwm1001/id_458E/pose_kf/pose/orientation/yaw_deg,/dwm1001/id_458E/pose_kf/pose/orientation/z,/dwm1001/id_458E/pose_kf/pose/position/x,/dwm1001/id_458E/pose_kf/pose/position/y,/dwm1001/id_458E/pose_kf/pose/position/z
1649345352.534419,12756.000000,1649345352.533517,0.000000,0.000000,1.000000,0.000000,0.000000,0.000000,0.000000,7.129469,12.233997,0.537309
1649345352.636870,12757.000000,1649345352.636063,0.000000,0.000000,1.000000,0.000000,0.000000,0.000000,0.000000,7.119856,12.243497,0.490426
1649345352.732860,12758.000000,1649345352.732635,0.000000,0.000000,1.000000,0.000000,0.000000,0.000000,0.000000,7.106427,12.257957,0.424625
1649345352.837267,12759.000000,1649345352.836695,0.000000,0.000000,1.000000,0.000000,0.000000,0.000000,0.000000,7.093793,12.272699,0.353678
1649345352.934534,12760.000000,1649345352.933871,0.000000,0.000000,1.000000,0.000000,0.000000,0.000000,0.000000,7.087398,12.280029,0.316610
1649345353.033243,12761.000000,1649345353.032930,0.000000,0.000000,1.000000,0.000000,0.000000,0.000000,0.000000,7.084737,12.284694,0.292749
1649345353.132817,12762.000000,1649345353.132535,0.000000,0.000000,1.000000,0.000000,0.000000,0.000000,0.000000,7.085607,12.285738,0.291262
1649345353.232628,12763.000000,1649345353.232412,0.000000,0.000000,1.000000,0.000000,0.000000,0.000000,0.000000,7.088716,12.285541,0.304780
1649345353.332815,12764.000000,1649345353.332364,0.000000,0.000000,1.000000,0.000000,0.000000,0.000000,0.000000,7.085204,12.290721,0.284269
1649345353.432885,12765.000000,1649345353.432609,0.000000,0.000000,1.000000,0.000000,0.000000,0.000000,0.000000,7.085250,12.293339,0.284347
1649345353.534780,12766.000000,1649345353.533574,0.000000,0.000000,1.000000,0.000000,0.000000,0.000000,0.000000,7.088655,12.294623,0.300132
1649345353.632857,12767.000000,1649345353.632554,0.000000,0.000000,1.000000,0.000000,0.000000,0.000000,0.000000,7.084316,12.302280,0.283369
1649345353.732966,12768.000000,1649345353.732739,0.000000,0.000000,1.000000,0.000000,0.000000,0.000000,0.000000,7.082478,12.305041,0.268448
1649345353.833991,12769.000000,1649345353.833498,0.000000,0.000000,1.000000,0.000000,0.000000,0.000000,0.000000,7.084096,12.305351,0.274660
1649345353.933235,12770.000000,1649345353.932837,0.000000,0.000000,1.000000,0.000000,0.000000,0.000000,0.000000,7.080249,12.312074,0.249513
1649345354.034405,12771.000000,1649345354.033963,0.000000,0.000000,1.000000,0.000000,0.000000,0.000000,0.000000,7.074513,12.321573,0.212042
1649345354.134466,12772.000000,1649345354.133186,0.000000,0.000000,1.000000,0.000000,0.000000,0.000000,0.000000,7.071366,12.326042,0.199889
1649345354.234330,12773.000000,1649345354.233706,0.000000,0.000000,1.000000,0.000000,0.000000,0.000000,0.000000,7.070672,12.327932,0.208003
1649345354.333065,12774.000000,1649345354.332759,0.000000,0.000000,1.000000,0.000000,0.000000,0.000000,0.000000,7.072292,12.327384,0.229084
1649345354.433066,12775.000000,1649345354.432722,0.000000,0.000000,1.000000,0.000000,0.000000,0.000000,0.000000,7.067368,12.333266,0.216591
1649345354.535780,12776.000000,1649345354.534321,0.000000,0.000000,1.000000,0.000000,0.000000,0.000000,0.000000,7.066080,12.335404,0.221882
1649345354.633261,12777.000000,1649345354.632731,0.000000,0.000000,1.000000,0.000000,0.000000,0.000000,0.000000,7.061686,12.340546,0.203090
1649345354.734832,12778.000000,1649345354.734157,0.000000,0.000000,1.000000,0.000000,0.000000,0.000000,0.000000,7.059815,12.343069,0.205557
1649345354.834056,12779.000000,1649345354.833409,0.000000,0.000000,1.000000,0.000000,0.000000,0.000000,0.000000,7.060330,12.342026,0.223569
1649345354.933679,12780.000000,1649345354.933104,0.000000,0.000000,1.000000,0.000000,0.000000,0.000000,0.000000,7.062004,12.339806,0.236295
1649345355.033715,12781.000000,1649345355.033279,0.000000,0.000000,1.000000,0.000000,0.000000,0.000000,0.000000,7.065851,12.336486,0.264076
1649345355.133148,12782.000000,1649345355.132817,0.000000,0.000000,1.000000,0.000000,0.000000,0.000000,0.000000,7.070647,12.331055,0.287698
1649345355.233542,12783.000000,1649345355.232990,0.000000,0.000000,1.000000,0.000000,0.000000,0.000000,0.000000,7.076322,12.322561,0.318573
1649345355.332820,12784.000000,1649345355.332480,0.000000,0.000000,1.000000,0.000000,0.000000,0.000000,0.000000,7.081715,12.314473,0.353124
1649345355.433088,12785.000000,1649345355.432780,0.000000,0.000000,1.000000,0.000000,0.000000,0.000000,0.000000,7.086824,12.305709,0.377430
1649345355.533562,12786.000000,1649345355.532900,0.000000,0.000000,1.000000,0.000000,0.000000,0.000000,0.000000,7.085106,12.305056,0.365250
1649345355.633858,12787.000000,1649345355.633272,0.000000,0.000000,1.000000,0.000000,0.000000,0.000000,0.000000,7.079118,12.309895,0.326141
1649345355.733429,12788.000000,1649345355.732951,0.000000,0.000000,1.000000,0.000000,0.000000,0.000000,0.000000,7.076745,12.310097,0.314479
1649345355.832970,12789.000000,1649345355.832491,0.000000,0.000000,1.000000,0.000000,0.000000,0.000000,0.000000,7.077797,12.308095,0.310629
1649345355.934865,12790.000000,1649345355.934201,0.000000,0.000000,1.000000,0.000000,0.000000,0.000000,0.000000,7.079901,12.304017,0.323147
1649345356.032951,12791.000000,1649345356.032523,0.000000,0.000000,1.000000,0.000000,0.000000,0.000000,0.000000,7.077541,12.304531,0.318287
1649345356.133182,12792.000000,1649345356.132483,0.000000,0.000000,1.000000,0.000000,0.000000,0.000000,0.000000,7.070966,12.310476,0.286269
1649345356.232878,12793.000000,1649345356.232486,0.000000,0.000000,1.000000,0.000000,0.000000,0.000000,0.000000,7.061516,12.322626,0.236304
1649345356.335795,12794.000000,1649345356.334510,0.000000,0.000000,1.000000,0.000000,0.000000,0.000000,0.000000,7.058098,12.329703,0.218390
1649345356.435674,12795.000000,1649345356.435289,0.000000,0.000000,1.000000,0.000000,0.000000,0.000000,0.000000,7.058211,12.331963,0.223998
1649345356.537895,12796.000000,1649345356.536752,0.000000,0.000000,1.000000,0.000000,0.000000,0.000000,0.000000,7.061656,12.331846,0.244903
1649345356.636805,12797.000000,1649345356.633445,0.000000,0.000000,1.000000,0.000000,0.000000,0.000000,0.000000,7.059515,12.337119,0.230446
1649345356.733693,12798.000000,1649345356.733057,0.000000,0.000000,1.000000,0.000000,0.000000,0.000000,0.000000,7.060819,12.336573,0.216746
1649345356.833557,12799.000000,1649345356.832920,0.000000,0.000000,1.000000,0.000000,0.000000,0.000000,0.000000,7.064282,12.332710,0.207821
1649345356.934346,12800.000000,1649345356.933657,0.000000,0.000000,1.000000,0.000000,0.000000,0.000000,0.000000,7.068683,12.326820,0.203486
1649345357.033315,12801.000000,1649345357.032994,0.000000,0.000000,1.000000,0.000000,0.000000,0.000000,0.000000,7.073954,12.320123,0.198717
1649345357.133380,12802.000000,1649345357.132919,0.000000,0.000000,1.000000,0.000000,0.000000,0.000000,0.000000,7.081121,12.312688,0.212078
1649345357.233465,12803.000000,1649345357.233153,0.000000,0.000000,1.000000,0.000000,0.000000,0.000000,0.000000,7.088968,12.305669,0.241196
1649345357.334558,12804.000000,1649345357.333749,0.000000,0.000000,1.000000,0.000000,0.000000,0.000000,0.000000,7.089800,12.306698,0.234572
1649345357.433330,12805.000000,1649345357.432782,0.000000,0.000000,1.000000,0.000000,0.000000,0.000000,0.000000,7.092724,12.303337,0.245267
1649345357.534378,12806.000000,1649345357.533892,0.000000,0.000000,1.000000,0.000000,0.000000,0.000000,0.000000,7.095438,12.298015,0.266107
1649345357.633188,12807.000000,1649345357.632881,0.000000,0.000000,1.000000,0.000000,0.000000,0.000000,0.000000,7.092495,12.300667,0.253097
1649345357.734120,12808.000000,1649345357.733672,0.000000,0.000000,1.000000,0.000000,0.000000,0.000000,0.000000,7.084217,12.308666,0.215685
1649345357.832768,12809.000000,1649345357.832326,0.000000,0.000000,1.000000,0.000000,0.000000,0.000000,0.000000,7.080736,12.312970,0.206528
1649345357.932542,12810.000000,1649345357.932269,0.000000,0.000000,1.000000,0.000000,0.000000,0.000000,0.000000,7.073080,12.322490,0.172884
1649345358.032461,12811.000000,1649345358.032295,0.000000,0.000000,1.000000,0.000000,0.000000,0.000000,0.000000,7.069133,12.326008,0.165790
1649345358.133010,12812.000000,1649345358.132381,0.000000,0.000000,1.000000,0.000000,0.000000,0.000000,0.000000,7.061071,12.335836,0.137407
1649345358.236790,12813.000000,1649345358.235788,0.000000,0.000000,1.000000,0.000000,0.000000,0.000000,0.000000,7.056775,12.340697,0.130568
1649345358.333262,12814.000000,1649345358.332729,0.000000,0.000000,1.000000,0.000000,0.000000,0.000000,0.000000,7.048418,12.348483,0.101664
1649345358.432616,12815.000000,1649345358.432330,0.000000,0.000000,1.000000,0.000000,0.000000,0.000000,0.000000,7.038423,12.359016,0.053236
1649345358.536109,12816.000000,1649345358.535455,0.000000,0.000000,1.000000,0.000000,0.000000,0.000000,0.000000,7.027998,12.369938,0.004690
1649345358.632461,12817.000000,1649345358.632185,0.000000,0.000000,1.000000,0.000000,0.000000,0.000000,0.000000,7.023733,12.375748,-0.010031
1649345358.732987,12818.000000,1649345358.732667,0.000000,0.000000,1.000000,0.000000,0.000000,0.000000,0.000000,7.024208,12.375625,-0.001960
1649345358.833753,12819.000000,1649345358.833059,0.000000,0.000000,1.000000,0.000000,0.000000,0.000000,0.000000,7.026975,12.372083,0.005373
1649345358.933593,12820.000000,1649345358.933057,0.000000,0.000000,1.000000,0.000000,0.000000,0.000000,0.000000,7.030801,12.366419,0.028902
1649345359.032664,12821.000000,1649345359.032263,0.000000,0.000000,1.000000,0.000000,0.000000,0.000000,0.000000,7.036700,12.359864,0.063890
1649345359.133856,12822.000000,1649345359.133240,0.000000,0.000000,1.000000,0.000000,0.000000,0.000000,0.000000,7.044535,12.351403,0.108187
1649345359.233257,12823.000000,1649345359.232850,0.000000,0.000000,1.000000,0.000000,0.000000,0.000000,0.000000,7.053081,12.342263,0.159722
1649345359.333920,12824.000000,1649345359.333595,0.000000,0.000000,1.000000,0.000000,0.000000,0.000000,0.000000,7.062269,12.333601,0.216495
1649345359.434672,12825.000000,1649345359.433897,0.000000,0.000000,1.000000,0.000000,0.000000,0.000000,0.000000,7.070945,12.324330,0.255616
1649345359.532629,12826.000000,1649345359.532366,0.000000,0.000000,1.000000,0.000000,0.000000,0.000000,0.000000,7.071477,12.323235,0.259184
1649345359.632589,12827.000000,1649345359.632325,0.000000,0.000000,1.000000,0.000000,0.000000,0.000000,0.000000,7.067580,12.327692,0.238307
1649345359.733671,12828.000000,1649345359.733024,0.000000,0.000000,1.000000,0.000000,0.000000,0.000000,0.000000,7.066052,12.329747,0.223043
1649345359.833131,12829.000000,1649345359.832539,0.000000,0.000000,1.000000,0.000000,0.000000,0.000000,0.000000,7.067861,12.328435,0.230936
1649345359.934093,12830.000000,1649345359.933419,0.000000,0.000000,1.000000,0.000000,0.000000,0.000000,0.000000,7.070639,12.325032,0.249751
1649345360.033187,12831.000000,1649345360.032787,0.000000,0.000000,1.000000,0.000000,0.000000,0.000000,0.000000,7.068875,12.327294,0.238695
1649345360.134006,12832.000000,1649345360.133289,0.000000,0.000000,1.000000,0.000000,0.000000,0.000000,0.000000,7.068274,12.325092,0.247382
1649345360.236430,12833.000000,1649345360.235415,0.000000,0.000000,1.000000,0.000000,0.000000,0.000000,0.000000,7.070959,12.319763,0.267745
1649345360.335823,12834.000000,1649345360.333300,0.000000,0.000000,1.000000,0.000000,0.000000,0.000000,0.000000,7.075651,12.311494,0.296056
1649345360.435148,12835.000000,1649345360.434604,0.000000,0.000000,1.000000,0.000000,0.000000,0.000000,0.000000,7.072415,12.311372,0.293242
1649345360.533014,12836.000000,1649345360.532501,0.000000,0.000000,1.000000,0.000000,0.000000,0.000000,0.000000,7.072599,12.309137,0.309762
1649345360.633554,12837.000000,1649345360.633072,0.000000,0.000000,1.000000,0.000000,0.000000,0.000000,0.000000,7.068385,12.314721,0.296426
1649345360.735077,12838.000000,1649345360.734394,0.000000,0.000000,1.000000,0.000000,0.000000,0.000000,0.000000,7.068750,12.314592,0.304467
1649345360.832997,12839.000000,1649345360.832771,0.000000,0.000000,1.000000,0.000000,0.000000,0.000000,0.000000,7.071265,12.311240,0.324952
1649345360.934980,12840.000000,1649345360.934428,0.000000,0.000000,1.000000,0.000000,0.000000,0.000000,0.000000,7.074713,12.305939,0.354929
1649345361.032472,12841.000000,1649345361.032227,0.000000,0.000000,1.000000,0.000000,0.000000,0.000000,0.000000,7.073583,12.306442,0.346393
1649345361.133566,12842.000000,1649345361.133025,0.000000,0.000000,1.000000,0.000000,0.000000,0.000000,0.000000,7.075762,12.304794,0.354950
1649345361.234457,12843.000000,1649345361.233901,0.000000,0.000000,1.000000,0.000000,0.000000,0.000000,0.000000,7.075612,12.307658,0.336357
1649345361.332766,12844.000000,1649345361.332385,0.000000,0.000000,1.000000,0.000000,0.000000,0.000000,0.000000,7.075443,12.307141,0.335296
1649345361.434840,12845.000000,1649345361.434132,0.000000,0.000000,1.000000,0.000000,0.000000,0.000000,0.000000,7.077439,12.304519,0.348649
1649345361.534061,12846.000000,1649345361.533375,0.000000,0.000000,1.000000,0.000000,0.000000,0.000000,0.000000,7.074935,12.305362,0.347593
1649345361.634250,12847.000000,1649345361.633694,0.000000,0.000000,1.000000,0.000000,0.000000,0.000000,0.000000,7.073638,12.305114,0.343202
1649345361.735802,12848.000000,1649345361.734832,0.000000,0.000000,1.000000,0.000000,0.000000,0.000000,0.000000,7.066944,12.310377,0.313848
1649345361.834974,12849.000000,1649345361.834350,0.000000,0.000000,1.000000,0.000000,0.000000,0.000000,0.000000,7.063893,12.311016,0.307368
1649345361.933957,12850.000000,1649345361.933499,0.000000,0.000000,1.000000,0.000000,0.000000,0.000000,0.000000,7.063205,12.309461,0.316404
1649345362.033298,12851.000000,1649345362.032976,0.000000,0.000000,1.000000,0.000000,0.000000,0.000000,0.000000,7.065843,12.306926,0.337091
1649345362.133171,12852.000000,1649345362.132785,0.000000,0.000000,1.000000,0.000000,0.000000,0.000000,0.000000,7.069436,12.303471,0.366509
1649345362.235937,12853.000000,1649345362.235435,0.000000,0.000000,1.000000,0.000000,0.000000,0.000000,0.000000,7.075010,12.299154,0.401842
1649345362.333501,12854.000000,1649345362.333027,0.000000,0.000000,1.000000,0.000000,0.000000,0.000000,0.000000,7.081350,12.294034,0.442797
1649345362.433091,12855.000000,1649345362.432727,0.000000,0.000000,1.000000,0.000000,0.000000,0.000000,0.000000,7.088395,12.289258,0.488282
1649345362.536081,12856.000000,1649345362.535174,0.000000,0.000000,1.000000,0.000000,0.000000,0.000000,0.000000,7.096087,12.284819,0.534821
1649345362.633926,12857.000000,1649345362.633481,0.000000,0.000000,1.000000,0.000000,0.000000,0.000000,0.000000,7.096737,12.285069,0.555696
1649345362.736783,12858.000000,1649345362.735929,0.000000,0.000000,1.000000,0.000000,0.000000,0.000000,0.000000,7.099455,12.282115,0.582566
1649345362.833222,12859.000000,1649345362.832830,0.000000,0.000000,1.000000,0.000000,0.000000,0.000000,0.000000,7.103033,12.278316,0.611131
1649345362.935009,12860.000000,1649345362.934547,0.000000,0.000000,1.000000,0.000000,0.000000,0.000000,0.000000,7.100876,12.281359,0.598550
1649345363.033776,12861.000000,1649345363.033377,0.000000,0.000000,1.000000,0.000000,0.000000,0.000000,0.000000,7.100940,12.281041,0.597330
1649345363.134691,12862.000000,1649345363.134181,0.000000,0.000000,1.000000,0.000000,0.000000,0.000000,0.000000,7.094386,12.288448,0.565904
1649345363.233782,12863.000000,1649345363.233223,0.000000,0.000000,1.000000,0.000000,0.000000,0.000000,0.000000,7.084871,12.297678,0.521689
1649345363.333503,12864.000000,1649345363.333009,0.000000,0.000000,1.000000,0.000000,0.000000,0.000000,0.000000,7.074769,12.307510,0.463677
1649345363.433174,12865.000000,1649345363.432843,0.000000,0.000000,1.000000,0.000000,0.000000,0.000000,0.000000,7.071777,12.312427,0.432857
1649345363.532801,12866.000000,1649345363.532445,0.000000,0.000000,1.000000,0.000000,0.000000,0.000000,0.000000,7.071155,12.313773,0.423352
1649345363.636944,12867.000000,1649345363.635461,0.000000,0.000000,1.000000,0.000000,0.000000,0.000000,0.000000,7.072774,12.310651,0.427871
1649345363.733129,12868.000000,1649345363.732745,0.000000,0.000000,1.000000,0.000000,0.000000,0.000000,0.000000,7.076506,12.305495,0.425683
1649345363.833444,12869.000000,1649345363.832855,0.000000,0.000000,1.000000,0.000000,0.000000,0.000000,0.000000,7.082223,12.299524,0.438839
1649345363.932666,12870.000000,1649345363.932306,0.000000,0.000000,1.000000,0.000000,0.000000,0.000000,0.000000,7.087617,12.291713,0.444927
1649345364.033105,12871.000000,1649345364.032681,0.000000,0.000000,1.000000,0.000000,0.000000,0.000000,0.000000,7.093780,12.284364,0.463581
1649345364.132463,12872.000000,1649345364.132219,0.000000,0.000000,1.000000,0.000000,0.000000,0.000000,0.000000,7.099561,12.277475,0.474103
1649345364.235789,12873.000000,1649345364.235045,0.000000,0.000000,1.000000,0.000000,0.000000,0.000000,0.000000,7.104967,12.271038,0.493746
1649345364.332875,12874.000000,1649345364.332603,0.000000,0.000000,1.000000,0.000000,0.000000,0.000000,0.000000,7.111094,12.266136,0.520501
1649345364.433018,12875.000000,1649345364.432309,0.000000,0.000000,1.000000,0.000000,0.000000,0.000000,0.000000,7.110256,12.269236,0.529042
1649345364.532368,12876.000000,1649345364.532165,0.000000,0.000000,1.000000,0.000000,0.000000,0.000000,0.000000,7.105020,12.276616,0.515259
1649345364.634784,12877.000000,1649345364.634283,0.000000,0.000000,1.000000,0.000000,0.000000,0.000000,0.000000,7.096737,12.288015,0.473632
1649345364.733386,12878.000000,1649345364.733123,0.000000,0.000000,1.000000,0.000000,0.000000,0.000000,0.000000,7.086694,12.303174,0.410200
1649345364.832645,12879.000000,1649345364.832354,0.000000,0.000000,1.000000,0.000000,0.000000,0.000000,0.000000,7.073930,12.320749,0.338856
1649345364.933714,12880.000000,1649345364.933250,0.000000,0.000000,1.000000,0.000000,0.000000,0.000000,0.000000,7.060813,12.336194,0.272136
1649345365.032940,12881.000000,1649345365.032411,0.000000,0.000000,1.000000,0.000000,0.000000,0.000000,0.000000,7.053943,12.345219,0.238188
1649345365.132710,12882.000000,1649345365.132487,0.000000,0.000000,1.000000,0.000000,0.000000,0.000000,0.000000,7.047546,12.354695,0.192190
1649345365.234277,12883.000000,1649345365.233610,0.000000,0.000000,1.000000,0.000000,0.000000,0.000000,0.000000,7.044882,12.359124,0.174208
1649345365.333181,12884.000000,1649345365.332733,0.000000,0.000000,1.000000,0.000000,0.000000,0.000000,0.000000,7.039206,12.365320,0.150065
1649345365.432852,12885.000000,1649345365.432460,0.000000,0.000000,1.000000,0.000000,0.000000,0.000000,0.000000,7.037236,12.365543,0.133745
1649345365.532403,12886.000000,1649345365.532171,0.000000,0.000000,1.000000,0.000000,0.000000,0.000000,0.000000,7.037680,12.365582,0.139458
1649345365.633567,12887.000000,1649345365.633162,0.000000,0.000000,1.000000,0.000000,0.000000,0.000000,0.000000,7.042577,12.361093,0.159839
1649345365.732678,12888.000000,1649345365.732415,0.000000,0.000000,1.000000,0.000000,0.000000,0.000000,0.000000,7.049482,12.354529,0.186181
1649345365.833879,12889.000000,1649345365.833305,0.000000,0.000000,1.000000,0.000000,0.000000,0.000000,0.000000,7.056078,12.348212,0.222218
1649345365.942205,12890.000000,1649345365.938326,0.000000,0.000000,1.000000,0.000000,0.000000,0.000000,0.000000,7.062357,12.339973,0.261034
1649345366.033401,12891.000000,1649345366.032970,0.000000,0.000000,1.000000,0.000000,0.000000,0.000000,0.000000,7.068314,12.333220,0.302443
1649345366.135867,12892.000000,1649345366.135146,0.000000,0.000000,1.000000,0.000000,0.000000,0.000000,0.000000,7.067405,12.333347,0.304331
1649345366.232486,12893.000000,1649345366.232275,0.000000,0.000000,1.000000,0.000000,0.000000,0.000000,0.000000,7.061096,12.338892,0.277154
1649345366.333429,12894.000000,1649345366.332933,0.000000,0.000000,1.000000,0.000000,0.000000,0.000000,0.000000,7.059515,12.338639,0.257614
1649345366.433633,12895.000000,1649345366.433199,0.000000,0.000000,1.000000,0.000000,0.000000,0.000000,0.000000,7.060227,12.336178,0.260754
1649345366.535042,12896.000000,1649345366.534055,0.000000,0.000000,1.000000,0.000000,0.000000,0.000000,0.000000,7.063104,12.332731,0.277585
1649345366.633985,12897.000000,1649345366.633479,0.000000,0.000000,1.000000,0.000000,0.000000,0.000000,0.000000,7.066927,12.327272,0.306716
1649345366.736257,12898.000000,1649345366.733781,0.000000,0.000000,1.000000,0.000000,0.000000,0.000000,0.000000,7.063999,12.329744,0.300018
1649345366.832930,12899.000000,1649345366.832756,0.000000,0.000000,1.000000,0.000000,0.000000,0.000000,0.000000,7.063420,12.329894,0.306526
1649345366.933747,12900.000000,1649345366.933077,0.000000,0.000000,1.000000,0.000000,0.000000,0.000000,0.000000,7.065063,12.327846,0.314405
1649345367.033606,12901.000000,1649345367.032829,0.000000,0.000000,1.000000,0.000000,0.000000,0.000000,0.000000,7.067711,12.323729,0.319553
1649345367.133931,12902.000000,1649345367.133382,0.000000,0.000000,1.000000,0.000000,0.000000,0.000000,0.000000,7.071302,12.318759,0.334975
1649345367.233143,12903.000000,1649345367.232659,0.000000,0.000000,1.000000,0.000000,0.000000,0.000000,0.000000,7.070319,12.319538,0.337650
1649345367.336038,12904.000000,1649345367.335418,0.000000,0.000000,1.000000,0.000000,0.000000,0.000000,0.000000,7.063928,12.325750,0.314378
1649345367.433376,12905.000000,1649345367.433061,0.000000,0.000000,1.000000,0.000000,0.000000,0.000000,0.000000,7.054622,12.335988,0.271891
1649345367.535367,12906.000000,1649345367.534513,0.000000,0.000000,1.000000,0.000000,0.000000,0.000000,0.000000,7.044771,12.348909,0.212649
1649345367.633281,12907.000000,1649345367.632937,0.000000,0.000000,1.000000,0.000000,0.000000,0.000000,0.000000,7.039886,12.355605,0.187424
1649345367.732613,12908.000000,1649345367.732305,0.000000,0.000000,1.000000,0.000000,0.000000,0.000000,0.000000,7.032074,12.365122,0.143266
1649345367.834356,12909.000000,1649345367.833990,0.000000,0.000000,1.000000,0.000000,0.000000,0.000000,0.000000,7.021515,12.376190,0.087458
1649345367.934341,12910.000000,1649345367.933554,0.000000,0.000000,1.000000,0.000000,0.000000,0.000000,0.000000,7.016018,12.379974,0.050389
1649345368.032484,12911.000000,1649345368.032243,0.000000,0.000000,1.000000,0.000000,0.000000,0.000000,0.000000,7.014229,12.380136,0.037805
1649345368.134146,12912.000000,1649345368.133351,0.000000,0.000000,1.000000,0.000000,0.000000,0.000000,0.000000,7.008309,12.384516,0.005173
1649345368.233319,12913.000000,1649345368.232965,0.000000,0.000000,1.000000,0.000000,0.000000,0.000000,0.000000,6.999586,12.391787,-0.040208
1649345368.334778,12914.000000,1649345368.334306,0.000000,0.000000,1.000000,0.000000,0.000000,0.000000,0.000000,6.996953,12.394144,-0.051799
1649345368.437565,12915.000000,1649345368.435993,0.000000,0.000000,1.000000,0.000000,0.000000,0.000000,0.000000,6.993537,12.398399,-0.071287
1649345368.533031,12916.000000,1649345368.532723,0.000000,0.000000,1.000000,0.000000,0.000000,0.000000,0.000000,6.994832,12.395721,-0.066889
1649345368.633595,12917.000000,1649345368.633067,0.000000,0.000000,1.000000,0.000000,0.000000,0.000000,0.000000,6.991846,12.398498,-0.085565
1649345368.735279,12918.000000,1649345368.734697,0.000000,0.000000,1.000000,0.000000,0.000000,0.000000,0.000000,6.984812,12.404254,-0.119117
1649345368.834847,12919.000000,1649345368.834172,0.000000,0.000000,1.000000,0.000000,0.000000,0.000000,0.000000,6.976146,12.411724,-0.166908
1649345368.936628,12920.000000,1649345368.935961,0.000000,0.000000,1.000000,0.000000,0.000000,0.000000,0.000000,6.975766,12.412079,-0.177501
1649345369.033743,12921.000000,1649345369.033305,0.000000,0.000000,1.000000,0.000000,0.000000,0.000000,0.000000,6.973400,12.415527,-0.208046
1649345369.133449,12922.000000,1649345369.132926,0.000000,0.000000,1.000000,0.000000,0.000000,0.000000,0.000000,6.975695,12.413176,-0.207712
1649345369.232874,12923.000000,1649345369.232593,0.000000,0.000000,1.000000,0.000000,0.000000,0.000000,0.000000,6.974747,12.414080,-0.226964
1649345369.333749,12924.000000,1649345369.333222,0.000000,0.000000,1.000000,0.000000,0.000000,0.000000,0.000000,6.979451,12.409345,-0.232746
1649345369.434320,12925.000000,1649345369.433700,0.000000,0.000000,1.000000,0.000000,0.000000,0.000000,0.000000,6.979661,12.410205,-0.257068
1649345369.533098,12926.000000,1649345369.532825,0.000000,0.000000,1.000000,0.000000,0.000000,0.000000,0.000000,6.977795,12.413088,-0.276587
1649345369.634466,12927.000000,1649345369.633654,0.000000,0.000000,1.000000,0.000000,0.000000,0.000000,0.000000,6.980508,12.411338,-0.268099
1649345369.733232,12928.000000,1649345369.732859,0.000000,0.000000,1.000000,0.000000,0.000000,0.000000,0.000000,6.979903,12.411763,-0.273903
1649345369.833403,12929.000000,1649345369.832942,0.000000,0.000000,1.000000,0.000000,0.000000,0.000000,0.000000,6.984879,12.405525,-0.254727
1649345369.933632,12930.000000,1649345369.933019,0.000000,0.000000,1.000000,0.000000,0.000000,0.000000,0.000000,6.992931,12.398465,-0.215665
1649345370.033460,12931.000000,1649345370.033097,0.000000,0.000000,1.000000,0.000000,0.000000,0.000000,0.000000,7.001680,12.388472,-0.170511
1649345370.136605,12932.000000,1649345370.135169,0.000000,0.000000,1.000000,0.000000,0.000000,0.000000,0.000000,7.004516,12.384464,-0.159118
1649345370.235154,12933.000000,1649345370.234448,0.000000,0.000000,1.000000,0.000000,0.000000,0.000000,0.000000,7.011565,12.376315,-0.127741
1649345370.335000,12934.000000,1649345370.333967,0.000000,0.000000,1.000000,0.000000,0.000000,0.000000,0.000000,7.019303,12.367547,-0.082087
1649345370.433731,12935.000000,1649345370.433200,0.000000,0.000000,1.000000,0.000000,0.000000,0.000000,0.000000,7.027670,12.357128,-0.026851
1649345370.533850,12936.000000,1649345370.533304,0.000000,0.000000,1.000000,0.000000,0.000000,0.000000,0.000000,7.031155,12.352813,-0.010100
1649345370.633694,12937.000000,1649345370.633252,0.000000,0.000000,1.000000,0.000000,0.000000,0.000000,0.000000,7.031107,12.354276,-0.020634
1649345370.736603,12938.000000,1649345370.733266,0.000000,0.000000,1.000000,0.000000,0.000000,0.000000,0.000000,7.034266,12.351381,-0.006530
1649345370.834157,12939.000000,1649345370.833837,0.000000,0.000000,1.000000,0.000000,0.000000,0.000000,0.000000,7.034999,12.350910,-0.014773
1649345370.936419,12940.000000,1649345370.935686,0.000000,0.000000,1.000000,0.000000,0.000000,0.000000,0.000000,7.038892,12.347276,0.002327
1649345371.034570,12941.000000,1649345371.034038,0.000000,0.000000,1.000000,0.000000,0.000000,0.000000,0.000000,7.044674,12.342840,0.034846
1649345371.134132,12942.000000,1649345371.133716,0.000000,0.000000,1.000000,0.000000,0.000000,0.000000,0.000000,7.052228,12.334382,0.078884
1649345371.233918,12943.000000,1649345371.233162,0.000000,0.000000,1.000000,0.000000,0.000000,0.000000,0.000000,7.061440,12.325413,0.132292
1649345371.333065,12944.000000,1649345371.332701,0.000000,0.000000,1.000000,0.000000,0.000000,0.000000,0.000000,7.071106,12.315984,0.189769
1649345371.432719,12945.000000,1649345371.432304,0.000000,0.000000,1.000000,0.000000,0.000000,0.000000,0.000000,7.080089,12.307230,0.252676
1649345371.533459,12946.000000,1649345371.532996,0.000000,0.000000,1.000000,0.000000,0.000000,0.000000,0.000000,7.089497,12.298044,0.318281
1649345371.634119,12947.000000,1649345371.633499,0.000000,0.000000,1.000000,0.000000,0.000000,0.000000,0.000000,7.090565,12.297189,0.337996
1649345371.733180,12948.000000,1649345371.732708,0.000000,0.000000,1.000000,0.000000,0.000000,0.000000,0.000000,7.093567,12.294390,0.370914
1649345371.833371,12949.000000,1649345371.832940,0.000000,0.000000,1.000000,0.000000,0.000000,0.000000,0.000000,7.097310,12.289751,0.406794
1649345371.933373,12950.000000,1649345371.932797,0.000000,0.000000,1.000000,0.000000,0.000000,0.000000,0.000000,7.095210,12.292099,0.408379
1649345372.034090,12951.000000,1649345372.033537,0.000000,0.000000,1.000000,0.000000,0.000000,0.000000,0.000000,7.089783,12.299944,0.384334
1649345372.136449,12952.000000,1649345372.135649,0.000000,0.000000,1.000000,0.000000,0.000000,0.000000,0.000000,7.080147,12.311862,0.340595
1649345372.239914,12953.000000,1649345372.237479,0.000000,0.000000,1.000000,0.000000,0.000000,0.000000,0.000000,7.068751,12.323224,0.301436
1649345372.338047,12954.000000,1649345372.336829,0.000000,0.000000,1.000000,0.000000,0.000000,0.000000,0.000000,7.054642,12.337290,0.246597
1649345372.432724,12955.000000,1649345372.432401,0.000000,0.000000,1.000000,0.000000,0.000000,0.000000,0.000000,7.047829,12.344052,0.221978
1649345372.533616,12956.000000,1649345372.533261,0.000000,0.000000,1.000000,0.000000,0.000000,0.000000,0.000000,7.045757,12.346068,0.219152
1649345372.637090,12957.000000,1649345372.635932,0.000000,0.000000,1.000000,0.000000,0.000000,0.000000,0.000000,7.047083,12.344680,0.218705
1649345372.735467,12958.000000,1649345372.732702,0.000000,0.000000,1.000000,0.000000,0.000000,0.000000,0.000000,7.043984,12.346622,0.209258
1649345372.837934,12959.000000,1649345372.836756,0.000000,0.000000,1.000000,0.000000,0.000000,0.000000,0.000000,7.045433,12.345165,0.218615
1649345372.933345,12960.000000,1649345372.932877,0.000000,0.000000,1.000000,0.000000,0.000000,0.000000,0.000000,7.047907,12.341591,0.230686
1649345373.041465,12961.000000,1649345373.037542,0.000000,0.000000,1.000000,0.000000,0.000000,0.000000,0.000000,7.052430,12.334937,0.242120
1649345373.133561,12962.000000,1649345373.133089,0.000000,0.000000,1.000000,0.000000,0.000000,0.000000,0.000000,7.057788,12.325392,0.252123
1649345373.234408,12963.000000,1649345373.233820,0.000000,0.000000,1.000000,0.000000,0.000000,0.000000,0.000000,7.065007,12.316413,0.278485
1649345373.334966,12964.000000,1649345373.334157,0.000000,0.000000,1.000000,0.000000,0.000000,0.000000,0.000000,7.073966,12.307995,0.314058
1649345373.433034,12965.000000,1649345373.432743,0.000000,0.000000,1.000000,0.000000,0.000000,0.000000,0.000000,7.076912,12.306672,0.318902
1649345373.535153,12966.000000,1649345373.534385,0.000000,0.000000,1.000000,0.000000,0.000000,0.000000,0.000000,7.080709,12.302244,0.320066
1649345373.633111,12967.000000,1649345373.632868,0.000000,0.000000,1.000000,0.000000,0.000000,0.000000,0.000000,7.086395,12.294887,0.333029
1649345373.734751,12968.000000,1649345373.734041,0.000000,0.000000,1.000000,0.000000,0.000000,0.000000,0.000000,7.087310,12.294592,0.321014
1649345373.837034,12969.000000,1649345373.836071,0.000000,0.000000,1.000000,0.000000,0.000000,0.000000,0.000000,7.090260,12.292245,0.313284
1649345373.932816,12970.000000,1649345373.932503,0.000000,0.000000,1.000000,0.000000,0.000000,0.000000,0.000000,7.092950,12.289050,0.309691
1649345374.034306,12971.000000,1649345374.033860,0.000000,0.000000,1.000000,0.000000,0.000000,0.000000,0.000000,7.089939,12.292689,0.279437
1649345374.133610,12972.000000,1649345374.133238,0.000000,0.000000,1.000000,0.000000,0.000000,0.000000,0.000000,7.089186,12.294047,0.276881
1649345374.233026,12973.000000,1649345374.232777,0.000000,0.000000,1.000000,0.000000,0.000000,0.000000,0.000000,7.085123,12.300873,0.246886
1649345374.334553,12974.000000,1649345374.334055,0.000000,0.000000,1.000000,0.000000,0.000000,0.000000,0.000000,7.084491,12.303028,0.243838
1649345374.436043,12975.000000,1649345374.434844,0.000000,0.000000,1.000000,0.000000,0.000000,0.000000,0.000000,7.088197,12.302937,0.261015
1649345374.536387,12976.000000,1649345374.534699,0.000000,0.000000,1.000000,0.000000,0.000000,0.000000,0.000000,7.093818,12.301810,0.291123
1649345374.635292,12977.000000,1649345374.634585,0.000000,0.000000,1.000000,0.000000,0.000000,0.000000,0.000000,7.099053,12.297524,0.311013
1649345374.737339,12978.000000,1649345374.735177,0.000000,0.000000,1.000000,0.000000,0.000000,0.000000,0.000000,7.105003,12.291350,0.339617
1649345374.834000,12979.000000,1649345374.833637,0.000000,0.000000,1.000000,0.000000,0.000000,0.000000,0.000000,7.110524,12.285590,0.378962
1649345374.934020,12980.000000,1649345374.933578,0.000000,0.000000,1.000000,0.000000,0.000000,0.000000,0.000000,7.109086,12.287867,0.381782
1649345375.033235,12981.000000,1649345375.032878,0.000000,0.000000,1.000000,0.000000,0.000000,0.000000,0.000000,7.109803,12.286826,0.397942
1649345375.139192,12982.000000,1649345375.138388,0.000000,0.000000,1.000000,0.000000,0.000000,0.000000,0.000000,7.107108,12.290280,0.393018
1649345375.233004,12983.000000,1649345375.232694,0.000000,0.000000,1.000000,0.000000,0.000000,0.000000,0.000000,7.106655,12.289246,0.403362
1649345375.335881,12984.000000,1649345375.334854,0.000000,0.000000,1.000000,0.000000,0.000000,0.000000,0.000000,7.102875,12.292692,0.388837
1649345375.432333,12985.000000,1649345375.432096,0.000000,0.000000,1.000000,0.000000,0.000000,0.000000,0.000000,7.101419,12.292725,0.379512
1649345375.537083,12986.000000,1649345375.535725,0.000000,0.000000,1.000000,0.000000,0.000000,0.000000,0.000000,7.103257,12.289529,0.390526
1649345375.633558,12987.000000,1649345375.633210,0.000000,0.000000,1.000000,0.000000,0.000000,0.000000,0.000000,7.104938,12.284378,0.410565
1649345375.732669,12988.000000,1649345375.732457,0.000000,0.000000,1.000000,0.000000,0.000000,0.000000,0.000000,7.102105,12.286114,0.412626
1649345375.835652,12989.000000,1649345375.834713,0.000000,0.000000,1.000000,0.000000,0.000000,0.000000,0.000000,7.096109,12.291083,0.393409
1649345375.934205,12990.000000,1649345375.933321,0.000000,0.000000,1.000000,0.000000,0.000000,0.000000,0.000000,7.093684,12.292546,0.392523
1649345376.032676,12991.000000,1649345376.032386,0.000000,0.000000,1.000000,0.000000,0.000000,0.000000,0.000000,7.093555,12.290689,0.401980
1649345376.132798,12992.000000,1649345376.132247,0.000000,0.000000,1.000000,0.000000,0.000000,0.000000,0.000000,7.095599,12.285696,0.422969
1649345376.232746,12993.000000,1649345376.232307,0.000000,0.000000,1.000000,0.000000,0.000000,0.000000,0.000000,7.098601,12.281022,0.453382
1649345376.332530,12994.000000,1649345376.332351,0.000000,0.000000,1.000000,0.000000,0.000000,0.000000,0.000000,7.097049,12.282115,0.458927
1649345376.433398,12995.000000,1649345376.433140,0.000000,0.000000,1.000000,0.000000,0.000000,0.000000,0.000000,7.096649,12.282111,0.476898
1649345376.533866,12996.000000,1649345376.533508,0.000000,0.000000,1.000000,0.000000,0.000000,0.000000,0.000000,7.097341,12.278886,0.504355
1649345376.634402,12997.000000,1649345376.634018,0.000000,0.000000,1.000000,0.000000,0.000000,0.000000,0.000000,7.099065,12.275894,0.539268
1649345376.733805,12998.000000,1649345376.733272,0.000000,0.000000,1.000000,0.000000,0.000000,0.000000,0.000000,7.094127,12.279670,0.535321
1649345376.834048,12999.000000,1649345376.833722,0.000000,0.000000,1.000000,0.000000,0.000000,0.000000,0.000000,7.087269,12.288740,0.499748
1649345376.933903,13000.000000,1649345376.933310,0.000000,0.000000,1.000000,0.000000,0.000000,0.000000,0.000000,7.078618,12.300604,0.441157
1649345377.035927,13001.000000,1649345377.035316,0.000000,0.000000,1.000000,0.000000,0.000000,0.000000,0.000000,7.074840,12.306347,0.410584
1649345377.140103,13002.000000,1649345377.135840,0.000000,0.000000,1.000000,0.000000,0.000000,0.000000,0.000000,7.074589,12.307378,0.401314
1649345377.234954,13003.000000,1649345377.234244,0.000000,0.000000,1.000000,0.000000,0.000000,0.000000,0.000000,7.077670,12.306132,0.411702
1649345377.335590,13004.000000,1649345377.334719,0.000000,0.000000,1.000000,0.000000,0.000000,0.000000,0.000000,7.081710,12.302739,0.435295
1649345377.433435,13005.000000,1649345377.432995,0.000000,0.000000,1.000000,0.000000,0.000000,0.000000,0.000000,7.086640,12.295149,0.448137
1649345377.533469,13006.000000,1649345377.533123,0.000000,0.000000,1.000000,0.000000,0.000000,0.000000,0.000000,7.092396,12.287976,0.473226
1649345377.633533,13007.000000,1649345377.633071,0.000000,0.000000,1.000000,0.000000,0.000000,0.000000,0.000000,7.097823,12.281221,0.496322
1649345377.733532,13008.000000,1649345377.732916,0.000000,0.000000,1.000000,0.000000,0.000000,0.000000,0.000000,7.104015,12.273790,0.526345
1649345377.833509,13009.000000,1649345377.833078,0.000000,0.000000,1.000000,0.000000,0.000000,0.000000,0.000000,7.110911,12.265740,0.548456
1649345377.933393,13010.000000,1649345377.932783,0.000000,0.000000,1.000000,0.000000,0.000000,0.000000,0.000000,7.117365,12.258217,0.578270
1649345378.034495,13011.000000,1649345378.033930,0.000000,0.000000,1.000000,0.000000,0.000000,0.000000,0.000000,7.123382,12.251211,0.613019
1649345378.135092,13012.000000,1649345378.134235,0.000000,0.000000,1.000000,0.000000,0.000000,0.000000,0.000000,7.128975,12.244709,0.637941
1649345378.234925,13013.000000,1649345378.234315,0.000000,0.000000,1.000000,0.000000,0.000000,0.000000,0.000000,7.130881,12.245241,0.625987
1649345378.333019,13014.000000,1649345378.332672,0.000000,0.000000,1.000000,0.000000,0.000000,0.000000,0.000000,7.132574,12.244779,0.630292
1649345378.432860,13015.000000,1649345378.432391,0.000000,0.000000,1.000000,0.000000,0.000000,0.000000,0.000000,7.136247,12.243374,0.646176
1649345378.534521,13016.000000,1649345378.534072,0.000000,0.000000,1.000000,0.000000,0.000000,0.000000,0.000000,7.139606,12.239983,0.653806
1649345378.634585,13017.000000,1649345378.633891,0.000000,0.000000,1.000000,0.000000,0.000000,0.000000,0.000000,7.142664,12.235808,0.651096
1649345378.733446,13018.000000,1649345378.733049,0.000000,0.000000,1.000000,0.000000,0.000000,0.000000,0.000000,7.146526,12.233079,0.661869
1649345378.833087,13019.000000,1649345378.832701,0.000000,0.000000,1.000000,0.000000,0.000000,0.000000,0.000000,7.150051,12.230629,0.660579
1649345378.933855,13020.000000,1649345378.933268,0.000000,0.000000,1.000000,0.000000,0.000000,0.000000,0.000000,7.153254,12.227351,0.651760
1649345379.033305,13021.000000,1649345379.032969,0.000000,0.000000,1.000000,0.000000,0.000000,0.000000,0.000000,7.153970,12.225475,0.646228
1649345379.132597,13022.000000,1649345379.132374,0.000000,0.000000,1.000000,0.000000,0.000000,0.000000,0.000000,7.154519,12.222742,0.651130
1649345379.232925,13023.000000,1649345379.232574,0.000000,0.000000,1.000000,0.000000,0.000000,0.000000,0.000000,7.149466,12.229012,0.620081
1649345379.334169,13024.000000,1649345379.333715,0.000000,0.000000,1.000000,0.000000,0.000000,0.000000,0.000000,7.138047,12.241588,0.566691
1649345379.432510,13025.000000,1649345379.432286,0.000000,0.000000,1.000000,0.000000,0.000000,0.000000,0.000000,7.121741,12.257899,0.499218
1649345379.534609,13026.000000,1649345379.533880,0.000000,0.000000,1.000000,0.000000,0.000000,0.000000,0.000000,7.110683,12.268964,0.465122
1649345379.633042,13027.000000,1649345379.632608,0.000000,0.000000,1.000000,0.000000,0.000000,0.000000,0.000000,7.096989,12.283757,0.408276
1649345379.732529,13028.000000,1649345379.732290,0.000000,0.000000,1.000000,0.000000,0.000000,0.000000,0.000000,7.081934,12.298759,0.352272
1649345379.835111,13029.000000,1649345379.834061,0.000000,0.000000,1.000000,0.000000,0.000000,0.000000,0.000000,7.072178,12.307374,0.306035
1649345379.937411,13030.000000,1649345379.936307,0.000000,0.000000,1.000000,0.000000,0.000000,0.000000,0.000000,7.059823,12.319741,0.242626
1649345380.035100,13031.000000,1649345380.034661,0.000000,0.000000,1.000000,0.000000,0.000000,0.000000,0.000000,7.052674,12.326904,0.209605
1649345380.134775,13032.000000,1649345380.134380,0.000000,0.000000,1.000000,0.000000,0.000000,0.000000,0.000000,7.049371,12.330223,0.200142
1649345380.238220,13033.000000,1649345380.237144,0.000000,0.000000,1.000000,0.000000,0.000000,0.000000,0.000000,7.040979,12.337540,0.164089
1649345380.335572,13034.000000,1649345380.333462,0.000000,0.000000,1.000000,0.000000,0.000000,0.000000,0.000000,7.037607,12.342082,0.138852
1649345380.435147,13035.000000,1649345380.434715,0.000000,0.000000,1.000000,0.000000,0.000000,0.000000,0.000000,7.037888,12.341818,0.138533
1649345380.535083,13036.000000,1649345380.534546,0.000000,0.000000,1.000000,0.000000,0.000000,0.000000,0.000000,7.040522,12.339201,0.154042
1649345380.636338,13037.000000,1649345380.635490,0.000000,0.000000,1.000000,0.000000,0.000000,0.000000,0.000000,7.045360,12.333289,0.182274
1649345380.733979,13038.000000,1649345380.733553,0.000000,0.000000,1.000000,0.000000,0.000000,0.000000,0.000000,7.051168,12.327561,0.218618
1649345380.834025,13039.000000,1649345380.833716,0.000000,0.000000,1.000000,0.000000,0.000000,0.000000,0.000000,7.050234,12.329665,0.216702
1649345380.933791,13040.000000,1649345380.933239,0.000000,0.000000,1.000000,0.000000,0.000000,0.000000,0.000000,7.051644,12.328270,0.215155
1649345381.033566,13041.000000,1649345381.033066,0.000000,0.000000,1.000000,0.000000,0.000000,0.000000,0.000000,7.054168,12.326849,0.230888
1649345381.133779,13042.000000,1649345381.133368,0.000000,0.000000,1.000000,0.000000,0.000000,0.000000,0.000000,7.051191,12.331957,0.215586
1649345381.235319,13043.000000,1649345381.233148,0.000000,0.000000,1.000000,0.000000,0.000000,0.000000,0.000000,7.044107,12.341046,0.175353
1649345381.332743,13044.000000,1649345381.332458,0.000000,0.000000,1.000000,0.000000,0.000000,0.000000,0.000000,7.034247,12.353876,0.120123
1649345381.434593,13045.000000,1649345381.433952,0.000000,0.000000,1.000000,0.000000,0.000000,0.000000,0.000000,7.029418,12.361487,0.098967
1649345381.533907,13046.000000,1649345381.533204,0.000000,0.000000,1.000000,0.000000,0.000000,0.000000,0.000000,7.027175,12.365240,0.087952
1649345381.633849,13047.000000,1649345381.633323,0.000000,0.000000,1.000000,0.000000,0.000000,0.000000,0.000000,7.027375,12.365343,0.096346
1649345381.733307,13048.000000,1649345381.732840,0.000000,0.000000,1.000000,0.000000,0.000000,0.000000,0.000000,7.030967,12.360913,0.118497
1649345381.834466,13049.000000,1649345381.833851,0.000000,0.000000,1.000000,0.000000,0.000000,0.000000,0.000000,7.030114,12.363125,0.111055
1649345381.933296,13050.000000,1649345381.932968,0.000000,0.000000,1.000000,0.000000,0.000000,0.000000,0.000000,7.031597,12.361806,0.125212
1649345382.035145,13051.000000,1649345382.034635,0.000000,0.000000,1.000000,0.000000,0.000000,0.000000,0.000000,7.035278,12.358249,0.155219
1649345382.132544,13052.000000,1649345382.132271,0.000000,0.000000,1.000000,0.000000,0.000000,0.000000,0.000000,7.041020,12.351505,0.178602
1649345382.239532,13053.000000,1649345382.238015,0.000000,0.000000,1.000000,0.000000,0.000000,0.000000,0.000000,7.046507,12.345047,0.213319
1649345382.333587,13054.000000,1649345382.333257,0.000000,0.000000,1.000000,0.000000,0.000000,0.000000,0.000000,7.053913,12.335612,0.255621
1649345382.437882,13055.000000,1649345382.437469,0.000000,0.000000,1.000000,0.000000,0.000000,0.000000,0.000000,7.062017,12.325577,0.289804
1649345382.533216,13056.000000,1649345382.532831,0.000000,0.000000,1.000000,0.000000,0.000000,0.000000,0.000000,7.065304,12.321550,0.294361
1649345382.636269,13057.000000,1649345382.635444,0.000000,0.000000,1.000000,0.000000,0.000000,0.000000,0.000000,7.070569,12.315582,0.309996
1649345382.734115,13058.000000,1649345382.733321,0.000000,0.000000,1.000000,0.000000,0.000000,0.000000,0.000000,7.077689,12.307798,0.331397
1649345382.835473,13059.000000,1649345382.834554,0.000000,0.000000,1.000000,0.000000,0.000000,0.000000,0.000000,7.076729,12.308131,0.319590
1649345382.934586,13060.000000,1649345382.934114,0.000000,0.000000,1.000000,0.000000,0.000000,0.000000,0.000000,7.074678,12.311774,0.292871
1649345383.035226,13061.000000,1649345383.034837,0.000000,0.000000,1.000000,0.000000,0.000000,0.000000,0.000000,7.066153,12.321802,0.248664
1649345383.132780,13062.000000,1649345383.132449,0.000000,0.000000,1.000000,0.000000,0.000000,0.000000,0.000000,7.055897,12.333473,0.200652
1649345383.234108,13063.000000,1649345383.233792,0.000000,0.000000,1.000000,0.000000,0.000000,0.000000,0.000000,7.042949,12.347750,0.141004
1649345383.333399,13064.000000,1649345383.332979,0.000000,0.000000,1.000000,0.000000,0.000000,0.000000,0.000000,7.028583,12.362267,0.073509
1649345383.433488,13065.000000,1649345383.433141,0.000000,0.000000,1.000000,0.000000,0.000000,0.000000,0.000000,7.021643,12.369336,0.042137
1649345383.539345,13066.000000,1649345383.537916,0.000000,0.000000,1.000000,0.000000,0.000000,0.000000,0.000000,7.014107,12.376981,0.005955
1649345383.633072,13067.000000,1649345383.632713,0.000000,0.000000,1.000000,0.000000,0.000000,0.000000,0.000000,7.012567,12.379702,0.001493
1649345383.736009,13068.000000,1649345383.735338,0.000000,0.000000,1.000000,0.000000,0.000000,0.000000,0.000000,7.015604,12.376676,0.020203
1649345383.833172,13069.000000,1649345383.832882,0.000000,0.000000,1.000000,0.000000,0.000000,0.000000,0.000000,7.020769,12.370415,0.051426
1649345383.934854,13070.000000,1649345383.934136,0.000000,0.000000,1.000000,0.000000,0.000000,0.000000,0.000000,7.027925,12.361122,0.088943
1649345384.035352,13071.000000,1649345384.034768,0.000000,0.000000,1.000000,0.000000,0.000000,0.000000,0.000000,7.029302,12.357721,0.092909
1649345384.135248,13072.000000,1649345384.134569,0.000000,0.000000,1.000000,0.000000,0.000000,0.000000,0.000000,7.033930,12.351183,0.115467
1649345384.232555,13073.000000,1649345384.232333,0.000000,0.000000,1.000000,0.000000,0.000000,0.000000,0.000000,7.039434,12.342791,0.147755
1649345384.336470,13074.000000,1649345384.335048,0.000000,0.000000,1.000000,0.000000,0.000000,0.000000,0.000000,7.043566,12.337037,0.165128
1649345384.437278,13075.000000,1649345384.436337,0.000000,0.000000,1.000000,0.000000,0.000000,0.000000,0.000000,7.043115,12.334886,0.170571
1649345384.533178,13076.000000,1649345384.532789,0.000000,0.000000,1.000000,0.000000,0.000000,0.000000,0.000000,7.045965,12.330695,0.191974
1649345384.633607,13077.000000,1649345384.633345,0.000000,0.000000,1.000000,0.000000,0.000000,0.000000,0.000000,7.050835,12.325678,0.224622
1649345384.735629,13078.000000,1649345384.734952,0.000000,0.000000,1.000000,0.000000,0.000000,0.000000,0.000000,7.057602,12.317712,0.265588
1649345384.833482,13079.000000,1649345384.833157,0.000000,0.000000,1.000000,0.000000,0.000000,0.000000,0.000000,7.066142,12.310251,0.313661
1649345384.934379,13080.000000,1649345384.933826,0.000000,0.000000,1.000000,0.000000,0.000000,0.000000,0.000000,7.074152,12.302197,0.367672
1649345385.032498,13081.000000,1649345385.032188,0.000000,0.000000,1.000000,0.000000,0.000000,0.000000,0.000000,7.077279,12.300145,0.394233
1649345385.133279,13082.000000,1649345385.132833,0.000000,0.000000,1.000000,0.000000,0.000000,0.000000,0.000000,7.081236,12.296135,0.422644
1649345385.234226,13083.000000,1649345385.233886,0.000000,0.000000,1.000000,0.000000,0.000000,0.000000,0.000000,7.085969,12.290280,0.457633
1649345385.333866,13084.000000,1649345385.333404,0.000000,0.000000,1.000000,0.000000,0.000000,0.000000,0.000000,7.090337,12.284873,0.494857
1649345385.434724,13085.000000,1649345385.434259,0.000000,0.000000,1.000000,0.000000,0.000000,0.000000,0.000000,7.095444,12.278808,0.519664
1649345385.533062,13086.000000,1649345385.532654,0.000000,0.000000,1.000000,0.000000,0.000000,0.000000,0.000000,7.095786,12.279766,0.507529
1649345385.633844,13087.000000,1649345385.633486,0.000000,0.000000,1.000000,0.000000,0.000000,0.000000,0.000000,7.098173,12.278629,0.512402
1649345385.734709,13088.000000,1649345385.734223,0.000000,0.000000,1.000000,0.000000,0.000000,0.000000,0.000000,7.102491,12.275506,0.529574
1649345385.833390,13089.000000,1649345385.833004,0.000000,0.000000,1.000000,0.000000,0.000000,0.000000,0.000000,7.107539,12.272690,0.544827
1649345385.933724,13090.000000,1649345385.933125,0.000000,0.000000,1.000000,0.000000,0.000000,0.000000,0.000000,7.113269,12.269073,0.570327
1649345386.032640,13091.000000,1649345386.032473,0.000000,0.000000,1.000000,0.000000,0.000000,0.000000,0.000000,7.119632,12.265793,0.603217
1649345386.134064,13092.000000,1649345386.133478,0.000000,0.000000,1.000000,0.000000,0.000000,0.000000,0.000000,7.125493,12.260654,0.637517
1649345386.232387,13093.000000,1649345386.232155,0.000000,0.000000,1.000000,0.000000,0.000000,0.000000,0.000000,7.133050,12.255945,0.675552
1649345386.339948,13094.000000,1649345386.337722,0.000000,0.000000,1.000000,0.000000,0.000000,0.000000,0.000000,7.140015,12.251650,0.714710
1649345386.436236,13095.000000,1649345386.435132,0.000000,0.000000,1.000000,0.000000,0.000000,0.000000,0.000000,7.145319,12.247749,0.750064
1649345386.533380,13096.000000,1649345386.532899,0.000000,0.000000,1.000000,0.000000,0.000000,0.000000,0.000000,7.150137,12.244225,0.788185
1649345386.633456,13097.000000,1649345386.633132,0.000000,0.000000,1.000000,0.000000,0.000000,0.000000,0.000000,7.154491,12.241059,0.824892
1649345386.733062,13098.000000,1649345386.732579,0.000000,0.000000,1.000000,0.000000,0.000000,0.000000,0.000000,7.158406,12.237141,0.860208
1649345386.835953,13099.000000,1649345386.835207,0.000000,0.000000,1.000000,0.000000,0.000000,0.000000,0.000000,7.155361,12.239057,0.863515
1649345386.933793,13100.000000,1649345386.933366,0.000000,0.000000,1.000000,0.000000,0.000000,0.000000,0.000000,7.154481,12.238841,0.860321
1649345387.033395,13101.000000,1649345387.032972,0.000000,0.000000,1.000000,0.000000,0.000000,0.000000,0.000000,7.154571,12.237691,0.867055
1649345387.134503,13102.000000,1649345387.133928,0.000000,0.000000,1.000000,0.000000,0.000000,0.000000,0.000000,7.146863,12.244377,0.838977
1649345387.233347,13103.000000,1649345387.232990,0.000000,0.000000,1.000000,0.000000,0.000000,0.000000,0.000000,7.137268,12.254081,0.788051
1649345387.334199,13104.000000,1649345387.333379,0.000000,0.000000,1.000000,0.000000,0.000000,0.000000,0.000000,7.124836,12.267692,0.716116
1649345387.432644,13105.000000,1649345387.432286,0.000000,0.000000,1.000000,0.000000,0.000000,0.000000,0.000000,7.117399,12.277317,0.671740
1649345387.534256,13106.000000,1649345387.533410,0.000000,0.000000,1.000000,0.000000,0.000000,0.000000,0.000000,7.113619,12.283142,0.651484
1649345387.635377,13107.000000,1649345387.634700,0.000000,0.000000,1.000000,0.000000,0.000000,0.000000,0.000000,7.112221,12.285355,0.645550
1649345387.734392,13108.000000,1649345387.733563,0.000000,0.000000,1.000000,0.000000,0.000000,0.000000,0.000000,7.106537,12.291781,0.605797
1649345387.832658,13109.000000,1649345387.832366,0.000000,0.000000,1.000000,0.000000,0.000000,0.000000,0.000000,7.095728,12.301081,0.558665
1649345387.934177,13110.000000,1649345387.933232,0.000000,0.000000,1.000000,0.000000,0.000000,0.000000,0.000000,7.089920,12.305439,0.518244
1649345388.032727,13111.000000,1649345388.032314,0.000000,0.000000,1.000000,0.000000,0.000000,0.000000,0.000000,7.081223,12.312747,0.473044
1649345388.133110,13112.000000,1649345388.132617,0.000000,0.000000,1.000000,0.000000,0.000000,0.000000,0.000000,7.077450,12.316285,0.454785
1649345388.240710,13113.000000,1649345388.239489,0.000000,0.000000,1.000000,0.000000,0.000000,0.000000,0.000000,7.077250,12.317342,0.453534
1649345388.333869,13114.000000,1649345388.333512,0.000000,0.000000,1.000000,0.000000,0.000000,0.000000,0.000000,7.073881,12.323690,0.421022
1649345388.434421,13115.000000,1649345388.434080,0.000000,0.000000,1.000000,0.000000,0.000000,0.000000,0.000000,7.072972,12.325213,0.409365
1649345388.533038,13116.000000,1649345388.532552,0.000000,0.000000,1.000000,0.000000,0.000000,0.000000,0.000000,7.074388,12.324356,0.414508
1649345388.635664,13117.000000,1649345388.634996,0.000000,0.000000,1.000000,0.000000,0.000000,0.000000,0.000000,7.076901,12.320168,0.409144
1649345388.733203,13118.000000,1649345388.732784,0.000000,0.000000,1.000000,0.000000,0.000000,0.000000,0.000000,7.080438,12.317212,0.406601
1649345388.832699,13119.000000,1649345388.832402,0.000000,0.000000,1.000000,0.000000,0.000000,0.000000,0.000000,7.084930,12.312162,0.409987
1649345388.938288,13120.000000,1649345388.937169,0.000000,0.000000,1.000000,0.000000,0.000000,0.000000,0.000000,7.081582,12.313878,0.381954
1649345389.038318,13121.000000,1649345389.037326,0.000000,0.000000,1.000000,0.000000,0.000000,0.000000,0.000000,7.080644,12.311083,0.361711
1649345389.133271,13122.000000,1649345389.132749,0.000000,0.000000,1.000000,0.000000,0.000000,0.000000,0.000000,7.083076,12.306217,0.358648
1649345389.235137,13123.000000,1649345389.234693,0.000000,0.000000,1.000000,0.000000,0.000000,0.000000,0.000000,7.078870,12.308133,0.324486
1649345389.333169,13124.000000,1649345389.332919,0.000000,0.000000,1.000000,0.000000,0.000000,0.000000,0.000000,7.077121,12.307734,0.312947
1649345389.433145,13125.000000,1649345389.432826,0.000000,0.000000,1.000000,0.000000,0.000000,0.000000,0.000000,7.072247,12.311691,0.279579
1649345389.535131,13126.000000,1649345389.533678,0.000000,0.000000,1.000000,0.000000,0.000000,0.000000,0.000000,7.069882,12.314305,0.268047
1649345389.633149,13127.000000,1649345389.632768,0.000000,0.000000,1.000000,0.000000,0.000000,0.000000,0.000000,7.062262,12.323274,0.234735
1649345389.736244,13128.000000,1649345389.735453,0.000000,0.000000,1.000000,0.000000,0.000000,0.000000,0.000000,7.059504,12.326234,0.225726
1649345389.834037,13129.000000,1649345389.833393,0.000000,0.000000,1.000000,0.000000,0.000000,0.000000,0.000000,7.053717,12.333319,0.204554
1649345389.934656,13130.000000,1649345389.934283,0.000000,0.000000,1.000000,0.000000,0.000000,0.000000,0.000000,7.046167,12.342106,0.169311
1649345390.032697,13131.000000,1649345390.032381,0.000000,0.000000,1.000000,0.000000,0.000000,0.000000,0.000000,7.043512,12.344847,0.161736
1649345390.132721,13132.000000,1649345390.132382,0.000000,0.000000,1.000000,0.000000,0.000000,0.000000,0.000000,7.037853,12.351683,0.129901
1649345390.233426,13133.000000,1649345390.232951,0.000000,0.000000,1.000000,0.000000,0.000000,0.000000,0.000000,7.029365,12.362377,0.081272
1649345390.334966,13134.000000,1649345390.334139,0.000000,0.000000,1.000000,0.000000,0.000000,0.000000,0.000000,7.019311,12.374511,0.022233
1649345390.433579,13135.000000,1649345390.433255,0.000000,0.000000,1.000000,0.000000,0.000000,0.000000,0.000000,7.008889,12.385797,-0.032201
1649345390.542071,13136.000000,1649345390.539660,0.000000,0.000000,1.000000,0.000000,0.000000,0.000000,0.000000,6.998143,12.397346,-0.093442
1649345390.633311,13137.000000,1649345390.632723,0.000000,0.000000,1.000000,0.000000,0.000000,0.000000,0.000000,6.994745,12.401488,-0.118396
1649345390.735424,13138.000000,1649345390.734762,0.000000,0.000000,1.000000,0.000000,0.000000,0.000000,0.000000,6.988480,12.408441,-0.156903
1649345390.834306,13139.000000,1649345390.833843,0.000000,0.000000,1.000000,0.000000,0.000000,0.000000,0.000000,6.981691,12.416951,-0.209191
1649345390.933005,13140.000000,1649345390.932701,0.000000,0.000000,1.000000,0.000000,0.000000,0.000000,0.000000,6.974415,12.428013,-0.269808
1649345391.034199,13141.000000,1649345391.033700,0.000000,0.000000,1.000000,0.000000,0.000000,0.000000,0.000000,6.973231,12.431654,-0.292386
1649345391.133300,13142.000000,1649345391.132911,0.000000,0.000000,1.000000,0.000000,0.000000,0.000000,0.000000,6.970164,12.435914,-0.330877
1649345391.233633,13143.000000,1649345391.233330,0.000000,0.000000,1.000000,0.000000,0.000000,0.000000,0.000000,6.965312,12.439673,-0.365259
1649345391.333317,13144.000000,1649345391.332850,0.000000,0.000000,1.000000,0.000000,0.000000,0.000000,0.000000,6.960956,12.444052,-0.404548
1649345391.434029,13145.000000,1649345391.433678,0.000000,0.000000,1.000000,0.000000,0.000000,0.000000,0.000000,6.962521,12.441385,-0.411425
1649345391.535510,13146.000000,1649345391.534337,0.000000,0.000000,1.000000,0.000000,0.000000,0.000000,0.000000,6.960943,12.442984,-0.435613
1649345391.632684,13147.000000,1649345391.632405,0.000000,0.000000,1.000000,0.000000,0.000000,0.000000,0.000000,6.957476,12.445355,-0.457865
1649345391.734602,13148.000000,1649345391.734122,0.000000,0.000000,1.000000,0.000000,0.000000,0.000000,0.000000,6.959854,12.441919,-0.447617
1649345391.833299,13149.000000,1649345391.832952,0.000000,0.000000,1.000000,0.000000,0.000000,0.000000,0.000000,6.960109,12.441738,-0.457849
1649345391.932750,13150.000000,1649345391.932551,0.000000,0.000000,1.000000,0.000000,0.000000,0.000000,0.000000,6.956162,12.445740,-0.475659
1649345392.034936,13151.000000,1649345392.034236,0.000000,0.000000,1.000000,0.000000,0.000000,0.000000,0.000000,6.958058,12.442789,-0.460427
1649345392.132582,13152.000000,1649345392.132389,0.000000,0.000000,1.000000,0.000000,0.000000,0.000000,0.000000,6.964374,12.434376,-0.424837
1649345392.241454,13153.000000,1649345392.238729,0.000000,0.000000,1.000000,0.000000,0.000000,0.000000,0.000000,6.966115,12.431739,-0.410932
1649345392.333193,13154.000000,1649345392.332950,0.000000,0.000000,1.000000,0.000000,0.000000,0.000000,0.000000,6.965698,12.431307,-0.405796
1649345392.435301,13155.000000,1649345392.434548,0.000000,0.000000,1.000000,0.000000,0.000000,0.000000,0.000000,6.969779,12.425336,-0.374435
1649345392.534560,13156.000000,1649345392.534021,0.000000,0.000000,1.000000,0.000000,0.000000,0.000000,0.000000,6.977002,12.416334,-0.340565
1649345392.635379,13157.000000,1649345392.634550,0.000000,0.000000,1.000000,0.000000,0.000000,0.000000,0.000000,6.986077,12.405590,-0.290659
1649345392.732974,13158.000000,1649345392.732311,0.000000,0.000000,1.000000,0.000000,0.000000,0.000000,0.000000,6.995782,12.392144,-0.227886
1649345392.834030,13159.000000,1649345392.833658,0.000000,0.000000,1.000000,0.000000,0.000000,0.000000,0.000000,7.007138,12.377278,-0.158532
1649345392.932885,13160.000000,1649345392.932582,0.000000,0.000000,1.000000,0.000000,0.000000,0.000000,0.000000,7.018932,12.363295,-0.087828
1649345393.033177,13161.000000,1649345393.032744,0.000000,0.000000,1.000000,0.000000,0.000000,0.000000,0.000000,7.030012,12.350187,-0.032889
1649345393.136548,13162.000000,1649345393.135374,0.000000,0.000000,1.000000,0.000000,0.000000,0.000000,0.000000,7.042569,12.336850,0.014086
1649345393.235576,13163.000000,1649345393.234926,0.000000,0.000000,1.000000,0.000000,0.000000,0.000000,0.000000,7.054306,12.324421,0.068664
1649345393.333715,13164.000000,1649345393.333029,0.000000,0.000000,1.000000,0.000000,0.000000,0.000000,0.000000,7.064149,12.312879,0.112714
1649345393.434474,13165.000000,1649345393.433739,0.000000,0.000000,1.000000,0.000000,0.000000,0.000000,0.000000,7.073271,12.298928,0.159498
1649345393.533799,13166.000000,1649345393.533166,0.000000,0.000000,1.000000,0.000000,0.000000,0.000000,0.000000,7.077331,12.294725,0.168519
1649345393.634379,13167.000000,1649345393.633799,0.000000,0.000000,1.000000,0.000000,0.000000,0.000000,0.000000,7.075512,12.298646,0.154203
1649345393.732762,13168.000000,1649345393.732446,0.000000,0.000000,1.000000,0.000000,0.000000,0.000000,0.000000,7.075787,12.299318,0.165918
1649345393.834363,13169.000000,1649345393.833857,0.000000,0.000000,1.000000,0.000000,0.000000,0.000000,0.000000,7.070417,12.304534,0.151804
1649345393.934323,13170.000000,1649345393.933778,0.000000,0.000000,1.000000,0.000000,0.000000,0.000000,0.000000,7.061919,12.312927,0.119392
1649345394.032676,13171.000000,1649345394.032472,0.000000,0.000000,1.000000,0.000000,0.000000,0.000000,0.000000,7.058130,12.315564,0.115456
1649345394.134353,13172.000000,1649345394.133884,0.000000,0.000000,1.000000,0.000000,0.000000,0.000000,0.000000,7.058813,12.316012,0.129188
1649345394.232504,13173.000000,1649345394.232269,0.000000,0.000000,1.000000,0.000000,0.000000,0.000000,0.000000,7.060457,12.314381,0.157444
1649345394.332950,13174.000000,1649345394.332621,0.000000,0.000000,1.000000,0.000000,0.000000,0.000000,0.000000,7.064099,12.309693,0.195567
1649345394.432901,13175.000000,1649345394.432590,0.000000,0.000000,1.000000,0.000000,0.000000,0.000000,0.000000,7.061992,12.311934,0.199559
1649345394.532411,13176.000000,1649345394.532161,0.000000,0.000000,1.000000,0.000000,0.000000,0.000000,0.000000,7.063185,12.310899,0.222416
1649345394.632816,13177.000000,1649345394.632525,0.000000,0.000000,1.000000,0.000000,0.000000,0.000000,0.000000,7.067499,12.307854,0.259320
1649345394.738729,13178.000000,1649345394.736134,0.000000,0.000000,1.000000,0.000000,0.000000,0.000000,0.000000,7.071484,12.304000,0.302400
1649345394.835413,13179.000000,1649345394.834361,0.000000,0.000000,1.000000,0.000000,0.000000,0.000000,0.000000,7.069699,12.305931,0.308608
