__time,/dwm1001/id_458E/pose_kf/header/seq,/dwm1001/id_458E/pose_kf/header/stamp,/dwm1001/id_458E/pose_kf/pose/orientation/pitch_deg,/dwm1001/id_458E/pose_kf/pose/orientation/roll_deg,/dwm1001/id_458E/pose_kf/pose/orientation/w,/dwm1001/id_458E/pose_kf/pose/orientation/x,/dwm1001/id_458E/pose_kf/pose/orientation/y,/dwm1001/id_458E/pose_kf/pose/orientation/yaw_deg,/dwm1001/id_458E/pose_kf/pose/orientation/z,/dwm1001/id_458E/pose_kf/pose/position/x,/dwm1001/id_458E/pose_kf/pose/position/y,/dwm1001/id_458E/pose_kf/pose/position/z
1649345434.339194,13574.000000,1649345434.338387,0.000000,0.000000,1.000000,0.000000,0.000000,0.000000,0.000000,7.018518,12.354299,0.072742
1649345434.433725,13575.000000,1649345434.433244,0.000000,0.000000,1.000000,0.000000,0.000000,0.000000,0.000000,7.021459,12.350534,0.070779
1649345434.534416,13576.000000,1649345434.533751,0.000000,0.000000,1.000000,0.000000,0.000000,0.000000,0.000000,7.025412,12.343654,0.083021
1649345434.634257,13577.000000,1649345434.633717,0.000000,0.000000,1.000000,0.000000,0.000000,0.000000,0.000000,7.032485,12.337123,0.111276
1649345434.733250,13578.000000,1649345434.732892,0.000000,0.000000,1.000000,0.000000,0.000000,0.000000,0.000000,7.040303,12.327673,0.145963
1649345434.834476,13579.000000,1649345434.834036,0.000000,0.000000,1.000000,0.000000,0.000000,0.000000,0.000000,7.041165,12.325308,0.144817
1649345434.934255,13580.000000,1649345434.933738,0.000000,0.000000,1.000000,0.000000,0.000000,0.000000,0.000000,7.044169,12.322014,0.161692
1649345435.034097,13581.000000,1649345435.033661,0.000000,0.000000,1.000000,0.000000,0.000000,0.000000,0.000000,7.043736,12.323302,0.157114
1649345435.134592,13582.000000,1649345435.134146,0.000000,0.000000,1.000000,0.000000,0.000000,0.000000,0.000000,7.046599,12.322374,0.172270
1649345435.233248,13583.000000,1649345435.232778,0.000000,0.000000,1.000000,0.000000,0.000000,0.000000,0.000000,7.050387,12.320441,0.198266
1649345435.332938,13584.000000,1649345435.332677,0.000000,0.000000,1.000000,0.000000,0.000000,0.000000,0.000000,7.056129,12.315383,0.233808
1649345435.435750,13585.000000,1649345435.434440,0.000000,0.000000,1.000000,0.000000,0.000000,0.000000,0.000000,7.053889,12.317196,0.232478
1649345435.533409,13586.000000,1649345435.533060,0.000000,0.000000,1.000000,0.000000,0.000000,0.000000,0.000000,7.052832,12.317864,0.243344
1649345435.632528,13587.000000,1649345435.632236,0.000000,0.000000,1.000000,0.000000,0.000000,0.000000,0.000000,7.055082,12.314174,0.266700
1649345435.734938,13588.000000,1649345435.733622,0.000000,0.000000,1.000000,0.000000,0.000000,0.000000,0.000000,7.051728,12.317277,0.256841
1649345435.832812,13589.000000,1649345435.832576,0.000000,0.000000,1.000000,0.000000,0.000000,0.000000,0.000000,7.046359,12.322428,0.231252
1649345435.934772,13590.000000,1649345435.934302,0.000000,0.000000,1.000000,0.000000,0.000000,0.000000,0.000000,7.045646,12.322955,0.225288
1649345436.032752,13591.000000,1649345436.032348,0.000000,0.000000,1.000000,0.000000,0.000000,0.000000,0.000000,7.042794,12.325650,0.198649
1649345436.135865,13592.000000,1649345436.135461,0.000000,0.000000,1.000000,0.000000,0.000000,0.000000,0.000000,7.044471,12.324933,0.198987
1649345436.233960,13593.000000,1649345436.233190,0.000000,0.000000,1.000000,0.000000,0.000000,0.000000,0.000000,7.047153,12.322082,0.215531
1649345436.333709,13594.000000,1649345436.333091,0.000000,0.000000,1.000000,0.000000,0.000000,0.000000,0.000000,7.050777,12.317223,0.241146
1649345436.432682,13595.000000,1649345436.432310,0.000000,0.000000,1.000000,0.000000,0.000000,0.000000,0.000000,7.055280,12.311569,0.273000
1649345436.537019,13596.000000,1649345436.536195,0.000000,0.000000,1.000000,0.000000,0.000000,0.000000,0.000000,7.061692,12.302998,0.313207
1649345436.636894,13597.000000,1649345436.636147,0.000000,0.000000,1.000000,0.000000,0.000000,0.000000,0.000000,7.068798,12.294966,0.347654
1649345436.732684,13598.000000,1649345436.732388,0.000000,0.000000,1.000000,0.000000,0.000000,0.000000,0.000000,7.070000,12.295096,0.343454
1649345436.834613,13599.000000,1649345436.834035,0.000000,0.000000,1.000000,0.000000,0.000000,0.000000,0.000000,7.068891,12.298577,0.321535
1649345436.932835,13600.000000,1649345436.932398,0.000000,0.000000,1.000000,0.000000,0.000000,0.000000,0.000000,7.071054,12.299759,0.307652
1649345437.034920,13601.000000,1649345437.034517,0.000000,0.000000,1.000000,0.000000,0.000000,0.000000,0.000000,7.067586,12.306390,0.269253
1649345437.134201,13602.000000,1649345437.133142,0.000000,0.000000,1.000000,0.000000,0.000000,0.000000,0.000000,7.068621,12.308338,0.259007
1649345437.236357,13603.000000,1649345437.235234,0.000000,0.000000,1.000000,0.000000,0.000000,0.000000,0.000000,7.071733,12.308029,0.261281
1649345437.333653,13604.000000,1649345437.333141,0.000000,0.000000,1.000000,0.000000,0.000000,0.000000,0.000000,7.077891,12.304494,0.282017
1649345437.434023,13605.000000,1649345437.433313,0.000000,0.000000,1.000000,0.000000,0.000000,0.000000,0.000000,7.085824,12.299010,0.313984
1649345437.532723,13606.000000,1649345437.532256,0.000000,0.000000,1.000000,0.000000,0.000000,0.000000,0.000000,7.093233,12.291698,0.333290
1649345437.633325,13607.000000,1649345437.632991,0.000000,0.000000,1.000000,0.000000,0.000000,0.000000,0.000000,7.101218,12.282677,0.346867
1649345437.733015,13608.000000,1649345437.732661,0.000000,0.000000,1.000000,0.000000,0.000000,0.000000,0.000000,7.108640,12.274245,0.358153
1649345437.835758,13609.000000,1649345437.835104,0.000000,0.000000,1.000000,0.000000,0.000000,0.000000,0.000000,7.116603,12.265301,0.364809
1649345437.934720,13610.000000,1649345437.933908,0.000000,0.000000,1.000000,0.000000,0.000000,0.000000,0.000000,7.125062,12.255894,0.363789
1649345438.035067,13611.000000,1649345438.033987,0.000000,0.000000,1.000000,0.000000,0.000000,0.000000,0.000000,7.133971,12.247161,0.379604
1649345438.133131,13612.000000,1649345438.132704,0.000000,0.000000,1.000000,0.000000,0.000000,0.000000,0.000000,7.142198,12.240174,0.408330
1649345438.234105,13613.000000,1649345438.233518,0.000000,0.000000,1.000000,0.000000,0.000000,0.000000,0.000000,7.150857,12.231577,0.446178
1649345438.332454,13614.000000,1649345438.332218,0.000000,0.000000,1.000000,0.000000,0.000000,0.000000,0.000000,7.158818,12.224747,0.481434
1649345438.432925,13615.000000,1649345438.432649,0.000000,0.000000,1.000000,0.000000,0.000000,0.000000,0.000000,7.166107,12.218506,0.502058
1649345438.532767,13616.000000,1649345438.532497,0.000000,0.000000,1.000000,0.000000,0.000000,0.000000,0.000000,7.171661,12.212829,0.516681
1649345438.632558,13617.000000,1649345438.632270,0.000000,0.000000,1.000000,0.000000,0.000000,0.000000,0.000000,7.176662,12.205510,0.522309
1649345438.735150,13618.000000,1649345438.734393,0.000000,0.000000,1.000000,0.000000,0.000000,0.000000,0.000000,7.180048,12.197738,0.520922
1649345438.835868,13619.000000,1649345438.835393,0.000000,0.000000,1.000000,0.000000,0.000000,0.000000,0.000000,7.183002,12.189548,0.517657
1649345438.933375,13620.000000,1649345438.933007,0.000000,0.000000,1.000000,0.000000,0.000000,0.000000,0.000000,7.185552,12.183156,0.527933
1649345439.033033,13621.000000,1649345439.032646,0.000000,0.000000,1.000000,0.000000,0.000000,0.000000,0.000000,7.187726,12.178468,0.547167
1649345439.134340,13622.000000,1649345439.133589,0.000000,0.000000,1.000000,0.000000,0.000000,0.000000,0.000000,7.190642,12.175392,0.573364
1649345439.232468,13623.000000,1649345439.232283,0.000000,0.000000,1.000000,0.000000,0.000000,0.000000,0.000000,7.193173,12.170562,0.602182
1649345439.333653,13624.000000,1649345439.333068,0.000000,0.000000,1.000000,0.000000,0.000000,0.000000,0.000000,7.195345,12.167345,0.625415
1649345439.433485,13625.000000,1649345439.433221,0.000000,0.000000,1.000000,0.000000,0.000000,0.000000,0.000000,7.198274,12.166740,0.656170
1649345439.533059,13626.000000,1649345439.532863,0.000000,0.000000,1.000000,0.000000,0.000000,0.000000,0.000000,7.199741,12.165320,0.676366
1649345439.634071,13627.000000,1649345439.633458,0.000000,0.000000,1.000000,0.000000,0.000000,0.000000,0.000000,7.200924,12.165300,0.703349
1649345439.735185,13628.000000,1649345439.734683,0.000000,0.000000,1.000000,0.000000,0.000000,0.000000,0.000000,7.201847,12.166591,0.735207
1649345439.834525,13629.000000,1649345439.833723,0.000000,0.000000,1.000000,0.000000,0.000000,0.000000,0.000000,7.203621,12.166924,0.769290
1649345439.934059,13630.000000,1649345439.933504,0.000000,0.000000,1.000000,0.000000,0.000000,0.000000,0.000000,7.205117,12.167429,0.788537
1649345440.032944,13631.000000,1649345440.032734,0.000000,0.000000,1.000000,0.000000,0.000000,0.000000,0.000000,7.206354,12.169174,0.812085
1649345440.138037,13632.000000,1649345440.136767,0.000000,0.000000,1.000000,0.000000,0.000000,0.000000,0.000000,7.207353,12.170986,0.838939
1649345440.238267,13633.000000,1649345440.237430,0.000000,0.000000,1.000000,0.000000,0.000000,0.000000,0.000000,7.208135,12.172846,0.868137
1649345440.336181,13634.000000,1649345440.334955,0.000000,0.000000,1.000000,0.000000,0.000000,0.000000,0.000000,7.207626,12.174736,0.882627
1649345440.438656,13635.000000,1649345440.437632,0.000000,0.000000,1.000000,0.000000,0.000000,0.000000,0.000000,7.205909,12.176643,0.882195
1649345440.534770,13636.000000,1649345440.533784,0.000000,0.000000,1.000000,0.000000,0.000000,0.000000,0.000000,7.205244,12.177461,0.888439
1649345440.636951,13637.000000,1649345440.636002,0.000000,0.000000,1.000000,0.000000,0.000000,0.000000,0.000000,7.205582,12.178332,0.901103
1649345440.733992,13638.000000,1649345440.733565,0.000000,0.000000,1.000000,0.000000,0.000000,0.000000,0.000000,7.204695,12.178154,0.919126
1649345440.833472,13639.000000,1649345440.832923,0.000000,0.000000,1.000000,0.000000,0.000000,0.000000,0.000000,7.204840,12.178069,0.940673
1649345440.932846,13640.000000,1649345440.932522,0.000000,0.000000,1.000000,0.000000,0.000000,0.000000,0.000000,7.204876,12.178069,0.964784
1649345441.033540,13641.000000,1649345441.033146,0.000000,0.000000,1.000000,0.000000,0.000000,0.000000,0.000000,7.204814,12.177054,0.973597
1649345441.133332,13642.000000,1649345441.132747,0.000000,0.000000,1.000000,0.000000,0.000000,0.000000,0.000000,7.204666,12.176168,0.974998
1649345441.235024,13643.000000,1649345441.233983,0.000000,0.000000,1.000000,0.000000,0.000000,0.000000,0.000000,7.200080,12.181945,0.940277
1649345441.333215,13644.000000,1649345441.332777,0.000000,0.000000,1.000000,0.000000,0.000000,0.000000,0.000000,7.196769,12.186367,0.904843
1649345441.434077,13645.000000,1649345441.433429,0.000000,0.000000,1.000000,0.000000,0.000000,0.000000,0.000000,7.193588,12.190582,0.876066
1649345441.534029,13646.000000,1649345441.533353,0.000000,0.000000,1.000000,0.000000,0.000000,0.000000,0.000000,7.189452,12.193494,0.844065
1649345441.633392,13647.000000,1649345441.632984,0.000000,0.000000,1.000000,0.000000,0.000000,0.000000,0.000000,7.187700,12.194075,0.813071
1649345441.732655,13648.000000,1649345441.732358,0.000000,0.000000,1.000000,0.000000,0.000000,0.000000,0.000000,7.186027,12.194630,0.798431
1649345441.835695,13649.000000,1649345441.834957,0.000000,0.000000,1.000000,0.000000,0.000000,0.000000,0.000000,7.185526,12.194068,0.795488
1649345441.933293,13650.000000,1649345441.932887,0.000000,0.000000,1.000000,0.000000,0.000000,0.000000,0.000000,7.178503,12.200084,0.775557
1649345442.033656,13651.000000,1649345442.032886,0.000000,0.000000,1.000000,0.000000,0.000000,0.000000,0.000000,7.174058,12.203577,0.770009
1649345442.133560,13652.000000,1649345442.132898,0.000000,0.000000,1.000000,0.000000,0.000000,0.000000,0.000000,7.169884,12.205765,0.762150
1649345442.234099,13653.000000,1649345442.233441,0.000000,0.000000,1.000000,0.000000,0.000000,0.000000,0.000000,7.167067,12.207804,0.761769
1649345442.335096,13654.000000,1649345442.333895,0.000000,0.000000,1.000000,0.000000,0.000000,0.000000,0.000000,7.165540,12.208607,0.752440
1649345442.434136,13655.000000,1649345442.433660,0.000000,0.000000,1.000000,0.000000,0.000000,0.000000,0.000000,7.157602,12.218055,0.708736
1649345442.535297,13656.000000,1649345442.534494,0.000000,0.000000,1.000000,0.000000,0.000000,0.000000,0.000000,7.151258,12.223654,0.675670
1649345442.634587,13657.000000,1649345442.634078,0.000000,0.000000,1.000000,0.000000,0.000000,0.000000,0.000000,7.148617,12.226690,0.661739
1649345442.734750,13658.000000,1649345442.733448,0.000000,0.000000,1.000000,0.000000,0.000000,0.000000,0.000000,7.147300,12.228389,0.662160
1649345442.834074,13659.000000,1649345442.833648,0.000000,0.000000,1.000000,0.000000,0.000000,0.000000,0.000000,7.147235,12.231003,0.671513
1649345442.935375,13660.000000,1649345442.934409,0.000000,0.000000,1.000000,0.000000,0.000000,0.000000,0.000000,7.147256,12.230117,0.670870
1649345443.032560,13661.000000,1649345443.032327,0.000000,0.000000,1.000000,0.000000,0.000000,0.000000,0.000000,7.148446,12.227021,0.679180
1649345443.133854,13662.000000,1649345443.133410,0.000000,0.000000,1.000000,0.000000,0.000000,0.000000,0.000000,7.149642,12.221848,0.679132
1649345443.232493,13663.000000,1649345443.232268,0.000000,0.000000,1.000000,0.000000,0.000000,0.000000,0.000000,7.142113,12.215823,0.642833
1649345443.334756,13664.000000,1649345443.333777,0.000000,0.000000,1.000000,0.000000,0.000000,0.000000,0.000000,7.132895,12.217736,0.587935
1649345443.432596,13665.000000,1649345443.432279,0.000000,0.000000,1.000000,0.000000,0.000000,0.000000,0.000000,7.121016,12.224970,0.515276
1649345443.534467,13666.000000,1649345443.533833,0.000000,0.000000,1.000000,0.000000,0.000000,0.000000,0.000000,7.114284,12.229580,0.473268
1649345443.633433,13667.000000,1649345443.632951,0.000000,0.000000,1.000000,0.000000,0.000000,0.000000,0.000000,7.112432,12.232789,0.437347
1649345443.734053,13668.000000,1649345443.733366,0.000000,0.000000,1.000000,0.000000,0.000000,0.000000,0.000000,7.113010,12.233576,0.407313
1649345443.833677,13669.000000,1649345443.833309,0.000000,0.000000,1.000000,0.000000,0.000000,0.000000,0.000000,7.114785,12.234254,0.387802
1649345443.934482,13670.000000,1649345443.933988,0.000000,0.000000,1.000000,0.000000,0.000000,0.000000,0.000000,7.117679,12.233741,0.371952
1649345444.034317,13671.000000,1649345444.033994,0.000000,0.000000,1.000000,0.000000,0.000000,0.000000,0.000000,7.120523,12.233198,0.360429
1649345444.135340,13672.000000,1649345444.134574,0.000000,0.000000,1.000000,0.000000,0.000000,0.000000,0.000000,7.123306,12.231540,0.344996
1649345444.233316,13673.000000,1649345444.233022,0.000000,0.000000,1.000000,0.000000,0.000000,0.000000,0.000000,7.127107,12.229928,0.345978
1649345444.332845,13674.000000,1649345444.332581,0.000000,0.000000,1.000000,0.000000,0.000000,0.000000,0.000000,7.125311,12.234908,0.329627
1649345444.433834,13675.000000,1649345444.433510,0.000000,0.000000,1.000000,0.000000,0.000000,0.000000,0.000000,7.125858,12.238475,0.331327
1649345444.538810,13676.000000,1649345444.537933,0.000000,0.000000,1.000000,0.000000,0.000000,0.000000,0.000000,7.127525,12.238518,0.346298
1649345444.632715,13677.000000,1649345444.632438,0.000000,0.000000,1.000000,0.000000,0.000000,0.000000,0.000000,7.130242,12.236322,0.370735
1649345444.732805,13678.000000,1649345444.732430,0.000000,0.000000,1.000000,0.000000,0.000000,0.000000,0.000000,7.132850,12.234200,0.384843
1649345444.834235,13679.000000,1649345444.833616,0.000000,0.000000,1.000000,0.000000,0.000000,0.000000,0.000000,7.136435,12.232157,0.408355
1649345444.934833,13680.000000,1649345444.933743,0.000000,0.000000,1.000000,0.000000,0.000000,0.000000,0.000000,7.140931,12.229107,0.437616
1649345445.034854,13681.000000,1649345445.034441,0.000000,0.000000,1.000000,0.000000,0.000000,0.000000,0.000000,7.144092,12.226206,0.469106
1649345445.135800,13682.000000,1649345445.135419,0.000000,0.000000,1.000000,0.000000,0.000000,0.000000,0.000000,7.147071,12.223457,0.492192
1649345445.234460,13683.000000,1649345445.233750,0.000000,0.000000,1.000000,0.000000,0.000000,0.000000,0.000000,7.149870,12.218679,0.507974
1649345445.333687,13684.000000,1649345445.333296,0.000000,0.000000,1.000000,0.000000,0.000000,0.000000,0.000000,7.153580,12.213088,0.532039
1649345445.433730,13685.000000,1649345445.432855,0.000000,0.000000,1.000000,0.000000,0.000000,0.000000,0.000000,7.158143,12.210016,0.561591
1649345445.532779,13686.000000,1649345445.532182,0.000000,0.000000,1.000000,0.000000,0.000000,0.000000,0.000000,7.162409,12.207154,0.595552
1649345445.632711,13687.000000,1649345445.632319,0.000000,0.000000,1.000000,0.000000,0.000000,0.000000,0.000000,7.166383,12.204496,0.628850
1649345445.733633,13688.000000,1649345445.733078,0.000000,0.000000,1.000000,0.000000,0.000000,0.000000,0.000000,7.163530,12.208578,0.623557
1649345445.832578,13689.000000,1649345445.832324,0.000000,0.000000,1.000000,0.000000,0.000000,0.000000,0.000000,7.162958,12.211386,0.611081
1649345445.932929,13690.000000,1649345445.932684,0.000000,0.000000,1.000000,0.000000,0.000000,0.000000,0.000000,7.163457,12.212977,0.594158
1649345446.034882,13691.000000,1649345446.034255,0.000000,0.000000,1.000000,0.000000,0.000000,0.000000,0.000000,7.157338,12.218863,0.564938
1649345446.136811,13692.000000,1649345446.135756,0.000000,0.000000,1.000000,0.000000,0.000000,0.000000,0.000000,7.152615,12.223339,0.552999
1649345446.236461,13693.000000,1649345446.235337,0.000000,0.000000,1.000000,0.000000,0.000000,0.000000,0.000000,7.143778,12.234100,0.509280
1649345446.333968,13694.000000,1649345446.333493,0.000000,0.000000,1.000000,0.000000,0.000000,0.000000,0.000000,7.137621,12.239867,0.487556
1649345446.434700,13695.000000,1649345446.434147,0.000000,0.000000,1.000000,0.000000,0.000000,0.000000,0.000000,7.135106,12.241986,0.482942
1649345446.535308,13696.000000,1649345446.533514,0.000000,0.000000,1.000000,0.000000,0.000000,0.000000,0.000000,7.133861,12.241744,0.472977
1649345446.635039,13697.000000,1649345446.634482,0.000000,0.000000,1.000000,0.000000,0.000000,0.000000,0.000000,7.134909,12.238183,0.460308
1649345446.734824,13698.000000,1649345446.734205,0.000000,0.000000,1.000000,0.000000,0.000000,0.000000,0.000000,7.137027,12.234770,0.463610
1649345446.835284,13699.000000,1649345446.834964,0.000000,0.000000,1.000000,0.000000,0.000000,0.000000,0.000000,7.140150,12.231510,0.479807
1649345446.934049,13700.000000,1649345446.933500,0.000000,0.000000,1.000000,0.000000,0.000000,0.000000,0.000000,7.143120,12.228408,0.505929
1649345447.033300,13701.000000,1649345447.032988,0.000000,0.000000,1.000000,0.000000,0.000000,0.000000,0.000000,7.147025,12.225465,0.524591
1649345447.132994,13702.000000,1649345447.132659,0.000000,0.000000,1.000000,0.000000,0.000000,0.000000,0.000000,7.150712,12.223773,0.551383
1649345447.234090,13703.000000,1649345447.233390,0.000000,0.000000,1.000000,0.000000,0.000000,0.000000,0.000000,7.148730,12.227631,0.542384
1649345447.333998,13704.000000,1649345447.333571,0.000000,0.000000,1.000000,0.000000,0.000000,0.000000,0.000000,7.147936,12.229091,0.530503
1649345447.435634,13705.000000,1649345447.434585,0.000000,0.000000,1.000000,0.000000,0.000000,0.000000,0.000000,7.148269,12.229370,0.535233
1649345447.533868,13706.000000,1649345447.533273,0.000000,0.000000,1.000000,0.000000,0.000000,0.000000,0.000000,7.149667,12.229623,0.549445
1649345447.634137,13707.000000,1649345447.633555,0.000000,0.000000,1.000000,0.000000,0.000000,0.000000,0.000000,7.150978,12.229851,0.571119
1649345447.736428,13708.000000,1649345447.735813,0.000000,0.000000,1.000000,0.000000,0.000000,0.000000,0.000000,7.152203,12.230054,0.599920
1649345447.834657,13709.000000,1649345447.834051,0.000000,0.000000,1.000000,0.000000,0.000000,0.000000,0.000000,7.153343,12.226964,0.616965
1649345447.933314,13710.000000,1649345447.932879,0.000000,0.000000,1.000000,0.000000,0.000000,0.000000,0.000000,7.154401,12.222951,0.622705
1649345448.032286,13711.000000,1649345448.032083,0.000000,0.000000,1.000000,0.000000,0.000000,0.000000,0.000000,7.156469,12.218078,0.634526
1649345448.135101,13712.000000,1649345448.134404,0.000000,0.000000,1.000000,0.000000,0.000000,0.000000,0.000000,7.158396,12.214587,0.640072
1649345448.233603,13713.000000,1649345448.233182,0.000000,0.000000,1.000000,0.000000,0.000000,0.000000,0.000000,7.160187,12.212412,0.654916
1649345448.332526,13714.000000,1649345448.332269,0.000000,0.000000,1.000000,0.000000,0.000000,0.000000,0.000000,7.161844,12.211486,0.677051
1649345448.433269,13715.000000,1649345448.432865,0.000000,0.000000,1.000000,0.000000,0.000000,0.000000,0.000000,7.162281,12.209562,0.682767
1649345448.541177,13716.000000,1649345448.540111,0.000000,0.000000,1.000000,0.000000,0.000000,0.000000,0.000000,7.163747,12.207787,0.695304
1649345448.634865,13717.000000,1649345448.634309,0.000000,0.000000,1.000000,0.000000,0.000000,0.000000,0.000000,7.165092,12.205067,0.703085
1649345448.733586,13718.000000,1649345448.733099,0.000000,0.000000,1.000000,0.000000,0.000000,0.000000,0.000000,7.167411,12.202548,0.719201
1649345448.834762,13719.000000,1649345448.834320,0.000000,0.000000,1.000000,0.000000,0.000000,0.000000,0.000000,7.168467,12.200225,0.721523
1649345448.934629,13720.000000,1649345448.934000,0.000000,0.000000,1.000000,0.000000,0.000000,0.000000,0.000000,7.169417,12.198091,0.719485
1649345449.034340,13721.000000,1649345449.033876,0.000000,0.000000,1.000000,0.000000,0.000000,0.000000,0.000000,7.169177,12.196139,0.712469
1649345449.134430,13722.000000,1649345449.133856,0.000000,0.000000,1.000000,0.000000,0.000000,0.000000,0.000000,7.168905,12.194361,0.698278
1649345449.233169,13723.000000,1649345449.232829,0.000000,0.000000,1.000000,0.000000,0.000000,0.000000,0.000000,7.167517,12.193840,0.697395
1649345449.333293,13724.000000,1649345449.332978,0.000000,0.000000,1.000000,0.000000,0.000000,0.000000,0.000000,7.167260,12.193414,0.692356
1649345449.433203,13725.000000,1649345449.432740,0.000000,0.000000,1.000000,0.000000,0.000000,0.000000,0.000000,7.165895,12.193076,0.699473
1649345449.533225,13726.000000,1649345449.532676,0.000000,0.000000,1.000000,0.000000,0.000000,0.000000,0.000000,7.165669,12.192819,0.715025
1649345449.633138,13727.000000,1649345449.632725,0.000000,0.000000,1.000000,0.000000,0.000000,0.000000,0.000000,7.165432,12.192635,0.716877
1649345449.733429,13728.000000,1649345449.732893,0.000000,0.000000,1.000000,0.000000,0.000000,0.000000,0.000000,7.166277,12.192517,0.728166
1649345449.835514,13729.000000,1649345449.834272,0.000000,0.000000,1.000000,0.000000,0.000000,0.000000,0.000000,7.167054,12.191369,0.743660
1649345449.934536,13730.000000,1649345449.933984,0.000000,0.000000,1.000000,0.000000,0.000000,0.000000,0.000000,7.167764,12.191428,0.763172
1649345450.035784,13731.000000,1649345450.035043,0.000000,0.000000,1.000000,0.000000,0.000000,0.000000,0.000000,7.167321,12.191534,0.763935
1649345450.137014,13732.000000,1649345450.136029,0.000000,0.000000,1.000000,0.000000,0.000000,0.000000,0.000000,7.166880,12.191682,0.758001
1649345450.233639,13733.000000,1649345450.233154,0.000000,0.000000,1.000000,0.000000,0.000000,0.000000,0.000000,7.166443,12.191866,0.746466
1649345450.337647,13734.000000,1649345450.336578,0.000000,0.000000,1.000000,0.000000,0.000000,0.000000,0.000000,7.166014,12.192082,0.747327
1649345450.439982,13735.000000,1649345450.439426,0.000000,0.000000,1.000000,0.000000,0.000000,0.000000,0.000000,7.165594,12.191233,0.755249
1649345450.533158,13736.000000,1649345450.532546,0.000000,0.000000,1.000000,0.000000,0.000000,0.000000,0.000000,7.166274,12.191559,0.768330
1649345450.634984,13737.000000,1649345450.634452,0.000000,0.000000,1.000000,0.000000,0.000000,0.000000,0.000000,7.166904,12.191903,0.771829
1649345450.736069,13738.000000,1649345450.735454,0.000000,0.000000,1.000000,0.000000,0.000000,0.000000,0.000000,7.167485,12.192261,0.769361
1649345450.835200,13739.000000,1649345450.834234,0.000000,0.000000,1.000000,0.000000,0.000000,0.000000,0.000000,7.168018,12.192628,0.777307
1649345450.934158,13740.000000,1649345450.933739,0.000000,0.000000,1.000000,0.000000,0.000000,0.000000,0.000000,7.168506,12.194092,0.792015
1649345451.033234,13741.000000,1649345451.032905,0.000000,0.000000,1.000000,0.000000,0.000000,0.000000,0.000000,7.168949,12.194406,0.793839
1649345451.134840,13742.000000,1649345451.134001,0.000000,0.000000,1.000000,0.000000,0.000000,0.000000,0.000000,7.169351,12.195811,0.802660
1649345451.233311,13743.000000,1649345451.232817,0.000000,0.000000,1.000000,0.000000,0.000000,0.000000,0.000000,7.169714,12.196062,0.797221
1649345451.333702,13744.000000,1649345451.333262,0.000000,0.000000,1.000000,0.000000,0.000000,0.000000,0.000000,7.163496,12.206124,0.754726
1649345451.433836,13745.000000,1649345451.433442,0.000000,0.000000,1.000000,0.000000,0.000000,0.000000,0.000000,7.159800,12.212345,0.733200
1649345451.532577,13746.000000,1649345451.532332,0.000000,0.000000,1.000000,0.000000,0.000000,0.000000,0.000000,7.157410,12.218188,0.725387
1649345451.633178,13747.000000,1649345451.632586,0.000000,0.000000,1.000000,0.000000,0.000000,0.000000,0.000000,7.156262,12.221476,0.711395
1649345451.733504,13748.000000,1649345451.733033,0.000000,0.000000,1.000000,0.000000,0.000000,0.000000,0.000000,7.155199,12.223432,0.697951
1649345451.833857,13749.000000,1649345451.833369,0.000000,0.000000,1.000000,0.000000,0.000000,0.000000,0.000000,7.156401,12.223035,0.697959
1649345451.933610,13750.000000,1649345451.933021,0.000000,0.000000,1.000000,0.000000,0.000000,0.000000,0.000000,7.157557,12.222600,0.707650
1649345452.032495,13751.000000,1649345452.032271,0.000000,0.000000,1.000000,0.000000,0.000000,0.000000,0.000000,7.158665,12.222132,0.707263
1649345452.133010,13752.000000,1649345452.132521,0.000000,0.000000,1.000000,0.000000,0.000000,0.000000,0.000000,7.156452,12.227091,0.675432
1649345452.237308,13753.000000,1649345452.235964,0.000000,0.000000,1.000000,0.000000,0.000000,0.000000,0.000000,7.156558,12.228446,0.661057
1649345452.333981,13754.000000,1649345452.332854,0.000000,0.000000,1.000000,0.000000,0.000000,0.000000,0.000000,7.157765,12.228572,0.661846
1649345452.445006,13755.000000,1649345452.443725,0.000000,0.000000,1.000000,0.000000,0.000000,0.000000,0.000000,7.158917,12.228630,0.672344
1649345452.538842,13756.000000,1649345452.538064,0.000000,0.000000,1.000000,0.000000,0.000000,0.000000,0.000000,7.161103,12.226447,0.687301
1649345452.634940,13757.000000,1649345452.634265,0.000000,0.000000,1.000000,0.000000,0.000000,0.000000,0.000000,7.164261,12.225426,0.708123
1649345452.733229,13758.000000,1649345452.732929,0.000000,0.000000,1.000000,0.000000,0.000000,0.000000,0.000000,7.168326,12.224419,0.732924
1649345452.833779,13759.000000,1649345452.833174,0.000000,0.000000,1.000000,0.000000,0.000000,0.000000,0.000000,7.164515,12.231064,0.714729
1649345452.932923,13760.000000,1649345452.932565,0.000000,0.000000,1.000000,0.000000,0.000000,0.000000,0.000000,7.163083,12.235111,0.711755
1649345453.034252,13761.000000,1649345453.033617,0.000000,0.000000,1.000000,0.000000,0.000000,0.000000,0.000000,7.156272,12.244326,0.677428
1649345453.134624,13762.000000,1649345453.133462,0.000000,0.000000,1.000000,0.000000,0.000000,0.000000,0.000000,7.153122,12.249678,0.661458
1649345453.233538,13763.000000,1649345453.233215,0.000000,0.000000,1.000000,0.000000,0.000000,0.000000,0.000000,7.151260,12.250276,0.639742
1649345453.333256,13764.000000,1649345453.332829,0.000000,0.000000,1.000000,0.000000,0.000000,0.000000,0.000000,7.151711,12.248563,0.635128
1649345453.434549,13765.000000,1649345453.433828,0.000000,0.000000,1.000000,0.000000,0.000000,0.000000,0.000000,7.152164,12.245767,0.626769
1649345453.534231,13766.000000,1649345453.533630,0.000000,0.000000,1.000000,0.000000,0.000000,0.000000,0.000000,7.153708,12.240870,0.628535
1649345453.634657,13767.000000,1649345453.634167,0.000000,0.000000,1.000000,0.000000,0.000000,0.000000,0.000000,7.155187,12.236187,0.627914
1649345453.733798,13768.000000,1649345453.733059,0.000000,0.000000,1.000000,0.000000,0.000000,0.000000,0.000000,7.156597,12.232814,0.619353
1649345453.833724,13769.000000,1649345453.833203,0.000000,0.000000,1.000000,0.000000,0.000000,0.000000,0.000000,7.152486,12.236144,0.575763
1649345453.934589,13770.000000,1649345453.933679,0.000000,0.000000,1.000000,0.000000,0.000000,0.000000,0.000000,7.149709,12.237081,0.540562
1649345454.034489,13771.000000,1649345454.033749,0.000000,0.000000,1.000000,0.000000,0.000000,0.000000,0.000000,7.148201,12.236844,0.511043
1649345454.136368,13772.000000,1649345454.135453,0.000000,0.000000,1.000000,0.000000,0.000000,0.000000,0.000000,7.141354,12.242042,0.474921
1649345454.232605,13773.000000,1649345454.232329,0.000000,0.000000,1.000000,0.000000,0.000000,0.000000,0.000000,7.137111,12.246911,0.451061
1649345454.334808,13774.000000,1649345454.334295,0.000000,0.000000,1.000000,0.000000,0.000000,0.000000,0.000000,7.135342,12.248187,0.431737
1649345454.433967,13775.000000,1649345454.433479,0.000000,0.000000,1.000000,0.000000,0.000000,0.000000,0.000000,7.134821,12.248244,0.428882
1649345454.539173,13776.000000,1649345454.538445,0.000000,0.000000,1.000000,0.000000,0.000000,0.000000,0.000000,7.136571,12.248244,0.440208
1649345454.633983,13777.000000,1649345454.633603,0.000000,0.000000,1.000000,0.000000,0.000000,0.000000,0.000000,7.138278,12.248191,0.461883
1649345454.734047,13778.000000,1649345454.733360,0.000000,0.000000,1.000000,0.000000,0.000000,0.000000,0.000000,7.133393,12.254636,0.445053
1649345454.837005,13779.000000,1649345454.836494,0.000000,0.000000,1.000000,0.000000,0.000000,0.000000,0.000000,7.131011,12.258482,0.432416
1649345454.933576,13780.000000,1649345454.933025,0.000000,0.000000,1.000000,0.000000,0.000000,0.000000,0.000000,7.129910,12.258773,0.419780
1649345455.033714,13781.000000,1649345455.033086,0.000000,0.000000,1.000000,0.000000,0.000000,0.000000,0.000000,7.131110,12.257886,0.411186
1649345455.132462,13782.000000,1649345455.132229,0.000000,0.000000,1.000000,0.000000,0.000000,0.000000,0.000000,7.132299,12.254803,0.402441
1649345455.233327,13783.000000,1649345455.233036,0.000000,0.000000,1.000000,0.000000,0.000000,0.000000,0.000000,7.134559,12.250747,0.407262
1649345455.340203,13784.000000,1649345455.337405,0.000000,0.000000,1.000000,0.000000,0.000000,0.000000,0.000000,7.131281,12.252329,0.392017
1649345455.434160,13785.000000,1649345455.433497,0.000000,0.000000,1.000000,0.000000,0.000000,0.000000,0.000000,7.129317,12.252696,0.393012
1649345455.532657,13786.000000,1649345455.532375,0.000000,0.000000,1.000000,0.000000,0.000000,0.000000,0.000000,7.128599,12.251915,0.408772
1649345455.635226,13787.000000,1649345455.634707,0.000000,0.000000,1.000000,0.000000,0.000000,0.000000,0.000000,7.129059,12.252236,0.434631
1649345455.733875,13788.000000,1649345455.733510,0.000000,0.000000,1.000000,0.000000,0.000000,0.000000,0.000000,7.131718,12.250326,0.464481
1649345455.833904,13789.000000,1649345455.833139,0.000000,0.000000,1.000000,0.000000,0.000000,0.000000,0.000000,7.134265,12.247406,0.486007
1649345455.933758,13790.000000,1649345455.933238,0.000000,0.000000,1.000000,0.000000,0.000000,0.000000,0.000000,7.137787,12.244633,0.514824
1649345456.033075,13791.000000,1649345456.032758,0.000000,0.000000,1.000000,0.000000,0.000000,0.000000,0.000000,7.141127,12.242006,0.548973
1649345456.132861,13792.000000,1649345456.132605,0.000000,0.000000,1.000000,0.000000,0.000000,0.000000,0.000000,7.144285,12.239528,0.586566
1649345456.236930,13793.000000,1649345456.235916,0.000000,0.000000,1.000000,0.000000,0.000000,0.000000,0.000000,7.147260,12.237197,0.624175
1649345456.334984,13794.000000,1649345456.334114,0.000000,0.000000,1.000000,0.000000,0.000000,0.000000,0.000000,7.151144,12.236102,0.663353
1649345456.433453,13795.000000,1649345456.433033,0.000000,0.000000,1.000000,0.000000,0.000000,0.000000,0.000000,7.154787,12.230727,0.697525
1649345456.533188,13796.000000,1649345456.532748,0.000000,0.000000,1.000000,0.000000,0.000000,0.000000,0.000000,7.158191,12.226772,0.733293
1649345456.635648,13797.000000,1649345456.634729,0.000000,0.000000,1.000000,0.000000,0.000000,0.000000,0.000000,7.161361,12.223079,0.768932
1649345456.732961,13798.000000,1649345456.732608,0.000000,0.000000,1.000000,0.000000,0.000000,0.000000,0.000000,7.159941,12.226187,0.765687
1649345456.833759,13799.000000,1649345456.833364,0.000000,0.000000,1.000000,0.000000,0.000000,0.000000,0.000000,7.159641,12.225897,0.772728
1649345456.936029,13800.000000,1649345456.935205,0.000000,0.000000,1.000000,0.000000,0.000000,0.000000,0.000000,7.160403,12.224574,0.788030
1649345457.034847,13801.000000,1649345457.034149,0.000000,0.000000,1.000000,0.000000,0.000000,0.000000,0.000000,7.162170,12.222276,0.795117
1649345457.134741,13802.000000,1649345457.134138,0.000000,0.000000,1.000000,0.000000,0.000000,0.000000,0.000000,7.164884,12.217971,0.809646
1649345457.233271,13803.000000,1649345457.232812,0.000000,0.000000,1.000000,0.000000,0.000000,0.000000,0.000000,7.165216,12.216140,0.811144
1649345457.334899,13804.000000,1649345457.334036,0.000000,0.000000,1.000000,0.000000,0.000000,0.000000,0.000000,7.165480,12.214470,0.821118
1649345457.433287,13805.000000,1649345457.432854,0.000000,0.000000,1.000000,0.000000,0.000000,0.000000,0.000000,7.166770,12.215135,0.837610
1649345457.532600,13806.000000,1649345457.532299,0.000000,0.000000,1.000000,0.000000,0.000000,0.000000,0.000000,7.161398,12.222363,0.816794
1649345457.634150,13807.000000,1649345457.633643,0.000000,0.000000,1.000000,0.000000,0.000000,0.000000,0.000000,7.153017,12.234681,0.772322
1649345457.739773,13808.000000,1649345457.734626,0.000000,0.000000,1.000000,0.000000,0.000000,0.000000,0.000000,7.146181,12.243047,0.738299
1649345457.833459,13809.000000,1649345457.833107,0.000000,0.000000,1.000000,0.000000,0.000000,0.000000,0.000000,7.141917,12.247651,0.723243
1649345457.934671,13810.000000,1649345457.933673,0.000000,0.000000,1.000000,0.000000,0.000000,0.000000,0.000000,7.140098,12.250866,0.707871
1649345458.034705,13811.000000,1649345458.034128,0.000000,0.000000,1.000000,0.000000,0.000000,0.000000,0.000000,7.134053,12.259303,0.663195
1649345458.133137,13812.000000,1649345458.132716,0.000000,0.000000,1.000000,0.000000,0.000000,0.000000,0.000000,7.131661,12.263930,0.621121
1649345458.233197,13813.000000,1649345458.232935,0.000000,0.000000,1.000000,0.000000,0.000000,0.000000,0.000000,7.124004,12.273669,0.555810
1649345458.334468,13814.000000,1649345458.333970,0.000000,0.000000,1.000000,0.000000,0.000000,0.000000,0.000000,7.120113,12.278402,0.518304
1649345458.436706,13815.000000,1649345458.436068,0.000000,0.000000,1.000000,0.000000,0.000000,0.000000,0.000000,7.118701,12.280575,0.489800
1649345458.533542,13816.000000,1649345458.532746,0.000000,0.000000,1.000000,0.000000,0.000000,0.000000,0.000000,7.118541,12.280325,0.481261
1649345458.635007,13817.000000,1649345458.634342,0.000000,0.000000,1.000000,0.000000,0.000000,0.000000,0.000000,7.119561,12.281066,0.473340
1649345458.735003,13818.000000,1649345458.734235,0.000000,0.000000,1.000000,0.000000,0.000000,0.000000,0.000000,7.121689,12.280566,0.469237
1649345458.834304,13819.000000,1649345458.833742,0.000000,0.000000,1.000000,0.000000,0.000000,0.000000,0.000000,7.123764,12.277810,0.478473
1649345458.933228,13820.000000,1649345458.932856,0.000000,0.000000,1.000000,0.000000,0.000000,0.000000,0.000000,7.126867,12.274026,0.494031
1649345459.034637,13821.000000,1649345459.033824,0.000000,0.000000,1.000000,0.000000,0.000000,0.000000,0.000000,7.130931,12.275830,0.518846
1649345459.134702,13822.000000,1649345459.134091,0.000000,0.000000,1.000000,0.000000,0.000000,0.000000,0.000000,7.134798,12.275282,0.547655
1649345459.232686,13823.000000,1649345459.232427,0.000000,0.000000,1.000000,0.000000,0.000000,0.000000,0.000000,7.137374,12.273608,0.577016
1649345459.335334,13824.000000,1649345459.334720,0.000000,0.000000,1.000000,0.000000,0.000000,0.000000,0.000000,7.139811,12.271968,0.608465
1649345459.433633,13825.000000,1649345459.433167,0.000000,0.000000,1.000000,0.000000,0.000000,0.000000,0.000000,7.142110,12.269278,0.626541
1649345459.535285,13826.000000,1649345459.534368,0.000000,0.000000,1.000000,0.000000,0.000000,0.000000,0.000000,7.145362,12.265606,0.650300
1649345459.634733,13827.000000,1649345459.634178,0.000000,0.000000,1.000000,0.000000,0.000000,0.000000,0.000000,7.140781,12.269744,0.631894
1649345459.733155,13828.000000,1649345459.732780,0.000000,0.000000,1.000000,0.000000,0.000000,0.000000,0.000000,7.138623,12.271440,0.628703
1649345459.833612,13829.000000,1649345459.833066,0.000000,0.000000,1.000000,0.000000,0.000000,0.000000,0.000000,7.139855,12.271915,0.636894
1649345459.933033,13830.000000,1649345459.932680,0.000000,0.000000,1.000000,0.000000,0.000000,0.000000,0.000000,7.141017,12.269054,0.636642
1649345460.032255,13831.000000,1649345460.032076,0.000000,0.000000,1.000000,0.000000,0.000000,0.000000,0.000000,7.142108,12.263052,0.634741
1649345460.132399,13832.000000,1649345460.132134,0.000000,0.000000,1.000000,0.000000,0.000000,0.000000,0.000000,7.144220,12.257370,0.643360
1649345460.232695,13833.000000,1649345460.232401,0.000000,0.000000,1.000000,0.000000,0.000000,0.000000,0.000000,7.146201,12.252010,0.641093
1649345460.333015,13834.000000,1649345460.332751,0.000000,0.000000,1.000000,0.000000,0.000000,0.000000,0.000000,7.149144,12.246969,0.631612
1649345460.435598,13835.000000,1649345460.435115,0.000000,0.000000,1.000000,0.000000,0.000000,0.000000,0.000000,7.151897,12.242246,0.634579
1649345460.533100,13836.000000,1649345460.532716,0.000000,0.000000,1.000000,0.000000,0.000000,0.000000,0.000000,7.155554,12.236745,0.629329
1649345460.637338,13837.000000,1649345460.636494,0.000000,0.000000,1.000000,0.000000,0.000000,0.000000,0.000000,7.158966,12.232702,0.628300
1649345460.737136,13838.000000,1649345460.736210,0.000000,0.000000,1.000000,0.000000,0.000000,0.000000,0.000000,7.162138,12.227867,0.617614
1649345460.834434,13839.000000,1649345460.833403,0.000000,0.000000,1.000000,0.000000,0.000000,0.000000,0.000000,7.166168,12.222294,0.600906
1649345460.933075,13840.000000,1649345460.932579,0.000000,0.000000,1.000000,0.000000,0.000000,0.000000,0.000000,7.162275,12.223667,0.573608
1649345461.036856,13841.000000,1649345461.036109,0.000000,0.000000,1.000000,0.000000,0.000000,0.000000,0.000000,7.160721,12.222875,0.566837
1649345461.134625,13842.000000,1649345461.134090,0.000000,0.000000,1.000000,0.000000,0.000000,0.000000,0.000000,7.160297,12.222215,0.557193
1649345461.232822,13843.000000,1649345461.232397,0.000000,0.000000,1.000000,0.000000,0.000000,0.000000,0.000000,7.159854,12.221676,0.562548
1649345461.335071,13844.000000,1649345461.334377,0.000000,0.000000,1.000000,0.000000,0.000000,0.000000,0.000000,7.160488,12.219067,0.577445
1649345461.433467,13845.000000,1649345461.433036,0.000000,0.000000,1.000000,0.000000,0.000000,0.000000,0.000000,7.161050,12.215595,0.593406
1649345461.534077,13846.000000,1649345461.533371,0.000000,0.000000,1.000000,0.000000,0.000000,0.000000,0.000000,7.161544,12.213494,0.614391
1649345461.633169,13847.000000,1649345461.632895,0.000000,0.000000,1.000000,0.000000,0.000000,0.000000,0.000000,7.163065,12.210509,0.624840
1649345461.734377,13848.000000,1649345461.733731,0.000000,0.000000,1.000000,0.000000,0.000000,0.000000,0.000000,7.164463,12.207784,0.643707
1649345461.833501,13849.000000,1649345461.832716,0.000000,0.000000,1.000000,0.000000,0.000000,0.000000,0.000000,7.166834,12.203127,0.669010
1649345461.933588,13850.000000,1649345461.933155,0.000000,0.000000,1.000000,0.000000,0.000000,0.000000,0.000000,7.169030,12.198831,0.682707
1649345462.032954,13851.000000,1649345462.032573,0.000000,0.000000,1.000000,0.000000,0.000000,0.000000,0.000000,7.171055,12.194886,0.686860
1649345462.134737,13852.000000,1649345462.133920,0.000000,0.000000,1.000000,0.000000,0.000000,0.000000,0.000000,7.172916,12.192367,0.686690
1649345462.234092,13853.000000,1649345462.233500,0.000000,0.000000,1.000000,0.000000,0.000000,0.000000,0.000000,7.175708,12.190108,0.697700
1649345462.334542,13854.000000,1649345462.333964,0.000000,0.000000,1.000000,0.000000,0.000000,0.000000,0.000000,7.178287,12.188095,0.700071
1649345462.433778,13855.000000,1649345462.433360,0.000000,0.000000,1.000000,0.000000,0.000000,0.000000,0.000000,7.180657,12.186313,0.698184
1649345462.532797,13856.000000,1649345462.532477,0.000000,0.000000,1.000000,0.000000,0.000000,0.000000,0.000000,7.182828,12.183659,0.690606
1649345462.635881,13857.000000,1649345462.634803,0.000000,0.000000,1.000000,0.000000,0.000000,0.000000,0.000000,7.185898,12.181271,0.692102
1649345462.732483,13858.000000,1649345462.732178,0.000000,0.000000,1.000000,0.000000,0.000000,0.000000,0.000000,7.183270,12.185677,0.657952
1649345462.833970,13859.000000,1649345462.833336,0.000000,0.000000,1.000000,0.000000,0.000000,0.000000,0.000000,7.182900,12.188855,0.642882
1649345462.932922,13860.000000,1649345462.932605,0.000000,0.000000,1.000000,0.000000,0.000000,0.000000,0.000000,7.182489,12.189764,0.628407
1649345463.035643,13861.000000,1649345463.035013,0.000000,0.000000,1.000000,0.000000,0.000000,0.000000,0.000000,7.183135,12.190701,0.629044
1649345463.132949,13862.000000,1649345463.132718,0.000000,0.000000,1.000000,0.000000,0.000000,0.000000,0.000000,7.183690,12.190567,0.620796
1649345463.234032,13863.000000,1649345463.233527,0.000000,0.000000,1.000000,0.000000,0.000000,0.000000,0.000000,7.184162,12.189417,0.625809
1649345463.333699,13864.000000,1649345463.333304,0.000000,0.000000,1.000000,0.000000,0.000000,0.000000,0.000000,7.184556,12.188396,0.627409
1649345463.433806,13865.000000,1649345463.433030,0.000000,0.000000,1.000000,0.000000,0.000000,0.000000,0.000000,7.183788,12.187496,0.622506
1649345463.533561,13866.000000,1649345463.533286,0.000000,0.000000,1.000000,0.000000,0.000000,0.000000,0.000000,7.183017,12.187801,0.628303
1649345463.633444,13867.000000,1649345463.633062,0.000000,0.000000,1.000000,0.000000,0.000000,0.000000,0.000000,7.175706,12.195782,0.597586
1649345463.733034,13868.000000,1649345463.732829,0.000000,0.000000,1.000000,0.000000,0.000000,0.000000,0.000000,7.164417,12.208811,0.541555
1649345463.834624,13869.000000,1649345463.833676,0.000000,0.000000,1.000000,0.000000,0.000000,0.000000,0.000000,7.157036,12.218939,0.513741
1649345463.934279,13870.000000,1649345463.933786,0.000000,0.000000,1.000000,0.000000,0.000000,0.000000,0.000000,7.151191,12.226292,0.488856
1649345464.033641,13871.000000,1649345464.033273,0.000000,0.000000,1.000000,0.000000,0.000000,0.000000,0.000000,7.147906,12.231000,0.482944
1649345464.134994,13872.000000,1649345464.134133,0.000000,0.000000,1.000000,0.000000,0.000000,0.000000,0.000000,7.145956,12.233196,0.489595
1649345464.233621,13873.000000,1649345464.233262,0.000000,0.000000,1.000000,0.000000,0.000000,0.000000,0.000000,7.146362,12.234106,0.508283
1649345464.332937,13874.000000,1649345464.332687,0.000000,0.000000,1.000000,0.000000,0.000000,0.000000,0.000000,7.147900,12.234890,0.532836
1649345464.434517,13875.000000,1649345464.434191,0.000000,0.000000,1.000000,0.000000,0.000000,0.000000,0.000000,7.149409,12.234468,0.562164
1649345464.533898,13876.000000,1649345464.533451,0.000000,0.000000,1.000000,0.000000,0.000000,0.000000,0.000000,7.149793,12.232911,0.575857
1649345464.635394,13877.000000,1649345464.634669,0.000000,0.000000,1.000000,0.000000,0.000000,0.000000,0.000000,7.150199,12.231379,0.578552
1649345464.733630,13878.000000,1649345464.733154,0.000000,0.000000,1.000000,0.000000,0.000000,0.000000,0.000000,7.149533,12.228789,0.577139
1649345464.833776,13879.000000,1649345464.833215,0.000000,0.000000,1.000000,0.000000,0.000000,0.000000,0.000000,7.150032,12.226300,0.571782
1649345464.935319,13880.000000,1649345464.934532,0.000000,0.000000,1.000000,0.000000,0.000000,0.000000,0.000000,7.150540,12.225008,0.563457
1649345465.034078,13881.000000,1649345465.033779,0.000000,0.000000,1.000000,0.000000,0.000000,0.000000,0.000000,7.149961,12.224852,0.556326
1649345465.135462,13882.000000,1649345465.134992,0.000000,0.000000,1.000000,0.000000,0.000000,0.000000,0.000000,7.151627,12.221412,0.546320
1649345465.233625,13883.000000,1649345465.233311,0.000000,0.000000,1.000000,0.000000,0.000000,0.000000,0.000000,7.153226,12.218149,0.551310
1649345465.333469,13884.000000,1649345465.332989,0.000000,0.000000,1.000000,0.000000,0.000000,0.000000,0.000000,7.156938,12.213975,0.565842
1649345465.432369,13885.000000,1649345465.432147,0.000000,0.000000,1.000000,0.000000,0.000000,0.000000,0.000000,7.155000,12.216584,0.549181
1649345465.532886,13886.000000,1649345465.532490,0.000000,0.000000,1.000000,0.000000,0.000000,0.000000,0.000000,7.155361,12.217966,0.531644
1649345465.633448,13887.000000,1649345465.632983,0.000000,0.000000,1.000000,0.000000,0.000000,0.000000,0.000000,7.155711,12.218182,0.530228
1649345465.732654,13888.000000,1649345465.732251,0.000000,0.000000,1.000000,0.000000,0.000000,0.000000,0.000000,7.157141,12.218386,0.541055
1649345465.834946,13889.000000,1649345465.834314,0.000000,0.000000,1.000000,0.000000,0.000000,0.000000,0.000000,7.159586,12.217488,0.559579
1649345465.933316,13890.000000,1649345465.932831,0.000000,0.000000,1.000000,0.000000,0.000000,0.000000,0.000000,7.160802,12.216640,0.583036
1649345466.035148,13891.000000,1649345466.034463,0.000000,0.000000,1.000000,0.000000,0.000000,0.000000,0.000000,7.163034,12.215844,0.610378
1649345466.136175,13892.000000,1649345466.135493,0.000000,0.000000,1.000000,0.000000,0.000000,0.000000,0.000000,7.165130,12.215097,0.642211
1649345466.235614,13893.000000,1649345466.234871,0.000000,0.000000,1.000000,0.000000,0.000000,0.000000,0.000000,7.167090,12.213309,0.675880
1649345466.333932,13894.000000,1649345466.333282,0.000000,0.000000,1.000000,0.000000,0.000000,0.000000,0.000000,7.168918,12.210542,0.694326
1649345466.435532,13895.000000,1649345466.434203,0.000000,0.000000,1.000000,0.000000,0.000000,0.000000,0.000000,7.164074,12.215580,0.687652
1649345466.532692,13896.000000,1649345466.532304,0.000000,0.000000,1.000000,0.000000,0.000000,0.000000,0.000000,7.160572,12.218168,0.681083
1649345466.635180,13897.000000,1649345466.634467,0.000000,0.000000,1.000000,0.000000,0.000000,0.000000,0.000000,7.157259,12.218430,0.670601
1649345466.733661,13898.000000,1649345466.733095,0.000000,0.000000,1.000000,0.000000,0.000000,0.000000,0.000000,7.157406,12.218673,0.671711
1649345466.837237,13899.000000,1649345466.836058,0.000000,0.000000,1.000000,0.000000,0.000000,0.000000,0.000000,7.158645,12.216717,0.669431
1649345466.933063,13900.000000,1649345466.932752,0.000000,0.000000,1.000000,0.000000,0.000000,0.000000,0.000000,7.159819,12.214870,0.668747
1649345467.033536,13901.000000,1649345467.032885,0.000000,0.000000,1.000000,0.000000,0.000000,0.000000,0.000000,7.153297,12.222944,0.634116
1649345467.135095,13902.000000,1649345467.134677,0.000000,0.000000,1.000000,0.000000,0.000000,0.000000,0.000000,7.149332,12.227288,0.617775
1649345467.232888,13903.000000,1649345467.232550,0.000000,0.000000,1.000000,0.000000,0.000000,0.000000,0.000000,7.141253,12.236816,0.585952
1649345467.336455,13904.000000,1649345467.335504,0.000000,0.000000,1.000000,0.000000,0.000000,0.000000,0.000000,7.135850,12.244676,0.559488
1649345467.433544,13905.000000,1649345467.433275,0.000000,0.000000,1.000000,0.000000,0.000000,0.000000,0.000000,7.131901,12.249846,0.553531
1649345467.536248,13906.000000,1649345467.535801,0.000000,0.000000,1.000000,0.000000,0.000000,0.000000,0.000000,7.130426,12.254642,0.547101
1649345467.633533,13907.000000,1649345467.633189,0.000000,0.000000,1.000000,0.000000,0.000000,0.000000,0.000000,7.130199,12.256893,0.550707
1649345467.734116,13908.000000,1649345467.733546,0.000000,0.000000,1.000000,0.000000,0.000000,0.000000,0.000000,7.131149,12.256738,0.564741
1649345467.834497,13909.000000,1649345467.833774,0.000000,0.000000,1.000000,0.000000,0.000000,0.000000,0.000000,7.126662,12.261947,0.546013
1649345467.933953,13910.000000,1649345467.933447,0.000000,0.000000,1.000000,0.000000,0.000000,0.000000,0.000000,7.125767,12.264583,0.545067
1649345468.032653,13911.000000,1649345468.032309,0.000000,0.000000,1.000000,0.000000,0.000000,0.000000,0.000000,7.126088,12.264785,0.553118
1649345468.134674,13912.000000,1649345468.133954,0.000000,0.000000,1.000000,0.000000,0.000000,0.000000,0.000000,7.127551,12.262692,0.550433
1649345468.232882,13913.000000,1649345468.232444,0.000000,0.000000,1.000000,0.000000,0.000000,0.000000,0.000000,7.130086,12.260621,0.560832
1649345468.334352,13914.000000,1649345468.333777,0.000000,0.000000,1.000000,0.000000,0.000000,0.000000,0.000000,7.132533,12.256402,0.561993
1649345468.432861,13915.000000,1649345468.432509,0.000000,0.000000,1.000000,0.000000,0.000000,0.000000,0.000000,7.135977,12.251261,0.558317
1649345468.535615,13916.000000,1649345468.534750,0.000000,0.000000,1.000000,0.000000,0.000000,0.000000,0.000000,7.140349,12.246358,0.556454
1649345468.633543,13917.000000,1649345468.632948,0.000000,0.000000,1.000000,0.000000,0.000000,0.000000,0.000000,7.145585,12.241698,0.566816
1649345468.735892,13918.000000,1649345468.735301,0.000000,0.000000,1.000000,0.000000,0.000000,0.000000,0.000000,7.150529,12.236193,0.575181
1649345468.833164,13919.000000,1649345468.832895,0.000000,0.000000,1.000000,0.000000,0.000000,0.000000,0.000000,7.155183,12.229907,0.588066
1649345468.934944,13920.000000,1649345468.934347,0.000000,0.000000,1.000000,0.000000,0.000000,0.000000,0.000000,7.159548,12.223993,0.606071
1649345469.033399,13921.000000,1649345469.033016,0.000000,0.000000,1.000000,0.000000,0.000000,0.000000,0.000000,7.162538,12.218447,0.612832
1649345469.134970,13922.000000,1649345469.134406,0.000000,0.000000,1.000000,0.000000,0.000000,0.000000,0.000000,7.166403,12.211082,0.614437
1649345469.234584,13923.000000,1649345469.233924,0.000000,0.000000,1.000000,0.000000,0.000000,0.000000,0.000000,7.169995,12.205290,0.626415
1649345469.333171,13924.000000,1649345469.332871,0.000000,0.000000,1.000000,0.000000,0.000000,0.000000,0.000000,7.172231,12.200998,0.629782
1649345469.432707,13925.000000,1649345469.432424,0.000000,0.000000,1.000000,0.000000,0.000000,0.000000,0.000000,7.175362,12.195951,0.641817
1649345469.533893,13926.000000,1649345469.533383,0.000000,0.000000,1.000000,0.000000,0.000000,0.000000,0.000000,7.177153,12.191291,0.643604
1649345469.633209,13927.000000,1649345469.632659,0.000000,0.000000,1.000000,0.000000,0.000000,0.000000,0.000000,7.178767,12.189186,0.656525
1649345469.734740,13928.000000,1649345469.734332,0.000000,0.000000,1.000000,0.000000,0.000000,0.000000,0.000000,7.180213,12.188406,0.662371
1649345469.834430,13929.000000,1649345469.833561,0.000000,0.000000,1.000000,0.000000,0.000000,0.000000,0.000000,7.181500,12.186694,0.675132
1649345469.933658,13930.000000,1649345469.932901,0.000000,0.000000,1.000000,0.000000,0.000000,0.000000,0.000000,7.183727,12.184099,0.696123
1649345470.035177,13931.000000,1649345470.034345,0.000000,0.000000,1.000000,0.000000,0.000000,0.000000,0.000000,7.185751,12.180670,0.712887
1649345470.134363,13932.000000,1649345470.133523,0.000000,0.000000,1.000000,0.000000,0.000000,0.000000,0.000000,7.187581,12.177548,0.718314
1649345470.234301,13933.000000,1649345470.233797,0.000000,0.000000,1.000000,0.000000,0.000000,0.000000,0.000000,7.189227,12.174720,0.732214
1649345470.334339,13934.000000,1649345470.333797,0.000000,0.000000,1.000000,0.000000,0.000000,0.000000,0.000000,7.190698,12.173260,0.738907
1649345470.435849,13935.000000,1649345470.434564,0.000000,0.000000,1.000000,0.000000,0.000000,0.000000,0.000000,7.192004,12.170911,0.739486
1649345470.538267,13936.000000,1649345470.535965,0.000000,0.000000,1.000000,0.000000,0.000000,0.000000,0.000000,7.185523,12.177536,0.704367
1649345470.633564,13937.000000,1649345470.633131,0.000000,0.000000,1.000000,0.000000,0.000000,0.000000,0.000000,7.181517,12.181714,0.670540
1649345470.734263,13938.000000,1649345470.733595,0.000000,0.000000,1.000000,0.000000,0.000000,0.000000,0.000000,7.179867,12.185740,0.654951
1649345470.834401,13939.000000,1649345470.833685,0.000000,0.000000,1.000000,0.000000,0.000000,0.000000,0.000000,7.178272,12.187425,0.639151
1649345470.932750,13940.000000,1649345470.932378,0.000000,0.000000,1.000000,0.000000,0.000000,0.000000,0.000000,7.176736,12.186887,0.623985
1649345471.033018,13941.000000,1649345471.032698,0.000000,0.000000,1.000000,0.000000,0.000000,0.000000,0.000000,7.176352,12.186428,0.624774
1649345471.134057,13942.000000,1649345471.133659,0.000000,0.000000,1.000000,0.000000,0.000000,0.000000,0.000000,7.177061,12.187132,0.636842
1649345471.232886,13943.000000,1649345471.232509,0.000000,0.000000,1.000000,0.000000,0.000000,0.000000,0.000000,7.178801,12.187839,0.654067
1649345471.333822,13944.000000,1649345471.333340,0.000000,0.000000,1.000000,0.000000,0.000000,0.000000,0.000000,7.180423,12.188547,0.676212
1649345471.434129,13945.000000,1649345471.433704,0.000000,0.000000,1.000000,0.000000,0.000000,0.000000,0.000000,7.180837,12.189249,0.702237
1649345471.534102,13946.000000,1649345471.533808,0.000000,0.000000,1.000000,0.000000,0.000000,0.000000,0.000000,7.181200,12.188852,0.713394
1649345471.634213,13947.000000,1649345471.633816,0.000000,0.000000,1.000000,0.000000,0.000000,0.000000,0.000000,7.181517,12.188505,0.713496
1649345471.739543,13948.000000,1649345471.738091,0.000000,0.000000,1.000000,0.000000,0.000000,0.000000,0.000000,7.182880,12.188206,0.723153
1649345471.837046,13949.000000,1649345471.836642,0.000000,0.000000,1.000000,0.000000,0.000000,0.000000,0.000000,7.184139,12.189040,0.722614
1649345471.935017,13950.000000,1649345471.933969,0.000000,0.000000,1.000000,0.000000,0.000000,0.000000,0.000000,7.186388,12.188763,0.729233
1649345472.034465,13951.000000,1649345472.033878,0.000000,0.000000,1.000000,0.000000,0.000000,0.000000,0.000000,7.187387,12.189614,0.743520
1649345472.134941,13952.000000,1649345472.134374,0.000000,0.000000,1.000000,0.000000,0.000000,0.000000,0.000000,7.187203,12.190437,0.746600
1649345472.233801,13953.000000,1649345472.233366,0.000000,0.000000,1.000000,0.000000,0.000000,0.000000,0.000000,7.186994,12.190141,0.755861
1649345472.335623,13954.000000,1649345472.334841,0.000000,0.000000,1.000000,0.000000,0.000000,0.000000,0.000000,7.187854,12.189876,0.771851
1649345472.433216,13955.000000,1649345472.432812,0.000000,0.000000,1.000000,0.000000,0.000000,0.000000,0.000000,7.188634,12.189640,0.778148
1649345472.536429,13956.000000,1649345472.535926,0.000000,0.000000,1.000000,0.000000,0.000000,0.000000,0.000000,7.189337,12.189433,0.771109
1649345472.637057,13957.000000,1649345472.636127,0.000000,0.000000,1.000000,0.000000,0.000000,0.000000,0.000000,7.188878,12.189251,0.774676
1649345472.735445,13958.000000,1649345472.734631,0.000000,0.000000,1.000000,0.000000,0.000000,0.000000,0.000000,7.188412,12.189095,0.785198
1649345472.832901,13959.000000,1649345472.832601,0.000000,0.000000,1.000000,0.000000,0.000000,0.000000,0.000000,7.187945,12.190051,0.787867
1649345472.935595,13960.000000,1649345472.934351,0.000000,0.000000,1.000000,0.000000,0.000000,0.000000,0.000000,7.188569,12.188785,0.797519
1649345473.032690,13961.000000,1649345473.032352,0.000000,0.000000,1.000000,0.000000,0.000000,0.000000,0.000000,7.188043,12.188692,0.812249
1649345473.134873,13962.000000,1649345473.133593,0.000000,0.000000,1.000000,0.000000,0.000000,0.000000,0.000000,7.187524,12.189708,0.816512
1649345473.237360,13963.000000,1649345473.236542,0.000000,0.000000,1.000000,0.000000,0.000000,0.000000,0.000000,7.187015,12.189587,0.826055
1649345473.333171,13964.000000,1649345473.332884,0.000000,0.000000,1.000000,0.000000,0.000000,0.000000,0.000000,7.187607,12.188392,0.840657
1649345473.434816,13965.000000,1649345473.434245,0.000000,0.000000,1.000000,0.000000,0.000000,0.000000,0.000000,7.180517,12.195998,0.812516
1649345473.532697,13966.000000,1649345473.532398,0.000000,0.000000,1.000000,0.000000,0.000000,0.000000,0.000000,7.174910,12.200996,0.788573
1649345473.635549,13967.000000,1649345473.634930,0.000000,0.000000,1.000000,0.000000,0.000000,0.000000,0.000000,7.171812,12.203513,0.759030
1649345473.733246,13968.000000,1649345473.732862,0.000000,0.000000,1.000000,0.000000,0.000000,0.000000,0.000000,7.170005,12.206951,0.745941
1649345473.834389,13969.000000,1649345473.833743,0.000000,0.000000,1.000000,0.000000,0.000000,0.000000,0.000000,7.168332,12.207978,0.729313
1649345473.932559,13970.000000,1649345473.932254,0.000000,0.000000,1.000000,0.000000,0.000000,0.000000,0.000000,7.167880,12.206724,0.709318
1649345474.033282,13971.000000,1649345474.032861,0.000000,0.000000,1.000000,0.000000,0.000000,0.000000,0.000000,7.167490,12.205503,0.682899
1649345474.137920,13972.000000,1649345474.136668,0.000000,0.000000,1.000000,0.000000,0.000000,0.000000,0.000000,7.167158,12.203226,0.673748
1649345474.239761,13973.000000,1649345474.235051,0.000000,0.000000,1.000000,0.000000,0.000000,0.000000,0.000000,7.166881,12.201052,0.657792
1649345474.333775,13974.000000,1649345474.333427,0.000000,0.000000,1.000000,0.000000,0.000000,0.000000,0.000000,7.167744,12.200072,0.655492
1649345474.433497,13975.000000,1649345474.433144,0.000000,0.000000,1.000000,0.000000,0.000000,0.000000,0.000000,7.167499,12.199136,0.649360
1649345474.535031,13976.000000,1649345474.533681,0.000000,0.000000,1.000000,0.000000,0.000000,0.000000,0.000000,7.168388,12.199335,0.654073
1649345474.633914,13977.000000,1649345474.633261,0.000000,0.000000,1.000000,0.000000,0.000000,0.000000,0.000000,7.169252,12.199517,0.655472
1649345474.738024,13978.000000,1649345474.737173,0.000000,0.000000,1.000000,0.000000,0.000000,0.000000,0.000000,7.170090,12.199682,0.665779
1649345474.834960,13979.000000,1649345474.834452,0.000000,0.000000,1.000000,0.000000,0.000000,0.000000,0.000000,7.171989,12.200921,0.683003
1649345474.934285,13980.000000,1649345474.933878,0.000000,0.000000,1.000000,0.000000,0.000000,0.000000,0.000000,7.173795,12.199901,0.702799
1649345475.032829,13981.000000,1649345475.032370,0.000000,0.000000,1.000000,0.000000,0.000000,0.000000,0.000000,7.175505,12.198930,0.723415
1649345475.132406,13982.000000,1649345475.132227,0.000000,0.000000,1.000000,0.000000,0.000000,0.000000,0.000000,7.177120,12.199100,0.736719
1649345475.233166,13983.000000,1649345475.232790,0.000000,0.000000,1.000000,0.000000,0.000000,0.000000,0.000000,7.177550,12.199256,0.739759
1649345475.333577,13984.000000,1649345475.333243,0.000000,0.000000,1.000000,0.000000,0.000000,0.000000,0.000000,7.176858,12.198310,0.736170
1649345475.432706,13985.000000,1649345475.432430,0.000000,0.000000,1.000000,0.000000,0.000000,0.000000,0.000000,7.176198,12.198505,0.741552
1649345475.533208,13986.000000,1649345475.532818,0.000000,0.000000,1.000000,0.000000,0.000000,0.000000,0.000000,7.175572,12.198688,0.739405
1649345475.634454,13987.000000,1649345475.634041,0.000000,0.000000,1.000000,0.000000,0.000000,0.000000,0.000000,7.176069,12.197769,0.747782
1649345475.734507,13988.000000,1649345475.733913,0.000000,0.000000,1.000000,0.000000,0.000000,0.000000,0.000000,7.177626,12.195811,0.746085
1649345475.834666,13989.000000,1649345475.834280,0.000000,0.000000,1.000000,0.000000,0.000000,0.000000,0.000000,7.179092,12.193967,0.737144
1649345475.935116,13990.000000,1649345475.934334,0.000000,0.000000,1.000000,0.000000,0.000000,0.000000,0.000000,7.179376,12.193327,0.723688
1649345476.032579,13991.000000,1649345476.032398,0.000000,0.000000,1.000000,0.000000,0.000000,0.000000,0.000000,7.180724,12.191645,0.721247
1649345476.134106,13992.000000,1649345476.133432,0.000000,0.000000,1.000000,0.000000,0.000000,0.000000,0.000000,7.179802,12.190073,0.713251
1649345476.235161,13993.000000,1649345476.234262,0.000000,0.000000,1.000000,0.000000,0.000000,0.000000,0.000000,7.178919,12.189699,0.699939
1649345476.334254,13994.000000,1649345476.333690,0.000000,0.000000,1.000000,0.000000,0.000000,0.000000,0.000000,7.178077,12.189369,0.700095
1649345476.437261,13995.000000,1649345476.436526,0.000000,0.000000,1.000000,0.000000,0.000000,0.000000,0.000000,7.177275,12.190168,0.709950
1649345476.536659,13996.000000,1649345476.535408,0.000000,0.000000,1.000000,0.000000,0.000000,0.000000,0.000000,7.176515,12.192033,0.725062
1649345476.634464,13997.000000,1649345476.633792,0.000000,0.000000,1.000000,0.000000,0.000000,0.000000,0.000000,7.175797,12.193807,0.741968
