__time,/dwm1001/id_458E/pose_kf/header/seq,/dwm1001/id_458E/pose_kf/header/stamp,/dwm1001/id_458E/pose_kf/pose/orientation/pitch_deg,/dwm1001/id_458E/pose_kf/pose/orientation/roll_deg,/dwm1001/id_458E/pose_kf/pose/orientation/w,/dwm1001/id_458E/pose_kf/pose/orientation/x,/dwm1001/id_458E/pose_kf/pose/orientation/y,/dwm1001/id_458E/pose_kf/pose/orientation/yaw_deg,/dwm1001/id_458E/pose_kf/pose/orientation/z,/dwm1001/id_458E/pose_kf/pose/position/x,/dwm1001/id_458E/pose_kf/pose/position/y,/dwm1001/id_458E/pose_kf/pose/position/z
1649352420.222145,21226.000000,1649352420.222007,0.000000,0.000000,1.000000,0.000000,0.000000,0.000000,0.000000,7.282537,32.432829,1.184722
1649352420.322241,21227.000000,1649352420.322106,0.000000,0.000000,1.000000,0.000000,0.000000,0.000000,0.000000,7.281514,32.433788,1.174565
1649352420.422407,21228.000000,1649352420.422272,0.000000,0.000000,1.000000,0.000000,0.000000,0.000000,0.000000,7.280530,32.433591,1.167862
1649352420.522483,21229.000000,1649352420.522326,0.000000,0.000000,1.000000,0.000000,0.000000,0.000000,0.000000,7.281768,32.433393,1.171750
1649352420.622526,21230.000000,1649352420.622350,0.000000,0.000000,1.000000,0.000000,0.000000,0.000000,0.000000,7.282923,32.433196,1.177737
1649352420.722525,21231.000000,1649352420.722439,0.000000,0.000000,1.000000,0.000000,0.000000,0.000000,0.000000,7.282906,32.435180,1.191382
1649352420.822130,21232.000000,1649352420.821996,0.000000,0.000000,1.000000,0.000000,0.000000,0.000000,0.000000,7.283963,32.437042,1.208326
1649352420.922017,21233.000000,1649352420.921890,0.000000,0.000000,1.000000,0.000000,0.000000,0.000000,0.000000,7.282762,32.438782,1.226804
1649352421.022006,21234.000000,1649352421.021904,0.000000,0.000000,1.000000,0.000000,0.000000,0.000000,0.000000,7.282702,32.439312,1.223344
1649352421.122020,21235.000000,1649352421.121921,0.000000,0.000000,1.000000,0.000000,0.000000,0.000000,0.000000,7.284812,32.438699,1.223037
1649352421.222140,21236.000000,1649352421.221993,0.000000,0.000000,1.000000,0.000000,0.000000,0.000000,0.000000,7.286788,32.437007,1.222542
1649352421.322111,21237.000000,1649352421.322012,0.000000,0.000000,1.000000,0.000000,0.000000,0.000000,0.000000,7.288631,32.434303,1.217036
1649352421.422213,21238.000000,1649352421.422060,0.000000,0.000000,1.000000,0.000000,0.000000,0.000000,0.000000,7.289255,32.433921,1.211577
1649352421.522244,21239.000000,1649352421.522117,0.000000,0.000000,1.000000,0.000000,0.000000,0.000000,0.000000,7.288725,32.433556,1.211826
1649352421.622385,21240.000000,1649352421.622253,0.000000,0.000000,1.000000,0.000000,0.000000,0.000000,0.000000,7.290378,32.434299,1.219977
1649352421.722057,21241.000000,1649352421.721954,0.000000,0.000000,1.000000,0.000000,0.000000,0.000000,0.000000,7.291912,32.434996,1.231673
1649352421.822044,21242.000000,1649352421.821939,0.000000,0.000000,1.000000,0.000000,0.000000,0.000000,0.000000,7.291149,32.435650,1.239499
1649352421.922260,21243.000000,1649352421.922132,0.000000,0.000000,1.000000,0.000000,0.000000,0.000000,0.000000,7.291489,32.436259,1.234734
1649352422.022086,21244.000000,1649352422.021969,0.000000,0.000000,1.000000,0.000000,0.000000,0.000000,0.000000,7.288512,32.435735,1.225160
1649352422.122050,21245.000000,1649352422.121949,0.000000,0.000000,1.000000,0.000000,0.000000,0.000000,0.000000,7.286770,32.434142,1.222284
1649352422.222941,21246.000000,1649352422.222600,0.000000,0.000000,1.000000,0.000000,0.000000,0.000000,0.000000,7.284022,32.432633,1.216975
1649352422.322120,21247.000000,1649352422.321980,0.000000,0.000000,1.000000,0.000000,0.000000,0.000000,0.000000,7.284694,32.430119,1.214185
1649352422.422032,21248.000000,1649352422.421912,0.000000,0.000000,1.000000,0.000000,0.000000,0.000000,0.000000,7.285326,32.429934,1.218660
1649352422.522318,21249.000000,1649352422.522177,0.000000,0.000000,1.000000,0.000000,0.000000,0.000000,0.000000,7.285918,32.429769,1.225266
1649352422.622102,21250.000000,1649352422.621965,0.000000,0.000000,1.000000,0.000000,0.000000,0.000000,0.000000,7.287562,32.429623,1.233911
1649352422.722273,21251.000000,1649352422.722108,0.000000,0.000000,1.000000,0.000000,0.000000,0.000000,0.000000,7.289105,32.429496,1.240469
1649352422.822356,21252.000000,1649352422.822227,0.000000,0.000000,1.000000,0.000000,0.000000,0.000000,0.000000,7.289458,32.429385,1.225665
1649352422.922459,21253.000000,1649352422.922343,0.000000,0.000000,1.000000,0.000000,0.000000,0.000000,0.000000,7.260335,32.424930,1.124261
1649352423.022221,21254.000000,1649352423.022075,0.000000,0.000000,1.000000,0.000000,0.000000,0.000000,0.000000,7.241599,32.419649,1.047987
1649352423.122114,21255.000000,1649352423.121994,0.000000,0.000000,1.000000,0.000000,0.000000,0.000000,0.000000,7.229466,32.415786,0.992732
1649352423.222106,21256.000000,1649352423.221991,0.000000,0.000000,1.000000,0.000000,0.000000,0.000000,0.000000,7.197440,32.426356,0.901281
1649352423.322114,21257.000000,1649352423.321995,0.000000,0.000000,1.000000,0.000000,0.000000,0.000000,0.000000,7.176134,32.435273,0.846205
1649352423.422054,21258.000000,1649352423.421947,0.000000,0.000000,1.000000,0.000000,0.000000,0.000000,0.000000,7.163927,32.440416,0.818049
1649352423.522195,21259.000000,1649352423.522052,0.000000,0.000000,1.000000,0.000000,0.000000,0.000000,0.000000,7.157074,32.443067,0.794785
1649352423.622125,21260.000000,1649352423.621996,0.000000,0.000000,1.000000,0.000000,0.000000,0.000000,0.000000,7.155284,32.444446,0.770589
1649352423.722123,21261.000000,1649352423.722024,0.000000,0.000000,1.000000,0.000000,0.000000,0.000000,0.000000,7.158270,32.445708,0.766484
1649352423.823806,21262.000000,1649352423.823558,0.000000,0.000000,1.000000,0.000000,0.000000,0.000000,0.000000,7.161382,32.445770,0.773578
1649352423.922050,21263.000000,1649352423.921933,0.000000,0.000000,1.000000,0.000000,0.000000,0.000000,0.000000,7.163496,32.447970,0.769612
1649352424.022153,21264.000000,1649352424.022018,0.000000,0.000000,1.000000,0.000000,0.000000,0.000000,0.000000,7.167915,32.446734,0.763886
1649352424.122027,21265.000000,1649352424.121919,0.000000,0.000000,1.000000,0.000000,0.000000,0.000000,0.000000,7.176668,32.442256,0.757268
1649352424.222015,21266.000000,1649352424.221906,0.000000,0.000000,1.000000,0.000000,0.000000,0.000000,0.000000,7.185117,32.439091,0.740105
1649352424.322498,21267.000000,1649352424.322340,0.000000,0.000000,1.000000,0.000000,0.000000,0.000000,0.000000,7.193242,32.437179,0.740252
1649352424.422489,21268.000000,1649352424.422338,0.000000,0.000000,1.000000,0.000000,0.000000,0.000000,0.000000,7.198846,32.436457,0.749732
1649352424.522578,21269.000000,1649352424.522413,0.000000,0.000000,1.000000,0.000000,0.000000,0.000000,0.000000,7.204223,32.434683,0.766519
1649352424.622746,21270.000000,1649352424.622480,0.000000,0.000000,1.000000,0.000000,0.000000,0.000000,0.000000,7.211546,32.433011,0.793500
1649352424.722193,21271.000000,1649352424.722053,0.000000,0.000000,1.000000,0.000000,0.000000,0.000000,0.000000,7.216321,32.432529,0.825362
1649352424.822047,21272.000000,1649352424.821938,0.000000,0.000000,1.000000,0.000000,0.000000,0.000000,0.000000,7.221940,32.434264,0.861840
1649352424.922032,21273.000000,1649352424.921925,0.000000,0.000000,1.000000,0.000000,0.000000,0.000000,0.000000,7.227249,32.435909,0.901064
1649352425.021993,21274.000000,1649352425.021896,0.000000,0.000000,1.000000,0.000000,0.000000,0.000000,0.000000,7.232248,32.437464,0.933978
1649352425.122463,21275.000000,1649352425.122340,0.000000,0.000000,1.000000,0.000000,0.000000,0.000000,0.000000,7.236939,32.437837,0.968839
1649352425.222107,21276.000000,1649352425.221986,0.000000,0.000000,1.000000,0.000000,0.000000,0.000000,0.000000,7.242418,32.437093,0.992605
1649352425.322262,21277.000000,1649352425.322158,0.000000,0.000000,1.000000,0.000000,0.000000,0.000000,0.000000,7.247535,32.436386,1.020200
1649352425.422229,21278.000000,1649352425.422091,0.000000,0.000000,1.000000,0.000000,0.000000,0.000000,0.000000,7.252299,32.436806,1.052231
1649352425.522056,21279.000000,1649352425.521970,0.000000,0.000000,1.000000,0.000000,0.000000,0.000000,0.000000,7.256718,32.438290,1.086856
1649352425.622070,21280.000000,1649352425.621967,0.000000,0.000000,1.000000,0.000000,0.000000,0.000000,0.000000,7.261892,32.440777,1.110208
1649352425.722177,21281.000000,1649352425.722054,0.000000,0.000000,1.000000,0.000000,0.000000,0.000000,0.000000,7.265588,32.442023,1.119485
1649352425.822088,21282.000000,1649352425.821960,0.000000,0.000000,1.000000,0.000000,0.000000,0.000000,0.000000,7.270062,32.442093,1.128152
1649352425.922103,21283.000000,1649352425.921981,0.000000,0.000000,1.000000,0.000000,0.000000,0.000000,0.000000,7.274174,32.441052,1.125743
1649352426.022528,21284.000000,1649352426.022093,0.000000,0.000000,1.000000,0.000000,0.000000,0.000000,0.000000,7.276846,32.438965,1.126430
1649352426.122158,21285.000000,1649352426.121995,0.000000,0.000000,1.000000,0.000000,0.000000,0.000000,0.000000,7.279247,32.435895,1.123644
1649352426.223076,21286.000000,1649352426.222076,0.000000,0.000000,1.000000,0.000000,0.000000,0.000000,0.000000,7.281391,32.432997,1.124798
1649352426.322048,21287.000000,1649352426.321958,0.000000,0.000000,1.000000,0.000000,0.000000,0.000000,0.000000,7.283293,32.430270,1.131352
1649352426.422220,21288.000000,1649352426.422115,0.000000,0.000000,1.000000,0.000000,0.000000,0.000000,0.000000,7.283876,32.428804,1.145506
1649352426.522184,21289.000000,1649352426.522083,0.000000,0.000000,1.000000,0.000000,0.000000,0.000000,0.000000,7.285398,32.427442,1.138710
1649352426.622225,21290.000000,1649352426.622066,0.000000,0.000000,1.000000,0.000000,0.000000,0.000000,0.000000,7.285631,32.424001,1.144896
1649352426.722249,21291.000000,1649352426.722129,0.000000,0.000000,1.000000,0.000000,0.000000,0.000000,0.000000,7.286829,32.421874,1.157086
1649352426.823152,21292.000000,1649352426.822887,0.000000,0.000000,1.000000,0.000000,0.000000,0.000000,0.000000,7.286764,32.419905,1.170993
1649352426.922222,21293.000000,1649352426.922058,0.000000,0.000000,1.000000,0.000000,0.000000,0.000000,0.000000,7.286601,32.418088,1.187340
1649352427.022345,21294.000000,1649352427.022156,0.000000,0.000000,1.000000,0.000000,0.000000,0.000000,0.000000,7.287441,32.416418,1.208430
1649352427.122530,21295.000000,1649352427.122384,0.000000,0.000000,1.000000,0.000000,0.000000,0.000000,0.000000,7.288143,32.414890,1.230820
1649352427.222397,21296.000000,1649352427.222279,0.000000,0.000000,1.000000,0.000000,0.000000,0.000000,0.000000,7.289807,32.414589,1.253625
1649352427.322335,21297.000000,1649352427.322193,0.000000,0.000000,1.000000,0.000000,0.000000,0.000000,0.000000,7.290201,32.415444,1.274382
1649352427.422348,21298.000000,1649352427.422202,0.000000,0.000000,1.000000,0.000000,0.000000,0.000000,0.000000,7.292668,32.415208,1.287507
1649352427.522453,21299.000000,1649352427.522286,0.000000,0.000000,1.000000,0.000000,0.000000,0.000000,0.000000,7.296003,32.416117,1.302171
1649352427.622440,21300.000000,1649352427.622297,0.000000,0.000000,1.000000,0.000000,0.000000,0.000000,0.000000,7.296881,32.417015,1.316688
1649352427.722433,21301.000000,1649352427.722302,0.000000,0.000000,1.000000,0.000000,0.000000,0.000000,0.000000,7.296530,32.417897,1.309282
1649352427.822290,21302.000000,1649352427.822167,0.000000,0.000000,1.000000,0.000000,0.000000,0.000000,0.000000,7.295023,32.423120,1.305057
1649352427.922456,21303.000000,1649352427.922335,0.000000,0.000000,1.000000,0.000000,0.000000,0.000000,0.000000,7.292433,32.428069,1.308746
1649352428.022129,21304.000000,1649352428.021967,0.000000,0.000000,1.000000,0.000000,0.000000,0.000000,0.000000,7.291011,32.432742,1.315198
1649352428.122086,21305.000000,1649352428.121962,0.000000,0.000000,1.000000,0.000000,0.000000,0.000000,0.000000,7.290702,32.434959,1.313820
1649352428.222195,21306.000000,1649352428.222064,0.000000,0.000000,1.000000,0.000000,0.000000,0.000000,0.000000,7.292541,32.435939,1.315426
1649352428.322058,21307.000000,1649352428.321949,0.000000,0.000000,1.000000,0.000000,0.000000,0.000000,0.000000,7.293135,32.435747,1.310230
1649352428.422132,21308.000000,1649352428.422026,0.000000,0.000000,1.000000,0.000000,0.000000,0.000000,0.000000,7.291464,32.437721,1.313849
1649352428.522268,21309.000000,1649352428.522121,0.000000,0.000000,1.000000,0.000000,0.000000,0.000000,0.000000,7.288750,32.439556,1.320287
1649352428.622143,21310.000000,1649352428.622018,0.000000,0.000000,1.000000,0.000000,0.000000,0.000000,0.000000,7.283971,32.439077,1.318946
1649352428.722272,21311.000000,1649352428.722113,0.000000,0.000000,1.000000,0.000000,0.000000,0.000000,0.000000,7.280526,32.437502,1.302896
1649352428.822355,21312.000000,1649352428.822190,0.000000,0.000000,1.000000,0.000000,0.000000,0.000000,0.000000,7.276174,32.435989,1.284057
1649352428.922610,21313.000000,1649352428.922502,0.000000,0.000000,1.000000,0.000000,0.000000,0.000000,0.000000,7.273159,32.438901,1.271454
1649352429.022393,21314.000000,1649352429.022246,0.000000,0.000000,1.000000,0.000000,0.000000,0.000000,0.000000,7.270328,32.441629,1.245508
1649352429.122450,21315.000000,1649352429.122286,0.000000,0.000000,1.000000,0.000000,0.000000,0.000000,0.000000,7.268767,32.443085,1.213259
1649352429.222209,21316.000000,1649352429.222086,0.000000,0.000000,1.000000,0.000000,0.000000,0.000000,0.000000,7.267322,32.442245,1.187923
1649352429.322125,21317.000000,1649352429.321966,0.000000,0.000000,1.000000,0.000000,0.000000,0.000000,0.000000,7.267079,32.442509,1.177330
1649352429.423838,21318.000000,1649352429.423458,0.000000,0.000000,1.000000,0.000000,0.000000,0.000000,0.000000,7.266880,32.442729,1.177677
1649352429.522698,21319.000000,1649352429.522456,0.000000,0.000000,1.000000,0.000000,0.000000,0.000000,0.000000,7.266723,32.442908,1.184490
1649352429.622418,21320.000000,1649352429.622260,0.000000,0.000000,1.000000,0.000000,0.000000,0.000000,0.000000,7.266603,32.445230,1.196689
1649352429.722341,21321.000000,1649352429.722203,0.000000,0.000000,1.000000,0.000000,0.000000,0.000000,0.000000,7.266518,32.446301,1.205970
1649352429.822347,21322.000000,1649352429.822235,0.000000,0.000000,1.000000,0.000000,0.000000,0.000000,0.000000,7.269736,32.445098,1.209210
1649352429.922340,21323.000000,1649352429.922214,0.000000,0.000000,1.000000,0.000000,0.000000,0.000000,0.000000,7.273883,32.443931,1.213100
1649352430.022584,21324.000000,1649352430.022402,0.000000,0.000000,1.000000,0.000000,0.000000,0.000000,0.000000,7.277805,32.441713,1.218414
1649352430.122420,21325.000000,1649352430.122308,0.000000,0.000000,1.000000,0.000000,0.000000,0.000000,0.000000,7.280412,32.440691,1.229119
1649352430.223179,21326.000000,1649352430.222868,0.000000,0.000000,1.000000,0.000000,0.000000,0.000000,0.000000,7.282858,32.439713,1.219982
1649352430.322083,21327.000000,1649352430.321985,0.000000,0.000000,1.000000,0.000000,0.000000,0.000000,0.000000,7.285145,32.436600,1.211176
1649352430.421998,21328.000000,1649352430.421899,0.000000,0.000000,1.000000,0.000000,0.000000,0.000000,0.000000,7.288366,32.432568,1.203509
1649352430.522059,21329.000000,1649352430.521943,0.000000,0.000000,1.000000,0.000000,0.000000,0.000000,0.000000,7.290283,32.429862,1.199369
1649352430.622051,21330.000000,1649352430.621908,0.000000,0.000000,1.000000,0.000000,0.000000,0.000000,0.000000,7.292051,32.427325,1.201847
1649352430.722228,21331.000000,1649352430.722051,0.000000,0.000000,1.000000,0.000000,0.000000,0.000000,0.000000,7.293676,32.426047,1.184059
1649352430.822141,21332.000000,1649352430.822002,0.000000,0.000000,1.000000,0.000000,0.000000,0.000000,0.000000,7.294074,32.423780,1.169434
1649352430.922171,21333.000000,1649352430.922020,0.000000,0.000000,1.000000,0.000000,0.000000,0.000000,0.000000,7.293312,32.422763,1.160286
1649352431.022135,21334.000000,1649352431.021985,0.000000,0.000000,1.000000,0.000000,0.000000,0.000000,0.000000,7.293640,32.421840,1.145119
1649352431.122177,21335.000000,1649352431.122056,0.000000,0.000000,1.000000,0.000000,0.000000,0.000000,0.000000,7.293909,32.421006,1.118552
1649352431.222122,21336.000000,1649352431.221981,0.000000,0.000000,1.000000,0.000000,0.000000,0.000000,0.000000,7.295215,32.421347,1.108505
1649352431.322005,21337.000000,1649352431.321900,0.000000,0.000000,1.000000,0.000000,0.000000,0.000000,0.000000,7.295318,32.421705,1.093358
1649352431.422031,21338.000000,1649352431.421935,0.000000,0.000000,1.000000,0.000000,0.000000,0.000000,0.000000,7.295376,32.420986,1.082206
1649352431.522121,21339.000000,1649352431.522019,0.000000,0.000000,1.000000,0.000000,0.000000,0.000000,0.000000,7.294304,32.422520,1.081352
1649352431.622202,21340.000000,1649352431.622060,0.000000,0.000000,1.000000,0.000000,0.000000,0.000000,0.000000,7.294349,32.422906,1.086343
1649352431.722255,21341.000000,1649352431.722111,0.000000,0.000000,1.000000,0.000000,0.000000,0.000000,0.000000,7.293272,32.424385,1.096928
1649352431.822587,21342.000000,1649352431.822398,0.000000,0.000000,1.000000,0.000000,0.000000,0.000000,0.000000,7.292228,32.424711,1.108019
1649352431.922501,21343.000000,1649352431.922351,0.000000,0.000000,1.000000,0.000000,0.000000,0.000000,0.000000,7.292312,32.425035,1.122797
1649352432.022340,21344.000000,1649352432.022208,0.000000,0.000000,1.000000,0.000000,0.000000,0.000000,0.000000,7.292372,32.425354,1.120922
1649352432.122055,21345.000000,1649352432.121949,0.000000,0.000000,1.000000,0.000000,0.000000,0.000000,0.000000,7.290229,32.426759,1.122422
1649352432.222149,21346.000000,1649352432.222018,0.000000,0.000000,1.000000,0.000000,0.000000,0.000000,0.000000,7.290374,32.428093,1.131992
1649352432.322550,21347.000000,1649352432.322430,0.000000,0.000000,1.000000,0.000000,0.000000,0.000000,0.000000,7.290501,32.428267,1.125095
1649352432.422438,21348.000000,1649352432.422273,0.000000,0.000000,1.000000,0.000000,0.000000,0.000000,0.000000,7.292791,32.427342,1.123373
1649352432.522445,21349.000000,1649352432.522297,0.000000,0.000000,1.000000,0.000000,0.000000,0.000000,0.000000,7.294940,32.426471,1.125004
1649352432.623361,21350.000000,1649352432.623198,0.000000,0.000000,1.000000,0.000000,0.000000,0.000000,0.000000,7.296950,32.425655,1.116138
1649352432.722098,21351.000000,1649352432.721991,0.000000,0.000000,1.000000,0.000000,0.000000,0.000000,0.000000,7.298822,32.424893,1.115760
1649352432.822186,21352.000000,1649352432.822078,0.000000,0.000000,1.000000,0.000000,0.000000,0.000000,0.000000,7.300561,32.424182,1.121105
1649352432.922669,21353.000000,1649352432.922518,0.000000,0.000000,1.000000,0.000000,0.000000,0.000000,0.000000,7.299988,32.425704,1.131932
1649352433.022194,21354.000000,1649352433.022009,0.000000,0.000000,1.000000,0.000000,0.000000,0.000000,0.000000,7.299416,32.426059,1.145580
1649352433.122449,21355.000000,1649352433.122331,0.000000,0.000000,1.000000,0.000000,0.000000,0.000000,0.000000,7.298846,32.426401,1.140943
1649352433.222471,21356.000000,1649352433.222280,0.000000,0.000000,1.000000,0.000000,0.000000,0.000000,0.000000,7.297192,32.426727,1.143765
1649352433.322234,21357.000000,1649352433.322103,0.000000,0.000000,1.000000,0.000000,0.000000,0.000000,0.000000,7.297792,32.425949,1.145675
1649352433.422366,21358.000000,1649352433.422199,0.000000,0.000000,1.000000,0.000000,0.000000,0.000000,0.000000,7.297249,32.424127,1.147515
1649352433.522436,21359.000000,1649352433.522323,0.000000,0.000000,1.000000,0.000000,0.000000,0.000000,0.000000,7.297811,32.422415,1.152507
1649352433.622190,21360.000000,1649352433.622088,0.000000,0.000000,1.000000,0.000000,0.000000,0.000000,0.000000,7.298325,32.421902,1.159712
1649352433.722195,21361.000000,1649352433.722082,0.000000,0.000000,1.000000,0.000000,0.000000,0.000000,0.000000,7.297703,32.420343,1.164188
1649352433.822106,21362.000000,1649352433.821952,0.000000,0.000000,1.000000,0.000000,0.000000,0.000000,0.000000,7.297100,32.418889,1.166846
1649352433.922162,21363.000000,1649352433.922039,0.000000,0.000000,1.000000,0.000000,0.000000,0.000000,0.000000,7.297609,32.416446,1.170174
1649352434.022249,21364.000000,1649352434.022122,0.000000,0.000000,1.000000,0.000000,0.000000,0.000000,0.000000,7.296987,32.416348,1.164464
1649352434.122394,21365.000000,1649352434.122266,0.000000,0.000000,1.000000,0.000000,0.000000,0.000000,0.000000,7.295299,32.416283,1.167027
1649352434.222630,21366.000000,1649352434.222355,0.000000,0.000000,1.000000,0.000000,0.000000,0.000000,0.000000,7.292608,32.416249,1.154138
1649352434.322201,21367.000000,1649352434.322065,0.000000,0.000000,1.000000,0.000000,0.000000,0.000000,0.000000,7.288977,32.418422,1.144992
1649352434.422063,21368.000000,1649352434.421943,0.000000,0.000000,1.000000,0.000000,0.000000,0.000000,0.000000,7.285561,32.420495,1.137034
1649352434.521974,21369.000000,1649352434.521828,0.000000,0.000000,1.000000,0.000000,0.000000,0.000000,0.000000,7.283446,32.422464,1.135874
1649352434.622044,21370.000000,1649352434.621954,0.000000,0.000000,1.000000,0.000000,0.000000,0.000000,0.000000,7.282568,32.424329,1.141240
1649352434.722097,21371.000000,1649352434.721987,0.000000,0.000000,1.000000,0.000000,0.000000,0.000000,0.000000,7.281769,32.426089,1.150438
1649352434.822163,21372.000000,1649352434.822018,0.000000,0.000000,1.000000,0.000000,0.000000,0.000000,0.000000,7.281046,32.427745,1.146363
1649352434.922056,21373.000000,1649352434.921952,0.000000,0.000000,1.000000,0.000000,0.000000,0.000000,0.000000,7.280396,32.429297,1.149717
1649352435.022424,21374.000000,1649352435.022211,0.000000,0.000000,1.000000,0.000000,0.000000,0.000000,0.000000,7.279814,32.431838,1.142453
1649352435.122367,21375.000000,1649352435.122216,0.000000,0.000000,1.000000,0.000000,0.000000,0.000000,0.000000,7.280387,32.432035,1.136302
1649352435.222053,21376.000000,1649352435.221944,0.000000,0.000000,1.000000,0.000000,0.000000,0.000000,0.000000,7.280957,32.433289,1.141713
1649352435.322043,21377.000000,1649352435.321942,0.000000,0.000000,1.000000,0.000000,0.000000,0.000000,0.000000,7.281523,32.438809,1.146919
1649352435.422025,21378.000000,1649352435.421932,0.000000,0.000000,1.000000,0.000000,0.000000,0.000000,0.000000,7.279900,32.443987,1.156758
1649352435.522220,21379.000000,1649352435.522116,0.000000,0.000000,1.000000,0.000000,0.000000,0.000000,0.000000,7.278391,32.448827,1.172638
1649352435.622191,21380.000000,1649352435.622067,0.000000,0.000000,1.000000,0.000000,0.000000,0.000000,0.000000,7.275903,32.452244,1.166872
1649352435.722258,21381.000000,1649352435.722112,0.000000,0.000000,1.000000,0.000000,0.000000,0.000000,0.000000,7.275768,32.455401,1.171793
1649352435.822272,21382.000000,1649352435.822114,0.000000,0.000000,1.000000,0.000000,0.000000,0.000000,0.000000,7.274583,32.459396,1.182933
1649352435.922069,21383.000000,1649352435.921980,0.000000,0.000000,1.000000,0.000000,0.000000,0.000000,0.000000,7.274590,32.461995,1.183894
1649352436.022618,21384.000000,1649352436.022485,0.000000,0.000000,1.000000,0.000000,0.000000,0.000000,0.000000,7.275720,32.462180,1.187184
1649352436.122345,21385.000000,1649352436.122214,0.000000,0.000000,1.000000,0.000000,0.000000,0.000000,0.000000,7.275726,32.461177,1.189479
1649352436.222483,21386.000000,1649352436.222355,0.000000,0.000000,1.000000,0.000000,0.000000,0.000000,0.000000,7.274668,32.462332,1.200496
1649352436.322527,21387.000000,1649352436.322402,0.000000,0.000000,1.000000,0.000000,0.000000,0.000000,0.000000,7.272606,32.463346,1.215834
1649352436.422468,21388.000000,1649352436.422345,0.000000,0.000000,1.000000,0.000000,0.000000,0.000000,0.000000,7.271779,32.463138,1.232877
1649352436.522267,21389.000000,1649352436.522102,0.000000,0.000000,1.000000,0.000000,0.000000,0.000000,0.000000,7.272122,32.462870,1.249113
1649352436.622202,21390.000000,1649352436.622080,0.000000,0.000000,1.000000,0.000000,0.000000,0.000000,0.000000,7.272477,32.461459,1.262937
1649352436.722293,21391.000000,1649352436.722122,0.000000,0.000000,1.000000,0.000000,0.000000,0.000000,0.000000,7.272841,32.460068,1.260721
1649352436.822892,21392.000000,1649352436.822680,0.000000,0.000000,1.000000,0.000000,0.000000,0.000000,0.000000,7.273210,32.458702,1.243928
1649352436.922049,21393.000000,1649352436.921952,0.000000,0.000000,1.000000,0.000000,0.000000,0.000000,0.000000,7.274672,32.455186,1.234954
1649352437.022003,21394.000000,1649352437.021917,0.000000,0.000000,1.000000,0.000000,0.000000,0.000000,0.000000,7.276071,32.451833,1.211730
1649352437.122117,21395.000000,1649352437.122009,0.000000,0.000000,1.000000,0.000000,0.000000,0.000000,0.000000,7.276315,32.450825,1.189390
1649352437.222104,21396.000000,1649352437.221994,0.000000,0.000000,1.000000,0.000000,0.000000,0.000000,0.000000,7.277645,32.448769,1.164713
1649352437.322457,21397.000000,1649352437.322326,0.000000,0.000000,1.000000,0.000000,0.000000,0.000000,0.000000,7.278909,32.445729,1.149125
1649352437.422103,21398.000000,1649352437.421978,0.000000,0.000000,1.000000,0.000000,0.000000,0.000000,0.000000,7.279014,32.443948,1.138253
1649352437.522178,21399.000000,1649352437.522066,0.000000,0.000000,1.000000,0.000000,0.000000,0.000000,0.000000,7.279113,32.440093,1.123053
1649352437.622165,21400.000000,1649352437.622049,0.000000,0.000000,1.000000,0.000000,0.000000,0.000000,0.000000,7.279208,32.438650,1.106140
1649352437.722109,21401.000000,1649352437.721949,0.000000,0.000000,1.000000,0.000000,0.000000,0.000000,0.000000,7.279297,32.436220,1.100511
1649352437.822132,21402.000000,1649352437.821988,0.000000,0.000000,1.000000,0.000000,0.000000,0.000000,0.000000,7.278291,32.433952,1.075072
1649352437.922365,21403.000000,1649352437.922265,0.000000,0.000000,1.000000,0.000000,0.000000,0.000000,0.000000,7.278432,32.431844,1.059690
1649352438.022261,21404.000000,1649352438.022126,0.000000,0.000000,1.000000,0.000000,0.000000,0.000000,0.000000,7.278568,32.430981,1.053174
1649352438.122469,21405.000000,1649352438.122326,0.000000,0.000000,1.000000,0.000000,0.000000,0.000000,0.000000,7.278698,32.432388,1.046299
1649352438.222573,21406.000000,1649352438.222353,0.000000,0.000000,1.000000,0.000000,0.000000,0.000000,0.000000,7.278822,32.433751,1.045534
1649352438.322298,21407.000000,1649352438.322187,0.000000,0.000000,1.000000,0.000000,0.000000,0.000000,0.000000,7.277850,32.437249,1.054658
1649352438.421998,21408.000000,1649352438.421904,0.000000,0.000000,1.000000,0.000000,0.000000,0.000000,0.000000,7.276934,32.439482,1.070026
1649352438.522228,21409.000000,1649352438.522097,0.000000,0.000000,1.000000,0.000000,0.000000,0.000000,0.000000,7.274984,32.441600,1.084093
1649352438.622082,21410.000000,1649352438.621913,0.000000,0.000000,1.000000,0.000000,0.000000,0.000000,0.000000,7.275333,32.441422,1.096077
1649352438.722118,21411.000000,1649352438.722003,0.000000,0.000000,1.000000,0.000000,0.000000,0.000000,0.000000,7.275674,32.442345,1.114101
1649352438.822112,21412.000000,1649352438.821971,0.000000,0.000000,1.000000,0.000000,0.000000,0.000000,0.000000,7.276004,32.443215,1.133051
1649352438.922182,21413.000000,1649352438.922033,0.000000,0.000000,1.000000,0.000000,0.000000,0.000000,0.000000,7.276324,32.444033,1.156887
1649352439.022445,21414.000000,1649352439.022137,0.000000,0.000000,1.000000,0.000000,0.000000,0.000000,0.000000,7.277722,32.444800,1.179727
1649352439.122441,21415.000000,1649352439.122287,0.000000,0.000000,1.000000,0.000000,0.000000,0.000000,0.000000,7.280136,32.443335,1.194315
1649352439.222236,21416.000000,1649352439.222108,0.000000,0.000000,1.000000,0.000000,0.000000,0.000000,0.000000,7.280230,32.440855,1.202576
1649352439.322237,21417.000000,1649352439.322078,0.000000,0.000000,1.000000,0.000000,0.000000,0.000000,0.000000,7.280313,32.438515,1.214431
1649352439.422311,21418.000000,1649352439.422199,0.000000,0.000000,1.000000,0.000000,0.000000,0.000000,0.000000,7.279294,32.437403,1.227300
1649352439.522319,21419.000000,1649352439.522164,0.000000,0.000000,1.000000,0.000000,0.000000,0.000000,0.000000,7.279419,32.436367,1.216127
1649352439.622481,21420.000000,1649352439.622351,0.000000,0.000000,1.000000,0.000000,0.000000,0.000000,0.000000,7.279533,32.433222,1.203679
1649352439.722459,21421.000000,1649352439.722311,0.000000,0.000000,1.000000,0.000000,0.000000,0.000000,0.000000,7.278548,32.432455,1.200517
1649352439.822528,21422.000000,1649352439.822376,0.000000,0.000000,1.000000,0.000000,0.000000,0.000000,0.000000,7.277616,32.430666,1.200630
1649352439.922126,21423.000000,1649352439.922019,0.000000,0.000000,1.000000,0.000000,0.000000,0.000000,0.000000,7.277828,32.429004,1.203084
1649352440.022259,21424.000000,1649352440.022132,0.000000,0.000000,1.000000,0.000000,0.000000,0.000000,0.000000,7.278031,32.427468,1.206976
1649352440.122300,21425.000000,1649352440.122188,0.000000,0.000000,1.000000,0.000000,0.000000,0.000000,0.000000,7.276043,32.427142,1.200149
1649352440.222135,21426.000000,1649352440.222029,0.000000,0.000000,1.000000,0.000000,0.000000,0.000000,0.000000,7.275262,32.426870,1.196758
1649352440.322066,21427.000000,1649352440.321960,0.000000,0.000000,1.000000,0.000000,0.000000,0.000000,0.000000,7.275623,32.425556,1.187804
1649352440.422042,21428.000000,1649352440.421934,0.000000,0.000000,1.000000,0.000000,0.000000,0.000000,0.000000,7.275972,32.423261,1.181591
1649352440.522084,21429.000000,1649352440.521975,0.000000,0.000000,1.000000,0.000000,0.000000,0.000000,0.000000,7.277399,32.421132,1.182861
1649352440.622308,21430.000000,1649352440.622124,0.000000,0.000000,1.000000,0.000000,0.000000,0.000000,0.000000,7.277659,32.420256,1.189698
1649352440.722147,21431.000000,1649352440.722019,0.000000,0.000000,1.000000,0.000000,0.000000,0.000000,0.000000,7.278996,32.421654,1.202674
1649352440.822105,21432.000000,1649352440.821982,0.000000,0.000000,1.000000,0.000000,0.000000,0.000000,0.000000,7.279166,32.421926,1.191681
1649352440.922396,21433.000000,1649352440.922198,0.000000,0.000000,1.000000,0.000000,0.000000,0.000000,0.000000,7.278232,32.422218,1.185127
1649352441.022367,21434.000000,1649352441.022223,0.000000,0.000000,1.000000,0.000000,0.000000,0.000000,0.000000,7.278439,32.421437,1.167523
1649352441.122364,21435.000000,1649352441.122217,0.000000,0.000000,1.000000,0.000000,0.000000,0.000000,0.000000,7.278633,32.420732,1.160312
1649352441.222140,21436.000000,1649352441.222017,0.000000,0.000000,1.000000,0.000000,0.000000,0.000000,0.000000,7.278814,32.420100,1.159862
1649352441.322212,21437.000000,1649352441.322078,0.000000,0.000000,1.000000,0.000000,0.000000,0.000000,0.000000,7.277893,32.420626,1.142513
1649352441.422768,21438.000000,1649352441.422385,0.000000,0.000000,1.000000,0.000000,0.000000,0.000000,0.000000,7.278113,32.421153,1.120266
1649352441.522323,21439.000000,1649352441.522223,0.000000,0.000000,1.000000,0.000000,0.000000,0.000000,0.000000,7.277230,32.423860,1.111901
1649352441.622129,21440.000000,1649352441.622008,0.000000,0.000000,1.000000,0.000000,0.000000,0.000000,0.000000,7.275308,32.426436,1.113645
1649352441.722086,21441.000000,1649352441.721977,0.000000,0.000000,1.000000,0.000000,0.000000,0.000000,0.000000,7.273499,32.428880,1.119438
1649352441.822149,21442.000000,1649352441.822008,0.000000,0.000000,1.000000,0.000000,0.000000,0.000000,0.000000,7.271802,32.431189,1.127490
1649352441.922130,21443.000000,1649352441.922003,0.000000,0.000000,1.000000,0.000000,0.000000,0.000000,0.000000,7.270216,32.432275,1.132854
1649352442.022416,21444.000000,1649352442.022273,0.000000,0.000000,1.000000,0.000000,0.000000,0.000000,0.000000,7.268739,32.432201,1.142080
1649352442.122572,21445.000000,1649352442.122412,0.000000,0.000000,1.000000,0.000000,0.000000,0.000000,0.000000,7.266278,32.433212,1.154994
1649352442.222147,21446.000000,1649352442.221990,0.000000,0.000000,1.000000,0.000000,0.000000,0.000000,0.000000,7.265072,32.439607,1.164972
1649352442.322118,21447.000000,1649352442.322004,0.000000,0.000000,1.000000,0.000000,0.000000,0.000000,0.000000,7.263967,32.443441,1.176148
1649352442.422029,21448.000000,1649352442.421924,0.000000,0.000000,1.000000,0.000000,0.000000,0.000000,0.000000,7.265137,32.448114,1.185231
1649352442.522075,21449.000000,1649352442.521982,0.000000,0.000000,1.000000,0.000000,0.000000,0.000000,0.000000,7.265183,32.452478,1.193095
1649352442.622020,21450.000000,1649352442.621909,0.000000,0.000000,1.000000,0.000000,0.000000,0.000000,0.000000,7.265255,32.455450,1.207038
1649352442.722094,21451.000000,1649352442.721994,0.000000,0.000000,1.000000,0.000000,0.000000,0.000000,0.000000,7.267529,32.458189,1.225986
1649352442.822226,21452.000000,1649352442.822065,0.000000,0.000000,1.000000,0.000000,0.000000,0.000000,0.000000,7.267516,32.458523,1.221483
1649352442.922777,21453.000000,1649352442.922616,0.000000,0.000000,1.000000,0.000000,0.000000,0.000000,0.000000,7.267520,32.457676,1.201744
1649352443.022694,21454.000000,1649352443.022421,0.000000,0.000000,1.000000,0.000000,0.000000,0.000000,0.000000,7.266449,32.458991,1.195647
1649352443.122520,21455.000000,1649352443.122363,0.000000,0.000000,1.000000,0.000000,0.000000,0.000000,0.000000,7.266544,32.460170,1.189751
1649352443.222144,21456.000000,1649352443.221994,0.000000,0.000000,1.000000,0.000000,0.000000,0.000000,0.000000,7.266651,32.460128,1.186480
1649352443.321986,21457.000000,1649352443.321878,0.000000,0.000000,1.000000,0.000000,0.000000,0.000000,0.000000,7.266767,32.460027,1.175250
1649352443.422067,21458.000000,1649352443.421939,0.000000,0.000000,1.000000,0.000000,0.000000,0.000000,0.000000,7.267981,32.458784,1.168500
1649352443.522171,21459.000000,1649352443.522035,0.000000,0.000000,1.000000,0.000000,0.000000,0.000000,0.000000,7.269139,32.458648,1.170093
1649352443.622189,21460.000000,1649352443.622050,0.000000,0.000000,1.000000,0.000000,0.000000,0.000000,0.000000,7.270238,32.459563,1.165979
1649352443.722121,21461.000000,1649352443.721990,0.000000,0.000000,1.000000,0.000000,0.000000,0.000000,0.000000,7.272370,32.458200,1.159622
1649352443.822530,21462.000000,1649352443.822305,0.000000,0.000000,1.000000,0.000000,0.000000,0.000000,0.000000,7.275470,32.455781,1.159187
1649352443.922265,21463.000000,1649352443.922153,0.000000,0.000000,1.000000,0.000000,0.000000,0.000000,0.000000,7.279477,32.453464,1.167661
1649352444.022276,21464.000000,1649352444.022177,0.000000,0.000000,1.000000,0.000000,0.000000,0.000000,0.000000,7.283240,32.451252,1.178217
1649352444.122035,21465.000000,1649352444.121907,0.000000,0.000000,1.000000,0.000000,0.000000,0.000000,0.000000,7.286760,32.449147,1.174626
1649352444.222084,21466.000000,1649352444.221988,0.000000,0.000000,1.000000,0.000000,0.000000,0.000000,0.000000,7.288952,32.447151,1.164721
1649352444.322328,21467.000000,1649352444.322158,0.000000,0.000000,1.000000,0.000000,0.000000,0.000000,0.000000,7.290975,32.445265,1.164903
1649352444.422455,21468.000000,1649352444.422341,0.000000,0.000000,1.000000,0.000000,0.000000,0.000000,0.000000,7.291744,32.443488,1.169121
1649352444.522300,21469.000000,1649352444.522179,0.000000,0.000000,1.000000,0.000000,0.000000,0.000000,0.000000,7.290237,32.442911,1.180428
1649352444.622163,21470.000000,1649352444.621999,0.000000,0.000000,1.000000,0.000000,0.000000,0.000000,0.000000,7.289858,32.441288,1.188038
1649352444.722308,21471.000000,1649352444.722166,0.000000,0.000000,1.000000,0.000000,0.000000,0.000000,0.000000,7.289457,32.438680,1.194505
1649352444.822138,21472.000000,1649352444.822005,0.000000,0.000000,1.000000,0.000000,0.000000,0.000000,0.000000,7.290132,32.437330,1.206317
1649352444.922065,21473.000000,1649352444.921958,0.000000,0.000000,1.000000,0.000000,0.000000,0.000000,0.000000,7.291822,32.436080,1.221629
1649352445.022093,21474.000000,1649352445.021973,0.000000,0.000000,1.000000,0.000000,0.000000,0.000000,0.000000,7.293380,32.434929,1.240275
1649352445.122120,21475.000000,1649352445.122021,0.000000,0.000000,1.000000,0.000000,0.000000,0.000000,0.000000,7.294809,32.431692,1.249996
1649352445.222121,21476.000000,1649352445.222000,0.000000,0.000000,1.000000,0.000000,0.000000,0.000000,0.000000,7.296115,32.430851,1.255978
1649352445.322094,21477.000000,1649352445.321981,0.000000,0.000000,1.000000,0.000000,0.000000,0.000000,0.000000,7.297303,32.430097,1.243045
1649352445.422104,21478.000000,1649352445.421935,0.000000,0.000000,1.000000,0.000000,0.000000,0.000000,0.000000,7.299469,32.429425,1.236986
1649352445.522075,21479.000000,1649352445.521955,0.000000,0.000000,1.000000,0.000000,0.000000,0.000000,0.000000,7.300375,32.431010,1.239957
1649352445.622067,21480.000000,1649352445.621941,0.000000,0.000000,1.000000,0.000000,0.000000,0.000000,0.000000,7.301180,32.431452,1.247562
1649352445.722040,21481.000000,1649352445.721931,0.000000,0.000000,1.000000,0.000000,0.000000,0.000000,0.000000,7.299708,32.432989,1.261217
1649352445.822159,21482.000000,1649352445.822049,0.000000,0.000000,1.000000,0.000000,0.000000,0.000000,0.000000,7.301544,32.434466,1.273401
1649352445.922197,21483.000000,1649352445.922067,0.000000,0.000000,1.000000,0.000000,0.000000,0.000000,0.000000,7.301053,32.435880,1.284963
1649352446.022325,21484.000000,1649352446.022176,0.000000,0.000000,1.000000,0.000000,0.000000,0.000000,0.000000,7.301636,32.436138,1.296722
1649352446.122437,21485.000000,1649352446.122291,0.000000,0.000000,1.000000,0.000000,0.000000,0.000000,0.000000,7.301054,32.436392,1.304623
1649352446.222951,21486.000000,1649352446.222644,0.000000,0.000000,1.000000,0.000000,0.000000,0.000000,0.000000,7.300467,32.435551,1.312040
1649352446.322117,21487.000000,1649352446.322000,0.000000,0.000000,1.000000,0.000000,0.000000,0.000000,0.000000,7.299878,32.434767,1.300440
1649352446.421984,21488.000000,1649352446.421895,0.000000,0.000000,1.000000,0.000000,0.000000,0.000000,0.000000,7.300381,32.436218,1.286744
1649352446.522054,21489.000000,1649352446.521947,0.000000,0.000000,1.000000,0.000000,0.000000,0.000000,0.000000,7.300827,32.436508,1.281550
1649352446.622175,21490.000000,1649352446.622057,0.000000,0.000000,1.000000,0.000000,0.000000,0.000000,0.000000,7.301219,32.437879,1.285336
1649352446.722295,21491.000000,1649352446.722173,0.000000,0.000000,1.000000,0.000000,0.000000,0.000000,0.000000,7.302651,32.436996,1.284833
1649352446.822053,21492.000000,1649352446.821938,0.000000,0.000000,1.000000,0.000000,0.000000,0.000000,0.000000,7.301792,32.436165,1.280221
1649352446.922050,21493.000000,1649352446.921936,0.000000,0.000000,1.000000,0.000000,0.000000,0.000000,0.000000,7.299862,32.435386,1.283774
1649352447.022429,21494.000000,1649352447.022221,0.000000,0.000000,1.000000,0.000000,0.000000,0.000000,0.000000,7.296928,32.434657,1.283869
1649352447.122177,21495.000000,1649352447.122073,0.000000,0.000000,1.000000,0.000000,0.000000,0.000000,0.000000,7.295234,32.432889,1.279037
1649352447.221993,21496.000000,1649352447.221910,0.000000,0.000000,1.000000,0.000000,0.000000,0.000000,0.000000,7.291449,32.433413,1.278359
1649352447.322011,21497.000000,1649352447.321893,0.000000,0.000000,1.000000,0.000000,0.000000,0.000000,0.000000,7.287878,32.432831,1.275220
1649352447.422074,21498.000000,1649352447.421952,0.000000,0.000000,1.000000,0.000000,0.000000,0.000000,0.000000,7.284521,32.433385,1.278598
1649352447.522102,21499.000000,1649352447.521990,0.000000,0.000000,1.000000,0.000000,0.000000,0.000000,0.000000,7.282466,32.432830,1.262422
1649352447.622102,21500.000000,1649352447.621979,0.000000,0.000000,1.000000,0.000000,0.000000,0.000000,0.000000,7.280557,32.433408,1.257348
1649352447.722086,21501.000000,1649352447.721981,0.000000,0.000000,1.000000,0.000000,0.000000,0.000000,0.000000,7.280971,32.433964,1.260520
1649352447.822247,21502.000000,1649352447.822064,0.000000,0.000000,1.000000,0.000000,0.000000,0.000000,0.000000,7.282486,32.433408,1.241761
1649352447.922307,21503.000000,1649352447.922219,0.000000,0.000000,1.000000,0.000000,0.000000,0.000000,0.000000,7.283947,32.433981,1.231022
1649352448.022084,21504.000000,1649352448.021965,0.000000,0.000000,1.000000,0.000000,0.000000,0.000000,0.000000,7.285349,32.435619,1.231222
1649352448.121975,21505.000000,1649352448.121876,0.000000,0.000000,1.000000,0.000000,0.000000,0.000000,0.000000,7.286690,32.436080,1.238694
1649352448.222054,21506.000000,1649352448.221947,0.000000,0.000000,1.000000,0.000000,0.000000,0.000000,0.000000,7.287969,32.436514,1.246679
1649352448.322292,21507.000000,1649352448.322144,0.000000,0.000000,1.000000,0.000000,0.000000,0.000000,0.000000,7.287004,32.439104,1.247079
1649352448.422501,21508.000000,1649352448.422316,0.000000,0.000000,1.000000,0.000000,0.000000,0.000000,0.000000,7.285009,32.440453,1.250682
1649352448.522152,21509.000000,1649352448.522040,0.000000,0.000000,1.000000,0.000000,0.000000,0.000000,0.000000,7.283138,32.441715,1.235579
1649352448.622607,21510.000000,1649352448.622261,0.000000,0.000000,1.000000,0.000000,0.000000,0.000000,0.000000,7.281387,32.443981,1.217067
1649352448.722414,21511.000000,1649352448.722272,0.000000,0.000000,1.000000,0.000000,0.000000,0.000000,0.000000,7.279756,32.442830,1.193701
1649352448.822087,21512.000000,1649352448.821973,0.000000,0.000000,1.000000,0.000000,0.000000,0.000000,0.000000,7.278242,32.440634,1.176197
1649352448.922252,21513.000000,1649352448.922166,0.000000,0.000000,1.000000,0.000000,0.000000,0.000000,0.000000,7.275750,32.437457,1.160315
1649352449.022136,21514.000000,1649352449.022012,0.000000,0.000000,1.000000,0.000000,0.000000,0.000000,0.000000,7.273431,32.435544,1.151655
1649352449.122105,21515.000000,1649352449.121994,0.000000,0.000000,1.000000,0.000000,0.000000,0.000000,0.000000,7.274551,32.433741,1.145904
1649352449.222094,21516.000000,1649352449.221969,0.000000,0.000000,1.000000,0.000000,0.000000,0.000000,0.000000,7.273466,32.430959,1.142949
1649352449.322055,21517.000000,1649352449.321944,0.000000,0.000000,1.000000,0.000000,0.000000,0.000000,0.000000,7.272477,32.428347,1.148320
1649352449.422290,21518.000000,1649352449.422148,0.000000,0.000000,1.000000,0.000000,0.000000,0.000000,0.000000,7.271581,32.428086,1.160861
1649352449.522092,21519.000000,1649352449.521948,0.000000,0.000000,1.000000,0.000000,0.000000,0.000000,0.000000,7.271862,32.428956,1.178643
1649352449.622118,21520.000000,1649352449.622014,0.000000,0.000000,1.000000,0.000000,0.000000,0.000000,0.000000,7.272164,32.429800,1.194162
1649352449.722024,21521.000000,1649352449.721923,0.000000,0.000000,1.000000,0.000000,0.000000,0.000000,0.000000,7.273573,32.431707,1.197803
1649352449.822018,21522.000000,1649352449.821910,0.000000,0.000000,1.000000,0.000000,0.000000,0.000000,0.000000,7.273842,32.433521,1.201328
1649352449.922309,21523.000000,1649352449.922171,0.000000,0.000000,1.000000,0.000000,0.000000,0.000000,0.000000,7.274119,32.435241,1.209572
1649352450.022128,21524.000000,1649352450.021985,0.000000,0.000000,1.000000,0.000000,0.000000,0.000000,0.000000,7.272223,32.436867,1.198137
1649352450.122138,21525.000000,1649352450.121972,0.000000,0.000000,1.000000,0.000000,0.000000,0.000000,0.000000,7.270457,32.438398,1.185576
1649352450.222792,21526.000000,1649352450.222360,0.000000,0.000000,1.000000,0.000000,0.000000,0.000000,0.000000,7.269907,32.439834,1.185666
1649352450.322337,21527.000000,1649352450.322232,0.000000,0.000000,1.000000,0.000000,0.000000,0.000000,0.000000,7.269418,32.440088,1.172087
1649352450.422365,21528.000000,1649352450.422241,0.000000,0.000000,1.000000,0.000000,0.000000,0.000000,0.000000,7.270077,32.439223,1.167187
1649352450.522182,21529.000000,1649352450.522075,0.000000,0.000000,1.000000,0.000000,0.000000,0.000000,0.000000,7.269636,32.440575,1.169813
1649352450.622096,21530.000000,1649352450.621981,0.000000,0.000000,1.000000,0.000000,0.000000,0.000000,0.000000,7.269245,32.440749,1.174011
1649352450.722118,21531.000000,1649352450.722001,0.000000,0.000000,1.000000,0.000000,0.000000,0.000000,0.000000,7.269992,32.441989,1.184546
1649352450.822206,21532.000000,1649352450.822095,0.000000,0.000000,1.000000,0.000000,0.000000,0.000000,0.000000,7.270721,32.443145,1.198722
1649352450.922075,21533.000000,1649352450.921978,0.000000,0.000000,1.000000,0.000000,0.000000,0.000000,0.000000,7.271428,32.443127,1.198626
1649352451.022719,21534.000000,1649352451.022258,0.000000,0.000000,1.000000,0.000000,0.000000,0.000000,0.000000,7.271022,32.443092,1.204995
1649352451.122279,21535.000000,1649352451.122116,0.000000,0.000000,1.000000,0.000000,0.000000,0.000000,0.000000,7.271744,32.444131,1.216749
1649352451.222151,21536.000000,1649352451.222011,0.000000,0.000000,1.000000,0.000000,0.000000,0.000000,0.000000,7.271349,32.442913,1.227200
1649352451.322216,21537.000000,1649352451.322078,0.000000,0.000000,1.000000,0.000000,0.000000,0.000000,0.000000,7.273169,32.440657,1.239610
1649352451.422099,21538.000000,1649352451.421973,0.000000,0.000000,1.000000,0.000000,0.000000,0.000000,0.000000,7.275987,32.439607,1.252268
1649352451.522133,21539.000000,1649352451.522017,0.000000,0.000000,1.000000,0.000000,0.000000,0.000000,0.000000,7.276468,32.439701,1.266758
1649352451.622187,21540.000000,1649352451.622059,0.000000,0.000000,1.000000,0.000000,0.000000,0.000000,0.000000,7.276919,32.439787,1.278951
1649352451.722471,21541.000000,1649352451.722318,0.000000,0.000000,1.000000,0.000000,0.000000,0.000000,0.000000,7.277340,32.438774,1.271183
1649352451.823329,21542.000000,1649352451.822584,0.000000,0.000000,1.000000,0.000000,0.000000,0.000000,0.000000,7.277732,32.436726,1.270082
1649352451.922424,21543.000000,1649352451.922279,0.000000,0.000000,1.000000,0.000000,0.000000,0.000000,0.000000,7.279186,32.433706,1.268128
1649352452.022130,21544.000000,1649352452.021989,0.000000,0.000000,1.000000,0.000000,0.000000,0.000000,0.000000,7.279459,32.433047,1.271813
1649352452.122128,21545.000000,1649352452.122026,0.000000,0.000000,1.000000,0.000000,0.000000,0.000000,0.000000,7.280796,32.431350,1.272843
1649352452.222151,21546.000000,1649352452.221963,0.000000,0.000000,1.000000,0.000000,0.000000,0.000000,0.000000,7.282045,32.430857,1.277779
1649352452.322169,21547.000000,1649352452.322051,0.000000,0.000000,1.000000,0.000000,0.000000,0.000000,0.000000,7.283208,32.429322,1.283233
1649352452.422206,21548.000000,1649352452.422097,0.000000,0.000000,1.000000,0.000000,0.000000,0.000000,0.000000,7.283197,32.427896,1.284339
1649352452.522153,21549.000000,1649352452.522050,0.000000,0.000000,1.000000,0.000000,0.000000,0.000000,0.000000,7.282076,32.427666,1.290146
1649352452.622445,21550.000000,1649352452.622209,0.000000,0.000000,1.000000,0.000000,0.000000,0.000000,0.000000,7.282092,32.427476,1.297233
1649352452.722220,21551.000000,1649352452.722114,0.000000,0.000000,1.000000,0.000000,0.000000,0.000000,0.000000,7.283184,32.427322,1.294250
1649352452.822023,21552.000000,1649352452.821921,0.000000,0.000000,1.000000,0.000000,0.000000,0.000000,0.000000,7.283108,32.426112,1.284837
1649352452.922336,21553.000000,1649352452.922233,0.000000,0.000000,1.000000,0.000000,0.000000,0.000000,0.000000,7.283022,32.426085,1.282179
1649352453.022402,21554.000000,1649352453.022174,0.000000,0.000000,1.000000,0.000000,0.000000,0.000000,0.000000,7.281835,32.423906,1.269074
1649352453.122160,21555.000000,1649352453.122054,0.000000,0.000000,1.000000,0.000000,0.000000,0.000000,0.000000,7.279614,32.422966,1.266130
1649352453.222271,21556.000000,1649352453.222154,0.000000,0.000000,1.000000,0.000000,0.000000,0.000000,0.000000,7.279691,32.421021,1.257622
1649352453.322462,21557.000000,1649352453.322341,0.000000,0.000000,1.000000,0.000000,0.000000,0.000000,0.000000,7.279762,32.419217,1.255887
1649352453.423439,21558.000000,1649352453.423139,0.000000,0.000000,1.000000,0.000000,0.000000,0.000000,0.000000,7.279827,32.416463,1.250978
1649352453.522384,21559.000000,1649352453.522271,0.000000,0.000000,1.000000,0.000000,0.000000,0.000000,0.000000,7.279886,32.413905,1.245452
1649352453.622388,21560.000000,1649352453.622252,0.000000,0.000000,1.000000,0.000000,0.000000,0.000000,0.000000,7.279939,32.411538,1.220795
1649352453.722414,21561.000000,1649352453.722261,0.000000,0.000000,1.000000,0.000000,0.000000,0.000000,0.000000,7.279987,32.410447,1.210884
1649352453.822526,21562.000000,1649352453.822410,0.000000,0.000000,1.000000,0.000000,0.000000,0.000000,0.000000,7.278939,32.411653,1.193366
1649352453.922296,21563.000000,1649352453.922168,0.000000,0.000000,1.000000,0.000000,0.000000,0.000000,0.000000,7.277950,32.412844,1.163736
1649352454.022184,21564.000000,1649352454.022033,0.000000,0.000000,1.000000,0.000000,0.000000,0.000000,0.000000,7.275927,32.414012,1.138658
1649352454.122084,21565.000000,1649352454.121956,0.000000,0.000000,1.000000,0.000000,0.000000,0.000000,0.000000,7.275116,32.415153,1.109920
1649352454.222165,21566.000000,1649352454.222018,0.000000,0.000000,1.000000,0.000000,0.000000,0.000000,0.000000,7.273270,32.418444,1.080938
1649352454.322599,21567.000000,1649352454.322480,0.000000,0.000000,1.000000,0.000000,0.000000,0.000000,0.000000,7.271542,32.419395,1.061439
1649352454.422485,21568.000000,1649352454.422361,0.000000,0.000000,1.000000,0.000000,0.000000,0.000000,0.000000,7.268840,32.421398,1.036548
1649352454.522454,21569.000000,1649352454.522308,0.000000,0.000000,1.000000,0.000000,0.000000,0.000000,0.000000,7.267404,32.423301,1.016997
1649352454.622083,21570.000000,1649352454.621969,0.000000,0.000000,1.000000,0.000000,0.000000,0.000000,0.000000,7.267168,32.425100,0.989686
1649352454.722378,21571.000000,1649352454.721990,0.000000,0.000000,1.000000,0.000000,0.000000,0.000000,0.000000,7.268066,32.425707,0.968672
1649352454.822281,21572.000000,1649352454.822159,0.000000,0.000000,1.000000,0.000000,0.000000,0.000000,0.000000,7.271122,32.427366,0.962593
1649352454.922261,21573.000000,1649352454.922086,0.000000,0.000000,1.000000,0.000000,0.000000,0.000000,0.000000,7.272937,32.427832,0.942614
1649352455.022389,21574.000000,1649352455.022165,0.000000,0.000000,1.000000,0.000000,0.000000,0.000000,0.000000,7.274661,32.428262,0.918992
1649352455.122347,21575.000000,1649352455.122231,0.000000,0.000000,1.000000,0.000000,0.000000,0.000000,0.000000,7.277383,32.427565,0.905607
1649352455.222045,21576.000000,1649352455.221932,0.000000,0.000000,1.000000,0.000000,0.000000,0.000000,0.000000,7.279952,32.427986,0.902859
1649352455.322036,21577.000000,1649352455.321927,0.000000,0.000000,1.000000,0.000000,0.000000,0.000000,0.000000,7.282366,32.428375,0.895788
1649352455.422042,21578.000000,1649352455.421948,0.000000,0.000000,1.000000,0.000000,0.000000,0.000000,0.000000,7.284628,32.428731,0.897469
1649352455.522192,21579.000000,1649352455.522024,0.000000,0.000000,1.000000,0.000000,0.000000,0.000000,0.000000,7.287830,32.429057,0.906721
1649352455.622305,21580.000000,1649352455.622154,0.000000,0.000000,1.000000,0.000000,0.000000,0.000000,0.000000,7.290823,32.430443,0.915950
1649352455.722460,21581.000000,1649352455.722329,0.000000,0.000000,1.000000,0.000000,0.000000,0.000000,0.000000,7.293610,32.431738,0.928353
1649352455.822695,21582.000000,1649352455.822458,0.000000,0.000000,1.000000,0.000000,0.000000,0.000000,0.000000,7.297287,32.434035,0.947798
1649352455.922457,21583.000000,1649352455.922259,0.000000,0.000000,1.000000,0.000000,0.000000,0.000000,0.000000,7.299616,32.435091,0.970732
1649352456.022363,21584.000000,1649352456.022255,0.000000,0.000000,1.000000,0.000000,0.000000,0.000000,0.000000,7.300665,32.434972,0.991320
1649352456.122206,21585.000000,1649352456.122082,0.000000,0.000000,1.000000,0.000000,0.000000,0.000000,0.000000,7.300506,32.434836,0.997516
1649352456.222119,21586.000000,1649352456.222003,0.000000,0.000000,1.000000,0.000000,0.000000,0.000000,0.000000,7.299207,32.434683,1.012465
1649352456.322179,21587.000000,1649352456.322060,0.000000,0.000000,1.000000,0.000000,0.000000,0.000000,0.000000,7.299019,32.433428,1.028525
1649352456.422166,21588.000000,1649352456.422046,0.000000,0.000000,1.000000,0.000000,0.000000,0.000000,0.000000,7.298796,32.430044,1.023039
1649352456.522310,21589.000000,1649352456.522173,0.000000,0.000000,1.000000,0.000000,0.000000,0.000000,0.000000,7.295270,32.426839,1.027527
1649352456.622612,21590.000000,1649352456.622447,0.000000,0.000000,1.000000,0.000000,0.000000,0.000000,0.000000,7.291906,32.424906,1.034318
1649352456.722327,21591.000000,1649352456.722186,0.000000,0.000000,1.000000,0.000000,0.000000,0.000000,0.000000,7.289799,32.424180,1.050563
1649352456.822091,21592.000000,1649352456.821993,0.000000,0.000000,1.000000,0.000000,0.000000,0.000000,0.000000,7.286707,32.422417,1.058109
1649352456.921957,21593.000000,1649352456.921876,0.000000,0.000000,1.000000,0.000000,0.000000,0.000000,0.000000,7.282693,32.422949,1.074230
1649352457.022027,21594.000000,1649352457.021933,0.000000,0.000000,1.000000,0.000000,0.000000,0.000000,0.000000,7.278912,32.423467,1.092099
1649352457.122188,21595.000000,1649352457.122062,0.000000,0.000000,1.000000,0.000000,0.000000,0.000000,0.000000,7.276451,32.423969,1.085812
1649352457.222163,21596.000000,1649352457.222046,0.000000,0.000000,1.000000,0.000000,0.000000,0.000000,0.000000,7.275245,32.424455,1.066030
1649352457.322200,21597.000000,1649352457.321982,0.000000,0.000000,1.000000,0.000000,0.000000,0.000000,0.000000,7.275228,32.423832,1.032528
1649352457.422194,21598.000000,1649352457.422072,0.000000,0.000000,1.000000,0.000000,0.000000,0.000000,0.000000,7.274153,32.422163,1.001237
1649352457.522319,21599.000000,1649352457.522181,0.000000,0.000000,1.000000,0.000000,0.000000,0.000000,0.000000,7.274259,32.420599,0.964861
1649352457.622129,21600.000000,1649352457.622009,0.000000,0.000000,1.000000,0.000000,0.000000,0.000000,0.000000,7.275480,32.421320,0.946243
1649352457.722150,21601.000000,1649352457.722019,0.000000,0.000000,1.000000,0.000000,0.000000,0.000000,0.000000,7.275569,32.423107,0.944692
1649352457.822157,21602.000000,1649352457.821971,0.000000,0.000000,1.000000,0.000000,0.000000,0.000000,0.000000,7.275676,32.422625,0.945805
1649352457.922466,21603.000000,1649352457.922338,0.000000,0.000000,1.000000,0.000000,0.000000,0.000000,0.000000,7.275799,32.419998,0.945433
1649352458.022219,21604.000000,1649352458.022104,0.000000,0.000000,1.000000,0.000000,0.000000,0.000000,0.000000,7.275935,32.419712,0.954114
1649352458.122084,21605.000000,1649352458.121936,0.000000,0.000000,1.000000,0.000000,0.000000,0.000000,0.000000,7.278262,32.419460,0.969040
1649352458.222273,21606.000000,1649352458.222121,0.000000,0.000000,1.000000,0.000000,0.000000,0.000000,0.000000,7.279382,32.419238,0.976220
1649352458.322072,21607.000000,1649352458.321970,0.000000,0.000000,1.000000,0.000000,0.000000,0.000000,0.000000,7.279356,32.420136,0.992077
1649352458.422257,21608.000000,1649352458.422146,0.000000,0.000000,1.000000,0.000000,0.000000,0.000000,0.000000,7.278247,32.422088,1.014619
1649352458.522123,21609.000000,1649352458.522010,0.000000,0.000000,1.000000,0.000000,0.000000,0.000000,0.000000,7.278297,32.423940,1.041921
1649352458.622090,21610.000000,1649352458.621967,0.000000,0.000000,1.000000,0.000000,0.000000,0.000000,0.000000,7.279443,32.426782,1.073745
1649352458.722308,21611.000000,1649352458.722157,0.000000,0.000000,1.000000,0.000000,0.000000,0.000000,0.000000,7.279440,32.430550,1.092920
1649352458.822464,21612.000000,1649352458.822355,0.000000,0.000000,1.000000,0.000000,0.000000,0.000000,0.000000,7.278350,32.433002,1.100733
1649352458.922472,21613.000000,1649352458.922344,0.000000,0.000000,1.000000,0.000000,0.000000,0.000000,0.000000,7.278417,32.434204,1.113761
1649352459.022561,21614.000000,1649352459.022397,0.000000,0.000000,1.000000,0.000000,0.000000,0.000000,0.000000,7.278487,32.435311,1.133391
1649352459.122375,21615.000000,1649352459.122263,0.000000,0.000000,1.000000,0.000000,0.000000,0.000000,0.000000,7.277468,32.437417,1.156910
1649352459.222301,21616.000000,1649352459.222180,0.000000,0.000000,1.000000,0.000000,0.000000,0.000000,0.000000,7.276513,32.439373,1.182514
1649352459.322172,21617.000000,1649352459.322047,0.000000,0.000000,1.000000,0.000000,0.000000,0.000000,0.000000,7.274531,32.440092,1.205245
1649352459.422357,21618.000000,1649352459.422194,0.000000,0.000000,1.000000,0.000000,0.000000,0.000000,0.000000,7.273764,32.441822,1.230835
1649352459.522282,21619.000000,1649352459.522091,0.000000,0.000000,1.000000,0.000000,0.000000,0.000000,0.000000,7.271967,32.443415,1.236557
1649352459.622192,21620.000000,1649352459.622073,0.000000,0.000000,1.000000,0.000000,0.000000,0.000000,0.000000,7.271381,32.444876,1.246599
1649352459.722258,21621.000000,1649352459.722136,0.000000,0.000000,1.000000,0.000000,0.000000,0.000000,0.000000,7.271940,32.446210,1.262396
1649352459.822198,21622.000000,1649352459.822067,0.000000,0.000000,1.000000,0.000000,0.000000,0.000000,0.000000,7.271399,32.446332,1.257089
1649352459.922475,21623.000000,1649352459.922320,0.000000,0.000000,1.000000,0.000000,0.000000,0.000000,0.000000,7.273088,32.447491,1.250905
1649352460.022078,21624.000000,1649352460.021971,0.000000,0.000000,1.000000,0.000000,0.000000,0.000000,0.000000,7.275791,32.446358,1.246321
1649352460.122046,21625.000000,1649352460.121947,0.000000,0.000000,1.000000,0.000000,0.000000,0.000000,0.000000,7.277260,32.445247,1.245711
1649352460.222349,21626.000000,1649352460.222243,0.000000,0.000000,1.000000,0.000000,0.000000,0.000000,0.000000,7.276469,32.445251,1.237635
1649352460.322220,21627.000000,1649352460.322101,0.000000,0.000000,1.000000,0.000000,0.000000,0.000000,0.000000,7.275723,32.446311,1.219192
1649352460.422498,21628.000000,1649352460.422348,0.000000,0.000000,1.000000,0.000000,0.000000,0.000000,0.000000,7.273932,32.446189,1.186001
1649352460.522441,21629.000000,1649352460.522301,0.000000,0.000000,1.000000,0.000000,0.000000,0.000000,0.000000,7.274430,32.446042,1.170172
1649352460.622700,21630.000000,1649352460.622442,0.000000,0.000000,1.000000,0.000000,0.000000,0.000000,0.000000,7.275999,32.444782,1.167004
1649352460.722456,21631.000000,1649352460.722334,0.000000,0.000000,1.000000,0.000000,0.000000,0.000000,0.000000,7.278575,32.442476,1.147769
1649352460.822028,21632.000000,1649352460.821919,0.000000,0.000000,1.000000,0.000000,0.000000,0.000000,0.000000,7.281005,32.440280,1.138150
1649352460.922123,21633.000000,1649352460.922003,0.000000,0.000000,1.000000,0.000000,0.000000,0.000000,0.000000,7.282199,32.438196,1.135358
1649352461.022097,21634.000000,1649352461.021997,0.000000,0.000000,1.000000,0.000000,0.000000,0.000000,0.000000,7.282222,32.435134,1.129446
1649352461.122127,21635.000000,1649352461.122013,0.000000,0.000000,1.000000,0.000000,0.000000,0.000000,0.000000,7.282228,32.433338,1.131839
1649352461.222153,21636.000000,1649352461.222040,0.000000,0.000000,1.000000,0.000000,0.000000,0.000000,0.000000,7.281129,32.432745,1.136554
1649352461.322181,21637.000000,1649352461.322050,0.000000,0.000000,1.000000,0.000000,0.000000,0.000000,0.000000,7.280080,32.432199,1.149135
1649352461.422128,21638.000000,1649352461.421999,0.000000,0.000000,1.000000,0.000000,0.000000,0.000000,0.000000,7.281263,32.430608,1.157146
1649352461.522538,21639.000000,1649352461.522429,0.000000,0.000000,1.000000,0.000000,0.000000,0.000000,0.000000,7.280191,32.436757,1.166405
1649352461.622069,21640.000000,1649352461.621960,0.000000,0.000000,1.000000,0.000000,0.000000,0.000000,0.000000,7.278081,32.441480,1.172816
1649352461.722039,21641.000000,1649352461.721948,0.000000,0.000000,1.000000,0.000000,0.000000,0.000000,0.000000,7.276088,32.443749,1.178096
1649352461.822141,21642.000000,1649352461.822035,0.000000,0.000000,1.000000,0.000000,0.000000,0.000000,0.000000,7.274211,32.443693,1.183900
1649352461.922163,21643.000000,1649352461.922039,0.000000,0.000000,1.000000,0.000000,0.000000,0.000000,0.000000,7.273539,32.443619,1.190198
1649352462.022129,21644.000000,1649352462.022023,0.000000,0.000000,1.000000,0.000000,0.000000,0.000000,0.000000,7.272918,32.443531,1.177608
1649352462.122187,21645.000000,1649352462.122074,0.000000,0.000000,1.000000,0.000000,0.000000,0.000000,0.000000,7.272347,32.441249,1.170305
1649352462.222095,21646.000000,1649352462.221980,0.000000,0.000000,1.000000,0.000000,0.000000,0.000000,0.000000,7.271823,32.440173,1.168089
1649352462.322513,21647.000000,1649352462.322380,0.000000,0.000000,1.000000,0.000000,0.000000,0.000000,0.000000,7.271345,32.438060,1.168342
1649352462.422302,21648.000000,1649352462.422129,0.000000,0.000000,1.000000,0.000000,0.000000,0.000000,0.000000,7.273091,32.436064,1.174998
1649352462.522207,21649.000000,1649352462.522072,0.000000,0.000000,1.000000,0.000000,0.000000,0.000000,0.000000,7.273663,32.434184,1.182144
