__time,/dwm1001/id_458E/pose_kf/header/seq,/dwm1001/id_458E/pose_kf/header/stamp,/dwm1001/id_458E/pose_kf/pose/orientation/pitch_deg,/dwm1001/id_458E/pose_kf/pose/orientation/roll_deg,/dwm1001/id_458E/pose_kf/pose/orientation/w,/dwm1001/id_458E/pose_kf/pose/orientation/x,/dwm1001/id_458E/pose_kf/pose/orientation/y,/dwm1001/id_458E/pose_kf/pose/orientation/yaw_deg,/dwm1001/id_458E/pose_kf/pose/orientation/z,/dwm1001/id_458E/pose_kf/pose/position/x,/dwm1001/id_458E/pose_kf/pose/position/y,/dwm1001/id_458E/pose_kf/pose/position/z
1649352109.422362,18690.000000,1649352109.422243,0.000000,0.000000,1.000000,0.000000,0.000000,0.000000,0.000000,7.838773,6.479119,-0.769198
1649352109.522359,18691.000000,1649352109.522198,0.000000,0.000000,1.000000,0.000000,0.000000,0.000000,0.000000,7.838325,6.479210,-0.783206
1649352109.622293,18692.000000,1649352109.622179,0.000000,0.000000,1.000000,0.000000,0.000000,0.000000,0.000000,7.837874,6.479297,-0.802057
1649352109.722289,18693.000000,1649352109.722189,0.000000,0.000000,1.000000,0.000000,0.000000,0.000000,0.000000,7.837422,6.479379,-0.821502
1649352109.822047,18694.000000,1649352109.821912,0.000000,0.000000,1.000000,0.000000,0.000000,0.000000,0.000000,7.835883,6.480546,-0.837463
1649352109.922201,18695.000000,1649352109.921945,0.000000,0.000000,1.000000,0.000000,0.000000,0.000000,0.000000,7.833321,6.481645,-0.851679
1649352110.022093,18696.000000,1649352110.021977,0.000000,0.000000,1.000000,0.000000,0.000000,0.000000,0.000000,7.831982,6.482677,-0.862594
1649352110.122057,18697.000000,1649352110.121942,0.000000,0.000000,1.000000,0.000000,0.000000,0.000000,0.000000,7.829624,6.484733,-0.871142
1649352110.222019,18698.000000,1649352110.221925,0.000000,0.000000,1.000000,0.000000,0.000000,0.000000,0.000000,7.828489,6.486661,-0.874193
1649352110.321999,18699.000000,1649352110.321888,0.000000,0.000000,1.000000,0.000000,0.000000,0.000000,0.000000,7.827425,6.486281,-0.887297
1649352110.422037,18700.000000,1649352110.421906,0.000000,0.000000,1.000000,0.000000,0.000000,0.000000,0.000000,7.825339,6.486994,-0.897945
1649352110.521997,18701.000000,1649352110.521886,0.000000,0.000000,1.000000,0.000000,0.000000,0.000000,0.000000,7.823385,6.487649,-0.903810
1649352110.622105,18702.000000,1649352110.621983,0.000000,0.000000,1.000000,0.000000,0.000000,0.000000,0.000000,7.822650,6.487156,-0.913960
1649352110.722119,18703.000000,1649352110.722013,0.000000,0.000000,1.000000,0.000000,0.000000,0.000000,0.000000,7.823068,6.484491,-0.874187
1649352110.822088,18704.000000,1649352110.821966,0.000000,0.000000,1.000000,0.000000,0.000000,0.000000,0.000000,7.822394,6.483053,-0.851098
1649352110.921997,18705.000000,1649352110.921899,0.000000,0.000000,1.000000,0.000000,0.000000,0.000000,0.000000,7.818508,6.480599,-0.790040
1649352111.022038,18706.000000,1649352111.021904,0.000000,0.000000,1.000000,0.000000,0.000000,0.000000,0.000000,7.815956,6.478284,-0.745879
1649352111.122176,18707.000000,1649352111.122011,0.000000,0.000000,1.000000,0.000000,0.000000,0.000000,0.000000,7.813582,6.476105,-0.720432
1649352111.222217,18708.000000,1649352111.222115,0.000000,0.000000,1.000000,0.000000,0.000000,0.000000,0.000000,7.812472,6.476244,-0.703311
1649352111.322151,18709.000000,1649352111.321976,0.000000,0.000000,1.000000,0.000000,0.000000,0.000000,0.000000,7.811468,6.474210,-0.702272
1649352111.422301,18710.000000,1649352111.422167,0.000000,0.000000,1.000000,0.000000,0.000000,0.000000,0.000000,7.810563,6.473399,-0.706988
1649352111.522191,18711.000000,1649352111.522090,0.000000,0.000000,1.000000,0.000000,0.000000,0.000000,0.000000,7.809754,6.473746,-0.713184
1649352111.622091,18712.000000,1649352111.621969,0.000000,0.000000,1.000000,0.000000,0.000000,0.000000,0.000000,7.810125,6.473003,-0.723207
1649352111.722132,18713.000000,1649352111.722013,0.000000,0.000000,1.000000,0.000000,0.000000,0.000000,0.000000,7.811608,6.473414,-0.730432
1649352111.822138,18714.000000,1649352111.821999,0.000000,0.000000,1.000000,0.000000,0.000000,0.000000,0.000000,7.813045,6.474911,-0.738991
1649352111.922008,18715.000000,1649352111.921910,0.000000,0.000000,1.000000,0.000000,0.000000,0.000000,0.000000,7.814432,6.477430,-0.737525
1649352112.022131,18716.000000,1649352112.022020,0.000000,0.000000,1.000000,0.000000,0.000000,0.000000,0.000000,7.815766,6.478726,-0.699021
1649352112.121950,18717.000000,1649352112.121843,0.000000,0.000000,1.000000,0.000000,0.000000,0.000000,0.000000,7.817043,6.478862,-0.633908
1649352112.222344,18718.000000,1649352112.222205,0.000000,0.000000,1.000000,0.000000,0.000000,0.000000,0.000000,7.817173,6.481170,-0.589333
1649352112.322138,18719.000000,1649352112.322000,0.000000,0.000000,1.000000,0.000000,0.000000,0.000000,0.000000,7.821668,6.480075,-0.520184
1649352112.421915,18720.000000,1649352112.421804,0.000000,0.000000,1.000000,0.000000,0.000000,0.000000,0.000000,7.830276,6.476854,-0.425137
1649352112.521951,18721.000000,1649352112.521814,0.000000,0.000000,1.000000,0.000000,0.000000,0.000000,0.000000,7.836202,6.473816,-0.369900
1649352112.621887,18722.000000,1649352112.621783,0.000000,0.000000,1.000000,0.000000,0.000000,0.000000,0.000000,7.837397,6.470959,-0.307779
1649352112.721936,18723.000000,1649352112.721858,0.000000,0.000000,1.000000,0.000000,0.000000,0.000000,0.000000,7.841749,6.467191,-0.226230
1649352112.821848,18724.000000,1649352112.821760,0.000000,0.000000,1.000000,0.000000,0.000000,0.000000,0.000000,7.844714,6.463664,-0.179373
1649352112.922312,18725.000000,1649352112.922210,0.000000,0.000000,1.000000,0.000000,0.000000,0.000000,0.000000,7.845271,6.460371,-0.159406
1649352113.022095,18726.000000,1649352113.021947,0.000000,0.000000,1.000000,0.000000,0.000000,0.000000,0.000000,7.845734,6.459491,-0.148310
1649352113.122139,18727.000000,1649352113.122037,0.000000,0.000000,1.000000,0.000000,0.000000,0.000000,0.000000,7.845020,6.460890,-0.139259
1649352113.222102,18728.000000,1649352113.221987,0.000000,0.000000,1.000000,0.000000,0.000000,0.000000,0.000000,7.844290,6.463348,-0.154735
1649352113.322001,18729.000000,1649352113.321886,0.000000,0.000000,1.000000,0.000000,0.000000,0.000000,0.000000,7.844639,6.465705,-0.175142
1649352113.422032,18730.000000,1649352113.421889,0.000000,0.000000,1.000000,0.000000,0.000000,0.000000,0.000000,7.843831,6.469048,-0.197796
1649352113.522233,18731.000000,1649352113.522119,0.000000,0.000000,1.000000,0.000000,0.000000,0.000000,0.000000,7.843024,6.472222,-0.223348
1649352113.622288,18732.000000,1649352113.622178,0.000000,0.000000,1.000000,0.000000,0.000000,0.000000,0.000000,7.842223,6.473044,-0.263710
1649352113.722304,18733.000000,1649352113.722174,0.000000,0.000000,1.000000,0.000000,0.000000,0.000000,0.000000,7.842523,6.476000,-0.291582
1649352113.822316,18734.000000,1649352113.822185,0.000000,0.000000,1.000000,0.000000,0.000000,0.000000,0.000000,7.842774,6.477695,-0.330790
1649352113.922474,18735.000000,1649352113.922292,0.000000,0.000000,1.000000,0.000000,0.000000,0.000000,0.000000,7.844071,6.479282,-0.366278
1649352114.022381,18736.000000,1649352114.022208,0.000000,0.000000,1.000000,0.000000,0.000000,0.000000,0.000000,7.844173,6.480764,-0.403770
1649352114.122209,18737.000000,1649352114.122100,0.000000,0.000000,1.000000,0.000000,0.000000,0.000000,0.000000,7.844238,6.481052,-0.448757
1649352114.222026,18738.000000,1649352114.221930,0.000000,0.000000,1.000000,0.000000,0.000000,0.000000,0.000000,7.844269,6.481302,-0.495211
1649352114.322075,18739.000000,1649352114.321956,0.000000,0.000000,1.000000,0.000000,0.000000,0.000000,0.000000,7.845361,6.480426,-0.537346
1649352114.422051,18740.000000,1649352114.421932,0.000000,0.000000,1.000000,0.000000,0.000000,0.000000,0.000000,7.845272,6.480671,-0.572847
1649352114.522101,18741.000000,1649352114.521948,0.000000,0.000000,1.000000,0.000000,0.000000,0.000000,0.000000,7.845159,6.480884,-0.604343
1649352114.622224,18742.000000,1649352114.622080,0.000000,0.000000,1.000000,0.000000,0.000000,0.000000,0.000000,7.845027,6.481069,-0.635983
1649352114.722402,18743.000000,1649352114.722255,0.000000,0.000000,1.000000,0.000000,0.000000,0.000000,0.000000,7.844877,6.481227,-0.666102
1649352114.821937,18744.000000,1649352114.821850,0.000000,0.000000,1.000000,0.000000,0.000000,0.000000,0.000000,7.842532,6.481360,-0.659236
1649352114.922004,18745.000000,1649352114.921891,0.000000,0.000000,1.000000,0.000000,0.000000,0.000000,0.000000,7.842482,6.481469,-0.672546
1649352115.022108,18746.000000,1649352115.022023,0.000000,0.000000,1.000000,0.000000,0.000000,0.000000,0.000000,7.841331,6.482648,-0.686657
1649352115.121992,18747.000000,1649352115.121888,0.000000,0.000000,1.000000,0.000000,0.000000,0.000000,0.000000,7.840234,6.483745,-0.701527
1649352115.221967,18748.000000,1649352115.221869,0.000000,0.000000,1.000000,0.000000,0.000000,0.000000,0.000000,7.839193,6.484762,-0.709851
1649352115.322001,18749.000000,1649352115.321907,0.000000,0.000000,1.000000,0.000000,0.000000,0.000000,0.000000,7.840388,6.485700,-0.734475
1649352115.422045,18750.000000,1649352115.421937,0.000000,0.000000,1.000000,0.000000,0.000000,0.000000,0.000000,7.845875,6.483292,-0.708581
1649352115.522274,18751.000000,1649352115.522158,0.000000,0.000000,1.000000,0.000000,0.000000,0.000000,0.000000,7.845589,6.479910,-0.662491
1649352115.622166,18752.000000,1649352115.622027,0.000000,0.000000,1.000000,0.000000,0.000000,0.000000,0.000000,7.845299,6.477799,-0.632591
1649352115.722058,18753.000000,1649352115.721918,0.000000,0.000000,1.000000,0.000000,0.000000,0.000000,0.000000,7.843917,6.477987,-0.612643
1649352115.821883,18754.000000,1649352115.821786,0.000000,0.000000,1.000000,0.000000,0.000000,0.000000,0.000000,7.846960,6.473805,-0.555510
1649352115.922107,18755.000000,1649352115.921974,0.000000,0.000000,1.000000,0.000000,0.000000,0.000000,0.000000,7.848726,6.469867,-0.526501
1649352116.022078,18756.000000,1649352116.021938,0.000000,0.000000,1.000000,0.000000,0.000000,0.000000,0.000000,7.850370,6.468350,-0.524531
1649352116.122049,18757.000000,1649352116.121936,0.000000,0.000000,1.000000,0.000000,0.000000,0.000000,0.000000,7.850805,6.466947,-0.535608
1649352116.222067,18758.000000,1649352116.221934,0.000000,0.000000,1.000000,0.000000,0.000000,0.000000,0.000000,7.851187,6.466743,-0.555958
1649352116.322275,18759.000000,1649352116.322119,0.000000,0.000000,1.000000,0.000000,0.000000,0.000000,0.000000,7.850430,6.466582,-0.569043
1649352116.422312,18760.000000,1649352116.422192,0.000000,0.000000,1.000000,0.000000,0.000000,0.000000,0.000000,7.849690,6.467551,-0.579972
1649352116.522170,18761.000000,1649352116.522027,0.000000,0.000000,1.000000,0.000000,0.000000,0.000000,0.000000,7.848969,6.468492,-0.595265
1649352116.622280,18762.000000,1649352116.622174,0.000000,0.000000,1.000000,0.000000,0.000000,0.000000,0.000000,7.848271,6.468313,-0.571980
1649352116.722399,18763.000000,1649352116.722287,0.000000,0.000000,1.000000,0.000000,0.000000,0.000000,0.000000,7.847597,6.469254,-0.562519
1649352116.822295,18764.000000,1649352116.822168,0.000000,0.000000,1.000000,0.000000,0.000000,0.000000,0.000000,7.846948,6.470160,-0.562312
1649352116.922288,18765.000000,1649352116.922159,0.000000,0.000000,1.000000,0.000000,0.000000,0.000000,0.000000,7.848508,6.468849,-0.524210
1649352117.022456,18766.000000,1649352117.022313,0.000000,0.000000,1.000000,0.000000,0.000000,0.000000,0.000000,7.849969,6.468715,-0.495773
1649352117.122132,18767.000000,1649352117.122002,0.000000,0.000000,1.000000,0.000000,0.000000,0.000000,0.000000,7.850244,6.469694,-0.485529
1649352117.221974,18768.000000,1649352117.221869,0.000000,0.000000,1.000000,0.000000,0.000000,0.000000,0.000000,7.854849,6.467360,-0.439530
1649352117.321982,18769.000000,1649352117.321888,0.000000,0.000000,1.000000,0.000000,0.000000,0.000000,0.000000,7.858083,6.466262,-0.422194
1649352117.421973,18770.000000,1649352117.421873,0.000000,0.000000,1.000000,0.000000,0.000000,0.000000,0.000000,7.857830,6.466335,-0.419484
1649352117.521969,18771.000000,1649352117.521844,0.000000,0.000000,1.000000,0.000000,0.000000,0.000000,0.000000,7.857556,6.466422,-0.431613
1649352117.622069,18772.000000,1649352117.621944,0.000000,0.000000,1.000000,0.000000,0.000000,0.000000,0.000000,7.856174,6.467613,-0.445855
1649352117.722044,18773.000000,1649352117.721938,0.000000,0.000000,1.000000,0.000000,0.000000,0.000000,0.000000,7.854841,6.468752,-0.477416
1649352117.822056,18774.000000,1649352117.821908,0.000000,0.000000,1.000000,0.000000,0.000000,0.000000,0.000000,7.859012,6.466567,-0.460216
1649352117.922439,18775.000000,1649352117.922307,0.000000,0.000000,1.000000,0.000000,0.000000,0.000000,0.000000,7.860742,6.466696,-0.418020
1649352118.022485,18776.000000,1649352118.022299,0.000000,0.000000,1.000000,0.000000,0.000000,0.000000,0.000000,7.862342,6.466832,-0.401095
1649352118.122313,18777.000000,1649352118.122200,0.000000,0.000000,1.000000,0.000000,0.000000,0.000000,0.000000,7.862725,6.468064,-0.397960
1649352118.222371,18778.000000,1649352118.222216,0.000000,0.000000,1.000000,0.000000,0.000000,0.000000,0.000000,7.861959,6.469236,-0.409668
1649352118.322247,18779.000000,1649352118.322132,0.000000,0.000000,1.000000,0.000000,0.000000,0.000000,0.000000,7.860111,6.470348,-0.423497
1649352118.422015,18780.000000,1649352118.421921,0.000000,0.000000,1.000000,0.000000,0.000000,0.000000,0.000000,7.858338,6.472491,-0.439331
1649352118.522083,18781.000000,1649352118.521922,0.000000,0.000000,1.000000,0.000000,0.000000,0.000000,0.000000,7.859914,6.472328,-0.413506
1649352118.622007,18782.000000,1649352118.621873,0.000000,0.000000,1.000000,0.000000,0.000000,0.000000,0.000000,7.860291,6.474350,-0.402580
1649352118.722159,18783.000000,1649352118.722035,0.000000,0.000000,1.000000,0.000000,0.000000,0.000000,0.000000,7.858444,6.475160,-0.407578
1649352118.822103,18784.000000,1649352118.821975,0.000000,0.000000,1.000000,0.000000,0.000000,0.000000,0.000000,7.854502,6.477002,-0.414939
1649352118.921970,18785.000000,1649352118.921880,0.000000,0.000000,1.000000,0.000000,0.000000,0.000000,0.000000,7.851863,6.478724,-0.428583
1649352119.022053,18786.000000,1649352119.021885,0.000000,0.000000,1.000000,0.000000,0.000000,0.000000,0.000000,7.849374,6.480330,-0.449033
1649352119.122129,18787.000000,1649352119.122033,0.000000,0.000000,1.000000,0.000000,0.000000,0.000000,0.000000,7.848125,6.481822,-0.471945
1649352119.222038,18788.000000,1649352119.221888,0.000000,0.000000,1.000000,0.000000,0.000000,0.000000,0.000000,7.846961,6.483203,-0.503628
1649352119.321979,18789.000000,1649352119.321872,0.000000,0.000000,1.000000,0.000000,0.000000,0.000000,0.000000,7.844790,6.484475,-0.535612
1649352119.422020,18790.000000,1649352119.421904,0.000000,0.000000,1.000000,0.000000,0.000000,0.000000,0.000000,7.841672,6.483463,-0.526701
1649352119.522241,18791.000000,1649352119.522062,0.000000,0.000000,1.000000,0.000000,0.000000,0.000000,0.000000,7.838758,6.483567,-0.526951
1649352119.622014,18792.000000,1649352119.621881,0.000000,0.000000,1.000000,0.000000,0.000000,0.000000,0.000000,7.831682,6.481457,-0.487606
1649352119.722063,18793.000000,1649352119.721925,0.000000,0.000000,1.000000,0.000000,0.000000,0.000000,0.000000,7.825052,6.479441,-0.470011
1649352119.822056,18794.000000,1649352119.821949,0.000000,0.000000,1.000000,0.000000,0.000000,0.000000,0.000000,7.819952,6.478614,-0.463640
1649352119.922105,18795.000000,1649352119.921987,0.000000,0.000000,1.000000,0.000000,0.000000,0.000000,0.000000,7.816310,6.476732,-0.425310
1649352120.022024,18796.000000,1649352120.021905,0.000000,0.000000,1.000000,0.000000,0.000000,0.000000,0.000000,7.814053,6.476040,-0.405564
1649352120.121901,18797.000000,1649352120.121794,0.000000,0.000000,1.000000,0.000000,0.000000,0.000000,0.000000,7.815288,6.474296,-0.355296
1649352120.222062,18798.000000,1649352120.221905,0.000000,0.000000,1.000000,0.000000,0.000000,0.000000,0.000000,7.815453,6.472651,-0.330655
1649352120.322097,18799.000000,1649352120.321976,0.000000,0.000000,1.000000,0.000000,0.000000,0.000000,0.000000,7.814601,6.472197,-0.318543
1649352120.422167,18800.000000,1649352120.422042,0.000000,0.000000,1.000000,0.000000,0.000000,0.000000,0.000000,7.813876,6.471778,-0.320078
1649352120.522115,18801.000000,1649352120.521967,0.000000,0.000000,1.000000,0.000000,0.000000,0.000000,0.000000,7.812179,6.471394,-0.334698
1649352120.622023,18802.000000,1649352120.621922,0.000000,0.000000,1.000000,0.000000,0.000000,0.000000,0.000000,7.810652,6.471043,-0.357001
1649352120.722188,18803.000000,1649352120.722050,0.000000,0.000000,1.000000,0.000000,0.000000,0.000000,0.000000,7.810379,6.471814,-0.380180
1649352120.822419,18804.000000,1649352120.822338,0.000000,0.000000,1.000000,0.000000,0.000000,0.000000,0.000000,7.810196,6.472553,-0.408185
1649352120.922250,18805.000000,1649352120.922091,0.000000,0.000000,1.000000,0.000000,0.000000,0.000000,0.000000,7.810094,6.475438,-0.422220
1649352121.022306,18806.000000,1649352121.022196,0.000000,0.000000,1.000000,0.000000,0.000000,0.000000,0.000000,7.815518,6.472712,-0.396210
1649352121.122203,18807.000000,1649352121.122036,0.000000,0.000000,1.000000,0.000000,0.000000,0.000000,0.000000,7.819603,6.471230,-0.391489
1649352121.222171,18808.000000,1649352121.222053,0.000000,0.000000,1.000000,0.000000,0.000000,0.000000,0.000000,7.822406,6.468749,-0.405590
1649352121.322014,18809.000000,1649352121.321905,0.000000,0.000000,1.000000,0.000000,0.000000,0.000000,0.000000,7.828348,6.465330,-0.378857
1649352121.421977,18810.000000,1649352121.421869,0.000000,0.000000,1.000000,0.000000,0.000000,0.000000,0.000000,7.833968,6.463215,-0.372655
1649352121.521971,18811.000000,1649352121.521863,0.000000,0.000000,1.000000,0.000000,0.000000,0.000000,0.000000,7.838174,6.462338,-0.381325
1649352121.622031,18812.000000,1649352121.621921,0.000000,0.000000,1.000000,0.000000,0.000000,0.000000,0.000000,7.841031,6.460451,-0.402635
1649352121.722019,18813.000000,1649352121.721906,0.000000,0.000000,1.000000,0.000000,0.000000,0.000000,0.000000,7.842606,6.461975,-0.420714
1649352121.822085,18814.000000,1649352121.821940,0.000000,0.000000,1.000000,0.000000,0.000000,0.000000,0.000000,7.844055,6.464537,-0.437271
1649352121.922246,18815.000000,1649352121.922120,0.000000,0.000000,1.000000,0.000000,0.000000,0.000000,0.000000,7.845384,6.466980,-0.459598
1649352122.022298,18816.000000,1649352122.022164,0.000000,0.000000,1.000000,0.000000,0.000000,0.000000,0.000000,7.846597,6.468211,-0.488232
1649352122.122311,18817.000000,1649352122.122188,0.000000,0.000000,1.000000,0.000000,0.000000,0.000000,0.000000,7.845519,6.469382,-0.518839
1649352122.222300,18818.000000,1649352122.222168,0.000000,0.000000,1.000000,0.000000,0.000000,0.000000,0.000000,7.844460,6.470492,-0.552905
1649352122.322312,18819.000000,1649352122.322214,0.000000,0.000000,1.000000,0.000000,0.000000,0.000000,0.000000,7.847788,6.468270,-0.537820
1649352122.422083,18820.000000,1649352122.421983,0.000000,0.000000,1.000000,0.000000,0.000000,0.000000,0.000000,7.849801,6.467265,-0.534469
1649352122.522132,18821.000000,1649352122.521996,0.000000,0.000000,1.000000,0.000000,0.000000,0.000000,0.000000,7.851660,6.467415,-0.542393
1649352122.621997,18822.000000,1649352122.621804,0.000000,0.000000,1.000000,0.000000,0.000000,0.000000,0.000000,7.853368,6.468655,-0.553871
1649352122.722169,18823.000000,1649352122.722061,0.000000,0.000000,1.000000,0.000000,0.000000,0.000000,0.000000,7.856022,6.466560,-0.546167
1649352122.822157,18824.000000,1649352122.822020,0.000000,0.000000,1.000000,0.000000,0.000000,0.000000,0.000000,7.857385,6.465679,-0.549107
1649352122.922412,18825.000000,1649352122.922265,0.000000,0.000000,1.000000,0.000000,0.000000,0.000000,0.000000,7.857525,6.465950,-0.564682
1649352123.022073,18826.000000,1649352123.021906,0.000000,0.000000,1.000000,0.000000,0.000000,0.000000,0.000000,7.856512,6.467306,-0.582686
1649352123.122166,18827.000000,1649352123.122001,0.000000,0.000000,1.000000,0.000000,0.000000,0.000000,0.000000,7.855505,6.467504,-0.608642
1649352123.222065,18828.000000,1649352123.221950,0.000000,0.000000,1.000000,0.000000,0.000000,0.000000,0.000000,7.854511,6.467697,-0.634129
1649352123.322031,18829.000000,1649352123.321876,0.000000,0.000000,1.000000,0.000000,0.000000,0.000000,0.000000,7.853533,6.467883,-0.663165
1649352123.422090,18830.000000,1649352123.421979,0.000000,0.000000,1.000000,0.000000,0.000000,0.000000,0.000000,7.854758,6.465881,-0.645569
1649352123.522296,18831.000000,1649352123.522113,0.000000,0.000000,1.000000,0.000000,0.000000,0.000000,0.000000,7.855883,6.463997,-0.644553
1649352123.622213,18832.000000,1649352123.622061,0.000000,0.000000,1.000000,0.000000,0.000000,0.000000,0.000000,7.855820,6.463321,-0.653816
1649352123.722254,18833.000000,1649352123.722114,0.000000,0.000000,1.000000,0.000000,0.000000,0.000000,0.000000,7.856818,6.461608,-0.619713
1649352123.822150,18834.000000,1649352123.822028,0.000000,0.000000,1.000000,0.000000,0.000000,0.000000,0.000000,7.855546,6.460008,-0.603737
1649352123.922281,18835.000000,1649352123.922170,0.000000,0.000000,1.000000,0.000000,0.000000,0.000000,0.000000,7.855406,6.459611,-0.599548
1649352124.021981,18836.000000,1649352124.021870,0.000000,0.000000,1.000000,0.000000,0.000000,0.000000,0.000000,7.855246,6.460349,-0.568779
1649352124.122084,18837.000000,1649352124.121989,0.000000,0.000000,1.000000,0.000000,0.000000,0.000000,0.000000,7.853981,6.461068,-0.552078
1649352124.222024,18838.000000,1649352124.221916,0.000000,0.000000,1.000000,0.000000,0.000000,0.000000,0.000000,7.852766,6.461764,-0.542456
1649352124.322201,18839.000000,1649352124.322051,0.000000,0.000000,1.000000,0.000000,0.000000,0.000000,0.000000,7.851603,6.463527,-0.538840
1649352124.422053,18840.000000,1649352124.421917,0.000000,0.000000,1.000000,0.000000,0.000000,0.000000,0.000000,7.851584,6.465201,-0.546640
1649352124.521977,18841.000000,1649352124.521864,0.000000,0.000000,1.000000,0.000000,0.000000,0.000000,0.000000,7.850467,6.467876,-0.552482
1649352124.622227,18842.000000,1649352124.621898,0.000000,0.000000,1.000000,0.000000,0.000000,0.000000,0.000000,7.849406,6.469308,-0.570143
1649352124.722123,18843.000000,1649352124.722019,0.000000,0.000000,1.000000,0.000000,0.000000,0.000000,0.000000,7.848401,6.470652,-0.588637
1649352124.822084,18844.000000,1649352124.821981,0.000000,0.000000,1.000000,0.000000,0.000000,0.000000,0.000000,7.847453,6.471907,-0.613547
1649352124.921977,18845.000000,1649352124.921866,0.000000,0.000000,1.000000,0.000000,0.000000,0.000000,0.000000,7.846561,6.474168,-0.635704
1649352125.022093,18846.000000,1649352125.021996,0.000000,0.000000,1.000000,0.000000,0.000000,0.000000,0.000000,7.846816,6.474100,-0.612445
1649352125.122303,18847.000000,1649352125.122128,0.000000,0.000000,1.000000,0.000000,0.000000,0.000000,0.000000,7.845973,6.475105,-0.604519
1649352125.222467,18848.000000,1649352125.222361,0.000000,0.000000,1.000000,0.000000,0.000000,0.000000,0.000000,7.843003,6.476030,-0.610521
1649352125.322358,18849.000000,1649352125.322215,0.000000,0.000000,1.000000,0.000000,0.000000,0.000000,0.000000,7.840212,6.477971,-0.620204
1649352125.422323,18850.000000,1649352125.422205,0.000000,0.000000,1.000000,0.000000,0.000000,0.000000,0.000000,7.838689,6.479775,-0.639860
1649352125.522276,18851.000000,1649352125.522180,0.000000,0.000000,1.000000,0.000000,0.000000,0.000000,0.000000,7.836187,6.481447,-0.656964
1649352125.622319,18852.000000,1649352125.622164,0.000000,0.000000,1.000000,0.000000,0.000000,0.000000,0.000000,7.833856,6.481900,-0.635303
1649352125.722339,18853.000000,1649352125.722234,0.000000,0.000000,1.000000,0.000000,0.000000,0.000000,0.000000,7.831692,6.483382,-0.621646
1649352125.822118,18854.000000,1649352125.822014,0.000000,0.000000,1.000000,0.000000,0.000000,0.000000,0.000000,7.830780,6.485834,-0.613280
1649352125.922148,18855.000000,1649352125.922023,0.000000,0.000000,1.000000,0.000000,0.000000,0.000000,0.000000,7.834325,6.485928,-0.568073
1649352126.022136,18856.000000,1649352126.022027,0.000000,0.000000,1.000000,0.000000,0.000000,0.000000,0.000000,7.837707,6.487064,-0.537591
1649352126.122164,18857.000000,1649352126.122040,0.000000,0.000000,1.000000,0.000000,0.000000,0.000000,0.000000,7.840924,6.489186,-0.522099
1649352126.222409,18858.000000,1649352126.222109,0.000000,0.000000,1.000000,0.000000,0.000000,0.000000,0.000000,7.842883,6.492234,-0.505694
1649352126.322064,18859.000000,1649352126.321953,0.000000,0.000000,1.000000,0.000000,0.000000,0.000000,0.000000,7.842555,6.493972,-0.502147
1649352126.422035,18860.000000,1649352126.421906,0.000000,0.000000,1.000000,0.000000,0.000000,0.000000,0.000000,7.842247,6.496648,-0.506910
1649352126.522097,18861.000000,1649352126.521987,0.000000,0.000000,1.000000,0.000000,0.000000,0.000000,0.000000,7.840868,6.498026,-0.488183
1649352126.622012,18862.000000,1649352126.621866,0.000000,0.000000,1.000000,0.000000,0.000000,0.000000,0.000000,7.839571,6.499266,-0.486457
1649352126.722111,18863.000000,1649352126.721949,0.000000,0.000000,1.000000,0.000000,0.000000,0.000000,0.000000,7.833993,6.498195,-0.443787
1649352126.822160,18864.000000,1649352126.822009,0.000000,0.000000,1.000000,0.000000,0.000000,0.000000,0.000000,7.834199,6.494946,-0.375601
1649352126.922397,18865.000000,1649352126.922208,0.000000,0.000000,1.000000,0.000000,0.000000,0.000000,0.000000,7.834419,6.491830,-0.339486
1649352127.022057,18866.000000,1649352127.021958,0.000000,0.000000,1.000000,0.000000,0.000000,0.000000,0.000000,7.834650,6.489945,-0.318070
1649352127.122007,18867.000000,1649352127.121911,0.000000,0.000000,1.000000,0.000000,0.000000,0.000000,0.000000,7.835980,6.489230,-0.308362
1649352127.222046,18868.000000,1649352127.221900,0.000000,0.000000,1.000000,0.000000,0.000000,0.000000,0.000000,7.837253,6.488535,-0.315539
1649352127.322050,18869.000000,1649352127.321952,0.000000,0.000000,1.000000,0.000000,0.000000,0.000000,0.000000,7.838467,6.486772,-0.337278
1649352127.422225,18870.000000,1649352127.422125,0.000000,0.000000,1.000000,0.000000,0.000000,0.000000,0.000000,7.845074,6.484005,-0.321329
1649352127.522363,18871.000000,1649352127.522090,0.000000,0.000000,1.000000,0.000000,0.000000,0.000000,0.000000,7.849125,6.482479,-0.316000
1649352127.622109,18872.000000,1649352127.622023,0.000000,0.000000,1.000000,0.000000,0.000000,0.000000,0.000000,7.850748,6.482131,-0.318441
1649352127.722171,18873.000000,1649352127.722060,0.000000,0.000000,1.000000,0.000000,0.000000,0.000000,0.000000,7.851162,6.480717,-0.333159
1649352127.822040,18874.000000,1649352127.821899,0.000000,0.000000,1.000000,0.000000,0.000000,0.000000,0.000000,7.850433,6.480481,-0.345915
1649352127.922466,18875.000000,1649352127.922326,0.000000,0.000000,1.000000,0.000000,0.000000,0.000000,0.000000,7.850808,6.480267,-0.361593
1649352128.022103,18876.000000,1649352128.022001,0.000000,0.000000,1.000000,0.000000,0.000000,0.000000,0.000000,7.851137,6.480075,-0.382461
1649352128.121999,18877.000000,1649352128.121879,0.000000,0.000000,1.000000,0.000000,0.000000,0.000000,0.000000,7.851423,6.480994,-0.392136
1649352128.222003,18878.000000,1649352128.221899,0.000000,0.000000,1.000000,0.000000,0.000000,0.000000,0.000000,7.850579,6.482959,-0.403951
1649352128.322036,18879.000000,1649352128.321922,0.000000,0.000000,1.000000,0.000000,0.000000,0.000000,0.000000,7.847579,6.483727,-0.373442
1649352128.422402,18880.000000,1649352128.422240,0.000000,0.000000,1.000000,0.000000,0.000000,0.000000,0.000000,7.846913,6.484451,-0.356392
1649352128.522347,18881.000000,1649352128.522198,0.000000,0.000000,1.000000,0.000000,0.000000,0.000000,0.000000,7.845187,6.486221,-0.350672
1649352128.622305,18882.000000,1649352128.622195,0.000000,0.000000,1.000000,0.000000,0.000000,0.000000,0.000000,7.844643,6.488976,-0.349375
1649352128.722241,18883.000000,1649352128.722112,0.000000,0.000000,1.000000,0.000000,0.000000,0.000000,0.000000,7.845220,6.493743,-0.344254
1649352128.821989,18884.000000,1649352128.821883,0.000000,0.000000,1.000000,0.000000,0.000000,0.000000,0.000000,7.846854,6.497128,-0.363692
1649352128.921965,18885.000000,1649352128.921869,0.000000,0.000000,1.000000,0.000000,0.000000,0.000000,0.000000,7.847303,6.500288,-0.381658
1649352129.022008,18886.000000,1649352129.021894,0.000000,0.000000,1.000000,0.000000,0.000000,0.000000,0.000000,7.846629,6.502137,-0.408661
1649352129.122083,18887.000000,1649352129.121932,0.000000,0.000000,1.000000,0.000000,0.000000,0.000000,0.000000,7.845987,6.502743,-0.440255
1649352129.222147,18888.000000,1649352129.222037,0.000000,0.000000,1.000000,0.000000,0.000000,0.000000,0.000000,7.846468,6.504357,-0.468941
1649352129.321996,18889.000000,1649352129.321898,0.000000,0.000000,1.000000,0.000000,0.000000,0.000000,0.000000,7.845828,6.505830,-0.498821
1649352129.422012,18890.000000,1649352129.421901,0.000000,0.000000,1.000000,0.000000,0.000000,0.000000,0.000000,7.846311,6.504987,-0.534639
1649352129.522103,18891.000000,1649352129.521976,0.000000,0.000000,1.000000,0.000000,0.000000,0.000000,0.000000,7.845675,6.504143,-0.568034
1649352129.622015,18892.000000,1649352129.621893,0.000000,0.000000,1.000000,0.000000,0.000000,0.000000,0.000000,7.848344,6.501121,-0.568410
1649352129.722094,18893.000000,1649352129.721974,0.000000,0.000000,1.000000,0.000000,0.000000,0.000000,0.000000,7.850857,6.498232,-0.577428
1649352129.822115,18894.000000,1649352129.821983,0.000000,0.000000,1.000000,0.000000,0.000000,0.000000,0.000000,7.852127,6.497662,-0.586670
1649352129.923840,18895.000000,1649352129.922687,0.000000,0.000000,1.000000,0.000000,0.000000,0.000000,0.000000,7.852218,6.496015,-0.605797
1649352130.022137,18896.000000,1649352130.022001,0.000000,0.000000,1.000000,0.000000,0.000000,0.000000,0.000000,7.852284,6.494447,-0.626324
1649352130.122051,18897.000000,1649352130.121936,0.000000,0.000000,1.000000,0.000000,0.000000,0.000000,0.000000,7.851239,6.494049,-0.645750
1649352130.222017,18898.000000,1649352130.221890,0.000000,0.000000,1.000000,0.000000,0.000000,0.000000,0.000000,7.851327,6.495850,-0.650389
1649352130.321969,18899.000000,1649352130.321848,0.000000,0.000000,1.000000,0.000000,0.000000,0.000000,0.000000,7.854669,6.494273,-0.619874
1649352130.422106,18900.000000,1649352130.421993,0.000000,0.000000,1.000000,0.000000,0.000000,0.000000,0.000000,7.855624,6.493868,-0.600039
1649352130.522146,18901.000000,1649352130.522002,0.000000,0.000000,1.000000,0.000000,0.000000,0.000000,0.000000,7.856504,6.492392,-0.593724
1649352130.621994,18902.000000,1649352130.621872,0.000000,0.000000,1.000000,0.000000,0.000000,0.000000,0.000000,7.860580,6.488819,-0.547176
1649352130.722091,18903.000000,1649352130.721949,0.000000,0.000000,1.000000,0.000000,0.000000,0.000000,0.000000,7.860035,6.485454,-0.492748
1649352130.822052,18904.000000,1649352130.821932,0.000000,0.000000,1.000000,0.000000,0.000000,0.000000,0.000000,7.858397,6.483386,-0.464724
1649352130.922034,18905.000000,1649352130.921908,0.000000,0.000000,1.000000,0.000000,0.000000,0.000000,0.000000,7.855731,6.480369,-0.456442
1649352131.022044,18906.000000,1649352131.021922,0.000000,0.000000,1.000000,0.000000,0.000000,0.000000,0.000000,7.854284,6.478643,-0.455020
1649352131.122025,18907.000000,1649352131.121906,0.000000,0.000000,1.000000,0.000000,0.000000,0.000000,0.000000,7.850724,6.477051,-0.466633
1649352131.222198,18908.000000,1649352131.222034,0.000000,0.000000,1.000000,0.000000,0.000000,0.000000,0.000000,7.847359,6.477769,-0.472991
1649352131.322368,18909.000000,1649352131.322221,0.000000,0.000000,1.000000,0.000000,0.000000,0.000000,0.000000,7.844188,6.477395,-0.489614
1649352131.422557,18910.000000,1649352131.422366,0.000000,0.000000,1.000000,0.000000,0.000000,0.000000,0.000000,7.841212,6.474898,-0.520093
1649352131.522848,18911.000000,1649352131.522513,0.000000,0.000000,1.000000,0.000000,0.000000,0.000000,0.000000,7.839516,6.472579,-0.553332
1649352131.622038,18912.000000,1649352131.621925,0.000000,0.000000,1.000000,0.000000,0.000000,0.000000,0.000000,7.837946,6.472614,-0.578682
1649352131.722195,18913.000000,1649352131.722098,0.000000,0.000000,1.000000,0.000000,0.000000,0.000000,0.000000,7.841949,6.470512,-0.560131
1649352131.822073,18914.000000,1649352131.821958,0.000000,0.000000,1.000000,0.000000,0.000000,0.000000,0.000000,7.845755,6.468572,-0.555938
1649352131.921984,18915.000000,1649352131.921871,0.000000,0.000000,1.000000,0.000000,0.000000,0.000000,0.000000,7.847180,6.467881,-0.562310
1649352132.022094,18916.000000,1649352132.021993,0.000000,0.000000,1.000000,0.000000,0.000000,0.000000,0.000000,7.847441,6.466188,-0.582846
1649352132.122068,18917.000000,1649352132.121962,0.000000,0.000000,1.000000,0.000000,0.000000,0.000000,0.000000,7.847689,6.466821,-0.613718
1649352132.222117,18918.000000,1649352132.221977,0.000000,0.000000,1.000000,0.000000,0.000000,0.000000,0.000000,7.852286,6.464197,-0.596398
1649352132.322194,18919.000000,1649352132.322065,0.000000,0.000000,1.000000,0.000000,0.000000,0.000000,0.000000,7.854438,6.463951,-0.587704
1649352132.422117,18920.000000,1649352132.421971,0.000000,0.000000,1.000000,0.000000,0.000000,0.000000,0.000000,7.854273,6.463769,-0.586503
1649352132.522415,18921.000000,1649352132.522273,0.000000,0.000000,1.000000,0.000000,0.000000,0.000000,0.000000,7.853009,6.463647,-0.593306
1649352132.622078,18922.000000,1649352132.621895,0.000000,0.000000,1.000000,0.000000,0.000000,0.000000,0.000000,7.852891,6.463577,-0.563427
1649352132.722037,18923.000000,1649352132.721932,0.000000,0.000000,1.000000,0.000000,0.000000,0.000000,0.000000,7.851677,6.464647,-0.541951
1649352132.822086,18924.000000,1649352132.821980,0.000000,0.000000,1.000000,0.000000,0.000000,0.000000,0.000000,7.851613,6.465696,-0.534222
1649352132.922403,18925.000000,1649352132.922251,0.000000,0.000000,1.000000,0.000000,0.000000,0.000000,0.000000,7.851545,6.465630,-0.538893
1649352133.022427,18926.000000,1649352133.022294,0.000000,0.000000,1.000000,0.000000,0.000000,0.000000,0.000000,7.850385,6.467780,-0.545780
1649352133.122077,18927.000000,1649352133.121961,0.000000,0.000000,1.000000,0.000000,0.000000,0.000000,0.000000,7.848195,6.469835,-0.556396
1649352133.222392,18928.000000,1649352133.222270,0.000000,0.000000,1.000000,0.000000,0.000000,0.000000,0.000000,7.841768,6.471793,-0.540734
1649352133.322001,18929.000000,1649352133.321883,0.000000,0.000000,1.000000,0.000000,0.000000,0.000000,0.000000,7.836807,6.474743,-0.531334
1649352133.422024,18930.000000,1649352133.421887,0.000000,0.000000,1.000000,0.000000,0.000000,0.000000,0.000000,7.833245,6.477530,-0.535218
1649352133.522118,18931.000000,1649352133.521966,0.000000,0.000000,1.000000,0.000000,0.000000,0.000000,0.000000,7.829926,6.481244,-0.544586
1649352133.622161,18932.000000,1649352133.622032,0.000000,0.000000,1.000000,0.000000,0.000000,0.000000,0.000000,7.826843,6.483645,-0.562426
1649352133.722295,18933.000000,1649352133.722175,0.000000,0.000000,1.000000,0.000000,0.000000,0.000000,0.000000,7.825080,6.485886,-0.583530
1649352133.822441,18934.000000,1649352133.822228,0.000000,0.000000,1.000000,0.000000,0.000000,0.000000,0.000000,7.823478,6.486882,-0.608538
1649352133.922633,18935.000000,1649352133.922467,0.000000,0.000000,1.000000,0.000000,0.000000,0.000000,0.000000,7.823119,6.487788,-0.633223
1649352134.022274,18936.000000,1649352134.022154,0.000000,0.000000,1.000000,0.000000,0.000000,0.000000,0.000000,7.822842,6.488610,-0.656753
1649352134.123126,18937.000000,1649352134.122972,0.000000,0.000000,1.000000,0.000000,0.000000,0.000000,0.000000,7.825912,6.487170,-0.630755
1649352134.222275,18938.000000,1649352134.222110,0.000000,0.000000,1.000000,0.000000,0.000000,0.000000,0.000000,7.824500,6.483598,-0.568568
1649352134.322331,18939.000000,1649352134.322207,0.000000,0.000000,1.000000,0.000000,0.000000,0.000000,0.000000,7.823214,6.481295,-0.532245
1649352134.422211,18940.000000,1649352134.422054,0.000000,0.000000,1.000000,0.000000,0.000000,0.000000,0.000000,7.822047,6.480199,-0.517582
1649352134.522035,18941.000000,1649352134.521899,0.000000,0.000000,1.000000,0.000000,0.000000,0.000000,0.000000,7.820995,6.479158,-0.518083
1649352134.622615,18942.000000,1649352134.622470,0.000000,0.000000,1.000000,0.000000,0.000000,0.000000,0.000000,7.817871,6.478174,-0.495231
1649352134.722526,18943.000000,1649352134.722325,0.000000,0.000000,1.000000,0.000000,0.000000,0.000000,0.000000,7.816065,6.477245,-0.491939
1649352134.822292,18944.000000,1649352134.822166,0.000000,0.000000,1.000000,0.000000,0.000000,0.000000,0.000000,7.815509,6.476372,-0.498549
1649352134.922040,18945.000000,1649352134.921932,0.000000,0.000000,1.000000,0.000000,0.000000,0.000000,0.000000,7.815041,6.475554,-0.517067
1649352135.021999,18946.000000,1649352135.021879,0.000000,0.000000,1.000000,0.000000,0.000000,0.000000,0.000000,7.816836,6.475880,-0.534075
1649352135.122250,18947.000000,1649352135.122117,0.000000,0.000000,1.000000,0.000000,0.000000,0.000000,0.000000,7.818582,6.475107,-0.558474
1649352135.222485,18948.000000,1649352135.222378,0.000000,0.000000,1.000000,0.000000,0.000000,0.000000,0.000000,7.815910,6.474386,-0.547182
1649352135.322314,18949.000000,1649352135.322196,0.000000,0.000000,1.000000,0.000000,0.000000,0.000000,0.000000,7.814520,6.474806,-0.543594
1649352135.422331,18950.000000,1649352135.422220,0.000000,0.000000,1.000000,0.000000,0.000000,0.000000,0.000000,7.814343,6.476303,-0.544179
1649352135.522395,18951.000000,1649352135.522270,0.000000,0.000000,1.000000,0.000000,0.000000,0.000000,0.000000,7.814221,6.476633,-0.560866
1649352135.622420,18952.000000,1649352135.622306,0.000000,0.000000,1.000000,0.000000,0.000000,0.000000,0.000000,7.814149,6.476949,-0.580881
1649352135.722419,18953.000000,1649352135.722303,0.000000,0.000000,1.000000,0.000000,0.000000,0.000000,0.000000,7.815212,6.477249,-0.610509
1649352135.822232,18954.000000,1649352135.822102,0.000000,0.000000,1.000000,0.000000,0.000000,0.000000,0.000000,7.815162,6.477533,-0.635604
1649352135.922170,18955.000000,1649352135.922022,0.000000,0.000000,1.000000,0.000000,0.000000,0.000000,0.000000,7.815147,6.477802,-0.665990
1649352136.022310,18956.000000,1649352136.022191,0.000000,0.000000,1.000000,0.000000,0.000000,0.000000,0.000000,7.815165,6.478056,-0.707052
1649352136.122245,18957.000000,1649352136.122137,0.000000,0.000000,1.000000,0.000000,0.000000,0.000000,0.000000,7.813031,6.478294,-0.709913
1649352136.222456,18958.000000,1649352136.222264,0.000000,0.000000,1.000000,0.000000,0.000000,0.000000,0.000000,7.812137,6.479607,-0.712407
1649352136.322902,18959.000000,1649352136.322674,0.000000,0.000000,1.000000,0.000000,0.000000,0.000000,0.000000,7.812418,6.480843,-0.731492
1649352136.422418,18960.000000,1649352136.422299,0.000000,0.000000,1.000000,0.000000,0.000000,0.000000,0.000000,7.812716,6.482001,-0.763251
1649352136.522091,18961.000000,1649352136.521968,0.000000,0.000000,1.000000,0.000000,0.000000,0.000000,0.000000,7.810847,6.481993,-0.744228
1649352136.622021,18962.000000,1649352136.621896,0.000000,0.000000,1.000000,0.000000,0.000000,0.000000,0.000000,7.812384,6.478703,-0.684578
1649352136.722132,18963.000000,1649352136.722007,0.000000,0.000000,1.000000,0.000000,0.000000,0.000000,0.000000,7.814955,6.477771,-0.639277
1649352136.822183,18964.000000,1649352136.822045,0.000000,0.000000,1.000000,0.000000,0.000000,0.000000,0.000000,7.817403,6.479073,-0.607024
1649352136.922011,18965.000000,1649352136.921869,0.000000,0.000000,1.000000,0.000000,0.000000,0.000000,0.000000,7.819727,6.479211,-0.593802
1649352137.021999,18966.000000,1649352137.021916,0.000000,0.000000,1.000000,0.000000,0.000000,0.000000,0.000000,7.820834,6.479339,-0.588383
1649352137.122071,18967.000000,1649352137.121951,0.000000,0.000000,1.000000,0.000000,0.000000,0.000000,0.000000,7.821878,6.480547,-0.588042
1649352137.222183,18968.000000,1649352137.222051,0.000000,0.000000,1.000000,0.000000,0.000000,0.000000,0.000000,7.823950,6.480593,-0.599025
1649352137.322057,18969.000000,1649352137.321938,0.000000,0.000000,1.000000,0.000000,0.000000,0.000000,0.000000,7.822626,6.479540,-0.578115
1649352137.422105,18970.000000,1649352137.421962,0.000000,0.000000,1.000000,0.000000,0.000000,0.000000,0.000000,7.822457,6.478542,-0.565342
1649352137.522234,18971.000000,1649352137.522098,0.000000,0.000000,1.000000,0.000000,0.000000,0.000000,0.000000,7.822291,6.477598,-0.562818
1649352137.622301,18972.000000,1649352137.622132,0.000000,0.000000,1.000000,0.000000,0.000000,0.000000,0.000000,7.822129,6.476710,-0.570938
1649352137.722034,18973.000000,1649352137.721908,0.000000,0.000000,1.000000,0.000000,0.000000,0.000000,0.000000,7.823061,6.476967,-0.585224
1649352137.822025,18974.000000,1649352137.821903,0.000000,0.000000,1.000000,0.000000,0.000000,0.000000,0.000000,7.821755,6.476124,-0.578789
1649352137.922533,18975.000000,1649352137.922402,0.000000,0.000000,1.000000,0.000000,0.000000,0.000000,0.000000,7.821607,6.476426,-0.583931
1649352138.022288,18976.000000,1649352138.022169,0.000000,0.000000,1.000000,0.000000,0.000000,0.000000,0.000000,7.821466,6.477807,-0.593720
1649352138.122033,18977.000000,1649352138.121901,0.000000,0.000000,1.000000,0.000000,0.000000,0.000000,0.000000,7.821331,6.478024,-0.614405
1649352138.222043,18978.000000,1649352138.221919,0.000000,0.000000,1.000000,0.000000,0.000000,0.000000,0.000000,7.821202,6.476049,-0.644704
1649352138.322062,18979.000000,1649352138.321944,0.000000,0.000000,1.000000,0.000000,0.000000,0.000000,0.000000,7.822170,6.475278,-0.672083
1649352138.422001,18980.000000,1649352138.421888,0.000000,0.000000,1.000000,0.000000,0.000000,0.000000,0.000000,7.823081,6.475649,-0.701456
1649352138.521981,18981.000000,1649352138.521862,0.000000,0.000000,1.000000,0.000000,0.000000,0.000000,0.000000,7.823937,6.474917,-0.732699
1649352138.622199,18982.000000,1649352138.622065,0.000000,0.000000,1.000000,0.000000,0.000000,0.000000,0.000000,7.824738,6.473143,-0.768915
1649352138.722500,18983.000000,1649352138.722328,0.000000,0.000000,1.000000,0.000000,0.000000,0.000000,0.000000,7.825484,6.470389,-0.804207
1649352138.822400,18984.000000,1649352138.822286,0.000000,0.000000,1.000000,0.000000,0.000000,0.000000,0.000000,7.827268,6.468898,-0.835338
1649352138.922287,18985.000000,1649352138.922179,0.000000,0.000000,1.000000,0.000000,0.000000,0.000000,0.000000,7.828937,6.468603,-0.856791
1649352139.022300,18986.000000,1649352139.022161,0.000000,0.000000,1.000000,0.000000,0.000000,0.000000,0.000000,7.829404,6.468350,-0.879418
1649352139.122223,18987.000000,1649352139.122123,0.000000,0.000000,1.000000,0.000000,0.000000,0.000000,0.000000,7.830914,6.468135,-0.904764
1649352139.222062,18988.000000,1649352139.221934,0.000000,0.000000,1.000000,0.000000,0.000000,0.000000,0.000000,7.832317,6.469045,-0.916563
1649352139.322189,18989.000000,1649352139.322023,0.000000,0.000000,1.000000,0.000000,0.000000,0.000000,0.000000,7.833614,6.469925,-0.929875
1649352139.422092,18990.000000,1649352139.421971,0.000000,0.000000,1.000000,0.000000,0.000000,0.000000,0.000000,7.834811,6.471862,-0.940603
1649352139.522166,18991.000000,1649352139.522019,0.000000,0.000000,1.000000,0.000000,0.000000,0.000000,0.000000,7.835910,6.472613,-0.952077
1649352139.622135,18992.000000,1649352139.622039,0.000000,0.000000,1.000000,0.000000,0.000000,0.000000,0.000000,7.835824,6.472237,-0.966684
1649352139.722053,18993.000000,1649352139.721933,0.000000,0.000000,1.000000,0.000000,0.000000,0.000000,0.000000,7.835711,6.470798,-0.988325
1649352139.821969,18994.000000,1649352139.821863,0.000000,0.000000,1.000000,0.000000,0.000000,0.000000,0.000000,7.834484,6.469448,-1.011859
1649352139.922679,18995.000000,1649352139.922575,0.000000,0.000000,1.000000,0.000000,0.000000,0.000000,0.000000,7.833300,6.469276,-1.040415
1649352140.022156,18996.000000,1649352140.022011,0.000000,0.000000,1.000000,0.000000,0.000000,0.000000,0.000000,7.832161,6.469127,-1.062472
1649352140.122143,18997.000000,1649352140.121987,0.000000,0.000000,1.000000,0.000000,0.000000,0.000000,0.000000,7.828889,6.470091,-1.055695
1649352140.222497,18998.000000,1649352140.222330,0.000000,0.000000,1.000000,0.000000,0.000000,0.000000,0.000000,7.825792,6.469921,-1.054345
1649352140.322298,18999.000000,1649352140.322163,0.000000,0.000000,1.000000,0.000000,0.000000,0.000000,0.000000,7.823960,6.471951,-1.048548
1649352140.422164,19000.000000,1649352140.422067,0.000000,0.000000,1.000000,0.000000,0.000000,0.000000,0.000000,7.822241,6.473874,-1.038513
1649352140.522197,19001.000000,1649352140.522053,0.000000,0.000000,1.000000,0.000000,0.000000,0.000000,0.000000,7.820632,6.475688,-1.030899
1649352140.622091,19002.000000,1649352140.621972,0.000000,0.000000,1.000000,0.000000,0.000000,0.000000,0.000000,7.819131,6.478485,-1.017572
1649352140.722228,19003.000000,1649352140.722092,0.000000,0.000000,1.000000,0.000000,0.000000,0.000000,0.000000,7.819918,6.480022,-1.013318
1649352140.822118,19004.000000,1649352140.821961,0.000000,0.000000,1.000000,0.000000,0.000000,0.000000,0.000000,7.820682,6.481454,-1.011340
1649352140.922128,19005.000000,1649352140.922003,0.000000,0.000000,1.000000,0.000000,0.000000,0.000000,0.000000,7.821422,6.483874,-1.010758
1649352141.022078,19006.000000,1649352141.021951,0.000000,0.000000,1.000000,0.000000,0.000000,0.000000,0.000000,7.822134,6.485041,-1.013947
1649352141.122129,19007.000000,1649352141.122011,0.000000,0.000000,1.000000,0.000000,0.000000,0.000000,0.000000,7.821729,6.486112,-1.019955
1649352141.222008,19008.000000,1649352141.221904,0.000000,0.000000,1.000000,0.000000,0.000000,0.000000,0.000000,7.821356,6.486001,-1.026252
1649352141.322032,19009.000000,1649352141.321950,0.000000,0.000000,1.000000,0.000000,0.000000,0.000000,0.000000,7.822106,6.484773,-1.033633
1649352141.421991,19010.000000,1649352141.421893,0.000000,0.000000,1.000000,0.000000,0.000000,0.000000,0.000000,7.821734,6.484677,-1.038827
1649352141.521985,19011.000000,1649352141.521886,0.000000,0.000000,1.000000,0.000000,0.000000,0.000000,0.000000,7.821391,6.484562,-1.039506
1649352141.621964,19012.000000,1649352141.621858,0.000000,0.000000,1.000000,0.000000,0.000000,0.000000,0.000000,7.821077,6.484431,-1.036669
1649352141.721937,19013.000000,1649352141.721849,0.000000,0.000000,1.000000,0.000000,0.000000,0.000000,0.000000,7.820790,6.484286,-1.045796
1649352141.822075,19014.000000,1649352141.821966,0.000000,0.000000,1.000000,0.000000,0.000000,0.000000,0.000000,7.821620,6.485220,-1.052690
1649352141.922273,19015.000000,1649352141.922133,0.000000,0.000000,1.000000,0.000000,0.000000,0.000000,0.000000,7.822413,6.486083,-1.058246
1649352142.022397,19016.000000,1649352142.022263,0.000000,0.000000,1.000000,0.000000,0.000000,0.000000,0.000000,7.823166,6.485786,-1.068972
1649352142.122249,19017.000000,1649352142.122143,0.000000,0.000000,1.000000,0.000000,0.000000,0.000000,0.000000,7.824971,6.486575,-1.074973
1649352142.222096,19018.000000,1649352142.221984,0.000000,0.000000,1.000000,0.000000,0.000000,0.000000,0.000000,7.825583,6.486209,-1.033699
1649352142.322086,19019.000000,1649352142.321959,0.000000,0.000000,1.000000,0.000000,0.000000,0.000000,0.000000,7.826156,6.486934,-1.001975
1649352142.421949,19020.000000,1649352142.421846,0.000000,0.000000,1.000000,0.000000,0.000000,0.000000,0.000000,7.827782,6.487600,-0.979477
1649352142.521992,19021.000000,1649352142.521885,0.000000,0.000000,1.000000,0.000000,0.000000,0.000000,0.000000,7.830397,6.488208,-0.963458
1649352142.621974,19022.000000,1649352142.621864,0.000000,0.000000,1.000000,0.000000,0.000000,0.000000,0.000000,7.837212,6.485490,-0.902073
1649352142.722854,19023.000000,1649352142.722640,0.000000,0.000000,1.000000,0.000000,0.000000,0.000000,0.000000,7.842526,6.485089,-0.847256
1649352142.822199,19024.000000,1649352142.822083,0.000000,0.000000,1.000000,0.000000,0.000000,0.000000,0.000000,7.846406,6.484699,-0.809318
1649352142.922598,19025.000000,1649352142.922479,0.000000,0.000000,1.000000,0.000000,0.000000,0.000000,0.000000,7.848921,6.484323,-0.782797
1649352143.022422,19026.000000,1649352143.022229,0.000000,0.000000,1.000000,0.000000,0.000000,0.000000,0.000000,7.850141,6.482870,-0.770495
1649352143.122364,19027.000000,1649352143.122214,0.000000,0.000000,1.000000,0.000000,0.000000,0.000000,0.000000,7.851227,6.480403,-0.767818
1649352143.222358,19028.000000,1649352143.222251,0.000000,0.000000,1.000000,0.000000,0.000000,0.000000,0.000000,7.851096,6.478078,-0.774370
1649352143.322124,19029.000000,1649352143.322003,0.000000,0.000000,1.000000,0.000000,0.000000,0.000000,0.000000,7.850910,6.474802,-0.788145
1649352143.422448,19030.000000,1649352143.422289,0.000000,0.000000,1.000000,0.000000,0.000000,0.000000,0.000000,7.850676,6.472817,-0.790272
1649352143.522756,19031.000000,1649352143.522427,0.000000,0.000000,1.000000,0.000000,0.000000,0.000000,0.000000,7.849309,6.472059,-0.794110
1649352143.622461,19032.000000,1649352143.622272,0.000000,0.000000,1.000000,0.000000,0.000000,0.000000,0.000000,7.849061,6.472460,-0.799576
1649352143.722290,19033.000000,1649352143.722162,0.000000,0.000000,1.000000,0.000000,0.000000,0.000000,0.000000,7.848782,6.472866,-0.817879
1649352143.822400,19034.000000,1649352143.822258,0.000000,0.000000,1.000000,0.000000,0.000000,0.000000,0.000000,7.848479,6.474362,-0.833142
1649352143.922299,19035.000000,1649352143.922189,0.000000,0.000000,1.000000,0.000000,0.000000,0.000000,0.000000,7.848155,6.475794,-0.843843
1649352144.022405,19036.000000,1649352144.022294,0.000000,0.000000,1.000000,0.000000,0.000000,0.000000,0.000000,7.847815,6.478249,-0.853369
1649352144.122290,19037.000000,1649352144.122174,0.000000,0.000000,1.000000,0.000000,0.000000,0.000000,0.000000,7.846373,6.479483,-0.863363
1649352144.222394,19038.000000,1649352144.222282,0.000000,0.000000,1.000000,0.000000,0.000000,0.000000,0.000000,7.843895,6.480649,-0.872981
1649352144.322482,19039.000000,1649352144.322309,0.000000,0.000000,1.000000,0.000000,0.000000,0.000000,0.000000,7.841536,6.481746,-0.882219
1649352144.422393,19040.000000,1649352144.422219,0.000000,0.000000,1.000000,0.000000,0.000000,0.000000,0.000000,7.839299,6.481685,-0.898336
1649352144.522264,19041.000000,1649352144.522103,0.000000,0.000000,1.000000,0.000000,0.000000,0.000000,0.000000,7.838275,6.481621,-0.912963
1649352144.622036,19042.000000,1649352144.621923,0.000000,0.000000,1.000000,0.000000,0.000000,0.000000,0.000000,7.835130,6.480463,-0.883394
1649352144.722002,19043.000000,1649352144.721894,0.000000,0.000000,1.000000,0.000000,0.000000,0.000000,0.000000,7.833260,6.480455,-0.858237
1649352144.822121,19044.000000,1649352144.822004,0.000000,0.000000,1.000000,0.000000,0.000000,0.000000,0.000000,7.831511,6.480446,-0.847035
1649352144.922322,19045.000000,1649352144.922202,0.000000,0.000000,1.000000,0.000000,0.000000,0.000000,0.000000,7.834241,6.477163,-0.790372
1649352145.022305,19046.000000,1649352145.022186,0.000000,0.000000,1.000000,0.000000,0.000000,0.000000,0.000000,7.835745,6.475158,-0.751464
1649352145.122690,19047.000000,1649352145.122432,0.000000,0.000000,1.000000,0.000000,0.000000,0.000000,0.000000,7.837175,6.473277,-0.732075
1649352145.222555,19048.000000,1649352145.222368,0.000000,0.000000,1.000000,0.000000,0.000000,0.000000,0.000000,7.838530,6.470426,-0.728216
1649352145.322377,19049.000000,1649352145.322258,0.000000,0.000000,1.000000,0.000000,0.000000,0.000000,0.000000,7.839809,6.468848,-0.732001
1649352145.422008,19050.000000,1649352145.421905,0.000000,0.000000,1.000000,0.000000,0.000000,0.000000,0.000000,7.838833,6.467387,-0.735846
1649352145.522029,19051.000000,1649352145.521919,0.000000,0.000000,1.000000,0.000000,0.000000,0.000000,0.000000,7.837907,6.467129,-0.738122
1649352145.622214,19052.000000,1649352145.622045,0.000000,0.000000,1.000000,0.000000,0.000000,0.000000,0.000000,7.831580,6.464736,-0.692911
1649352145.722047,19053.000000,1649352145.721931,0.000000,0.000000,1.000000,0.000000,0.000000,0.000000,0.000000,7.826709,6.463602,-0.660260
1649352145.822028,19054.000000,1649352145.821926,0.000000,0.000000,1.000000,0.000000,0.000000,0.000000,0.000000,7.824319,6.462568,-0.640515
1649352145.922267,19055.000000,1649352145.922070,0.000000,0.000000,1.000000,0.000000,0.000000,0.000000,0.000000,7.823190,6.462722,-0.642854
1649352146.022254,19056.000000,1649352146.022144,0.000000,0.000000,1.000000,0.000000,0.000000,0.000000,0.000000,7.819983,6.461814,-0.613950
1649352146.121978,19057.000000,1649352146.121877,0.000000,0.000000,1.000000,0.000000,0.000000,0.000000,0.000000,7.819180,6.460994,-0.598646
1649352146.222016,19058.000000,1649352146.221911,0.000000,0.000000,1.000000,0.000000,0.000000,0.000000,0.000000,7.820652,6.461348,-0.591568
1649352146.322078,19059.000000,1649352146.321924,0.000000,0.000000,1.000000,0.000000,0.000000,0.000000,0.000000,7.822084,6.462808,-0.583511
1649352146.422017,19060.000000,1649352146.421900,0.000000,0.000000,1.000000,0.000000,0.000000,0.000000,0.000000,7.822383,6.465307,-0.582577
1649352146.522021,19061.000000,1649352146.521924,0.000000,0.000000,1.000000,0.000000,0.000000,0.000000,0.000000,7.822697,6.468779,-0.586853
1649352146.622014,19062.000000,1649352146.621902,0.000000,0.000000,1.000000,0.000000,0.000000,0.000000,0.000000,7.821932,6.470979,-0.567883
1649352146.722231,19063.000000,1649352146.722099,0.000000,0.000000,1.000000,0.000000,0.000000,0.000000,0.000000,7.821239,6.473059,-0.563718
1649352146.822007,19064.000000,1649352146.821906,0.000000,0.000000,1.000000,0.000000,0.000000,0.000000,0.000000,7.820613,6.476109,-0.559240
1649352146.922039,19065.000000,1649352146.921944,0.000000,0.000000,1.000000,0.000000,0.000000,0.000000,0.000000,7.820052,6.478976,-0.557681
1649352147.022229,19066.000000,1649352147.022071,0.000000,0.000000,1.000000,0.000000,0.000000,0.000000,0.000000,7.819551,6.481664,-0.562137
1649352147.122305,19067.000000,1649352147.122191,0.000000,0.000000,1.000000,0.000000,0.000000,0.000000,0.000000,7.824560,6.480902,-0.519928
1649352147.222435,19068.000000,1649352147.222281,0.000000,0.000000,1.000000,0.000000,0.000000,0.000000,0.000000,7.828219,6.479065,-0.498315
1649352147.322250,19069.000000,1649352147.322137,0.000000,0.000000,1.000000,0.000000,0.000000,0.000000,0.000000,7.831678,6.478398,-0.490039
1649352147.422399,19070.000000,1649352147.422250,0.000000,0.000000,1.000000,0.000000,0.000000,0.000000,0.000000,7.834939,6.477751,-0.492141
1649352147.522490,19071.000000,1649352147.522334,0.000000,0.000000,1.000000,0.000000,0.000000,0.000000,0.000000,7.836911,6.478216,-0.496927
1649352147.622424,19072.000000,1649352147.622267,0.000000,0.000000,1.000000,0.000000,0.000000,0.000000,0.000000,7.838750,6.479733,-0.505879
1649352147.722368,19073.000000,1649352147.722123,0.000000,0.000000,1.000000,0.000000,0.000000,0.000000,0.000000,7.840460,6.480058,-0.523637
1649352147.822165,19074.000000,1649352147.822037,0.000000,0.000000,1.000000,0.000000,0.000000,0.000000,0.000000,7.842043,6.481437,-0.540934
1649352147.922405,19075.000000,1649352147.922254,0.000000,0.000000,1.000000,0.000000,0.000000,0.000000,0.000000,7.843504,6.482720,-0.559361
1649352148.022131,19076.000000,1649352148.021997,0.000000,0.000000,1.000000,0.000000,0.000000,0.000000,0.000000,7.843756,6.483909,-0.580445
1649352148.122124,19077.000000,1649352148.122007,0.000000,0.000000,1.000000,0.000000,0.000000,0.000000,0.000000,7.839596,6.481736,-0.554036
1649352148.222058,19078.000000,1649352148.221959,0.000000,0.000000,1.000000,0.000000,0.000000,0.000000,0.000000,7.836730,6.479663,-0.547411
1649352148.322132,19079.000000,1649352148.322003,0.000000,0.000000,1.000000,0.000000,0.000000,0.000000,0.000000,7.834008,6.477692,-0.511388
1649352148.422040,19080.000000,1649352148.421949,0.000000,0.000000,1.000000,0.000000,0.000000,0.000000,0.000000,7.831433,6.478005,-0.479464
1649352148.522021,19081.000000,1649352148.521917,0.000000,0.000000,1.000000,0.000000,0.000000,0.000000,0.000000,7.831183,6.477207,-0.467648
1649352148.622028,19082.000000,1649352148.621928,0.000000,0.000000,1.000000,0.000000,0.000000,0.000000,0.000000,7.830954,6.478631,-0.459009
1649352148.722085,19083.000000,1649352148.721965,0.000000,0.000000,1.000000,0.000000,0.000000,0.000000,0.000000,7.830744,6.478880,-0.464712
1649352148.822092,19084.000000,1649352148.821958,0.000000,0.000000,1.000000,0.000000,0.000000,0.000000,0.000000,7.829461,6.478020,-0.484157
1649352148.922055,19085.000000,1649352148.921933,0.000000,0.000000,1.000000,0.000000,0.000000,0.000000,0.000000,7.829349,6.476112,-0.514327
1649352149.022047,19086.000000,1649352149.021926,0.000000,0.000000,1.000000,0.000000,0.000000,0.000000,0.000000,7.829254,6.474311,-0.541020
1649352149.122152,19087.000000,1649352149.122008,0.000000,0.000000,1.000000,0.000000,0.000000,0.000000,0.000000,7.829174,6.474797,-0.560292
1649352149.222116,19088.000000,1649352149.221999,0.000000,0.000000,1.000000,0.000000,0.000000,0.000000,0.000000,7.830198,6.475262,-0.579663
1649352149.322188,19089.000000,1649352149.322065,0.000000,0.000000,1.000000,0.000000,0.000000,0.000000,0.000000,7.826810,6.473526,-0.553124
1649352149.422076,19090.000000,1649352149.421972,0.000000,0.000000,1.000000,0.000000,0.000000,0.000000,0.000000,7.824713,6.471895,-0.539829
1649352149.522159,19091.000000,1649352149.522046,0.000000,0.000000,1.000000,0.000000,0.000000,0.000000,0.000000,7.823843,6.471456,-0.536844
1649352149.622293,19092.000000,1649352149.622141,0.000000,0.000000,1.000000,0.000000,0.000000,0.000000,0.000000,7.824134,6.472147,-0.540528
1649352149.722269,19093.000000,1649352149.722166,0.000000,0.000000,1.000000,0.000000,0.000000,0.000000,0.000000,7.824431,6.473902,-0.546569
1649352149.822290,19094.000000,1649352149.822115,0.000000,0.000000,1.000000,0.000000,0.000000,0.000000,0.000000,7.824729,6.475567,-0.560505
1649352149.922275,19095.000000,1649352149.922113,0.000000,0.000000,1.000000,0.000000,0.000000,0.000000,0.000000,7.825029,6.476051,-0.585215
1649352150.022141,19096.000000,1649352150.022042,0.000000,0.000000,1.000000,0.000000,0.000000,0.000000,0.000000,7.825327,6.476507,-0.611352
1649352150.122418,19097.000000,1649352150.122309,0.000000,0.000000,1.000000,0.000000,0.000000,0.000000,0.000000,7.824532,6.478026,-0.632361
1649352150.222057,19098.000000,1649352150.221962,0.000000,0.000000,1.000000,0.000000,0.000000,0.000000,0.000000,7.824885,6.480545,-0.650834
1649352150.322126,19099.000000,1649352150.322010,0.000000,0.000000,1.000000,0.000000,0.000000,0.000000,0.000000,7.825232,6.481821,-0.675717
1649352150.422122,19100.000000,1649352150.421983,0.000000,0.000000,1.000000,0.000000,0.000000,0.000000,0.000000,7.826661,6.484100,-0.693004
1649352150.522173,19101.000000,1649352150.522051,0.000000,0.000000,1.000000,0.000000,0.000000,0.000000,0.000000,7.828019,6.486230,-0.712654
1649352150.622442,19102.000000,1649352150.622271,0.000000,0.000000,1.000000,0.000000,0.000000,0.000000,0.000000,7.829304,6.487125,-0.735353
1649352150.722573,19103.000000,1649352150.722391,0.000000,0.000000,1.000000,0.000000,0.000000,0.000000,0.000000,7.829425,6.487940,-0.756916
1649352150.822273,19104.000000,1649352150.822155,0.000000,0.000000,1.000000,0.000000,0.000000,0.000000,0.000000,7.830628,6.488679,-0.776553
1649352150.922338,19105.000000,1649352150.922228,0.000000,0.000000,1.000000,0.000000,0.000000,0.000000,0.000000,7.830668,6.489346,-0.796741
1649352151.022355,19106.000000,1649352151.022212,0.000000,0.000000,1.000000,0.000000,0.000000,0.000000,0.000000,7.830699,6.489944,-0.811787
1649352151.122440,19107.000000,1649352151.122286,0.000000,0.000000,1.000000,0.000000,0.000000,0.000000,0.000000,7.829632,6.490477,-0.828338
1649352151.222383,19108.000000,1649352151.222222,0.000000,0.000000,1.000000,0.000000,0.000000,0.000000,0.000000,7.828621,6.489859,-0.848738
1649352151.322386,19109.000000,1649352151.322194,0.000000,0.000000,1.000000,0.000000,0.000000,0.000000,0.000000,7.828756,6.488156,-0.820391
1649352151.422425,19110.000000,1649352151.422276,0.000000,0.000000,1.000000,0.000000,0.000000,0.000000,0.000000,7.825614,6.487614,-0.774356
1649352151.522502,19111.000000,1649352151.522301,0.000000,0.000000,1.000000,0.000000,0.000000,0.000000,0.000000,7.823743,6.488175,-0.735631
1649352151.622097,19112.000000,1649352151.621994,0.000000,0.000000,1.000000,0.000000,0.000000,0.000000,0.000000,7.823080,6.488685,-0.704799
1649352151.722108,19113.000000,1649352151.721961,0.000000,0.000000,1.000000,0.000000,0.000000,0.000000,0.000000,7.822470,6.489148,-0.650150
