__time,/dwm1001/id_458E/pose_kf/header/seq,/dwm1001/id_458E/pose_kf/header/stamp,/dwm1001/id_458E/pose_kf/pose/orientation/pitch_deg,/dwm1001/id_458E/pose_kf/pose/orientation/roll_deg,/dwm1001/id_458E/pose_kf/pose/orientation/w,/dwm1001/id_458E/pose_kf/pose/orientation/x,/dwm1001/id_458E/pose_kf/pose/orientation/y,/dwm1001/id_458E/pose_kf/pose/orientation/yaw_deg,/dwm1001/id_458E/pose_kf/pose/orientation/z,/dwm1001/id_458E/pose_kf/pose/position/x,/dwm1001/id_458E/pose_kf/pose/position/y,/dwm1001/id_458E/pose_kf/pose/position/z
1649346781.134346,26947.000000,1649346781.133411,0.000000,0.000000,1.000000,0.000000,0.000000,0.000000,0.000000,7.843865,5.126937,-0.815974
1649346781.235090,26948.000000,1649346781.234014,0.000000,0.000000,1.000000,0.000000,0.000000,0.000000,0.000000,7.844894,5.127080,-0.820126
1649346781.335307,26949.000000,1649346781.334510,0.000000,0.000000,1.000000,0.000000,0.000000,0.000000,0.000000,7.844752,5.127225,-0.819978
1649346781.434359,26950.000000,1649346781.433765,0.000000,0.000000,1.000000,0.000000,0.000000,0.000000,0.000000,7.843506,5.127372,-0.819740
1649346781.534491,26951.000000,1649346781.534007,0.000000,0.000000,1.000000,0.000000,0.000000,0.000000,0.000000,7.843401,5.127520,-0.821840
1649346781.633201,26952.000000,1649346781.632874,0.000000,0.000000,1.000000,0.000000,0.000000,0.000000,0.000000,7.843285,5.127667,-0.823764
1649346781.733007,26953.000000,1649346781.732621,0.000000,0.000000,1.000000,0.000000,0.000000,0.000000,0.000000,7.844253,5.127813,-0.820682
1649346781.832916,26954.000000,1649346781.832355,0.000000,0.000000,1.000000,0.000000,0.000000,0.000000,0.000000,7.845150,5.129047,-0.811997
1649346781.934936,26955.000000,1649346781.933686,0.000000,0.000000,1.000000,0.000000,0.000000,0.000000,0.000000,7.844890,5.131305,-0.797148
1649346782.033119,26956.000000,1649346782.032418,0.000000,0.000000,1.000000,0.000000,0.000000,0.000000,0.000000,7.844628,5.132345,-0.783668
1649346782.134907,26957.000000,1649346782.134225,0.000000,0.000000,1.000000,0.000000,0.000000,0.000000,0.000000,7.844365,5.133320,-0.771527
1649346782.232593,26958.000000,1649346782.232258,0.000000,0.000000,1.000000,0.000000,0.000000,0.000000,0.000000,7.844103,5.134230,-0.763111
1649346782.332753,26959.000000,1649346782.332496,0.000000,0.000000,1.000000,0.000000,0.000000,0.000000,0.000000,7.843845,5.133987,-0.758284
1649346782.433015,26960.000000,1649346782.432497,0.000000,0.000000,1.000000,0.000000,0.000000,0.000000,0.000000,7.844680,5.133745,-0.751263
1649346782.532962,26961.000000,1649346782.532583,0.000000,0.000000,1.000000,0.000000,0.000000,0.000000,0.000000,7.845458,5.133506,-0.750212
1649346782.635408,26962.000000,1649346782.634557,0.000000,0.000000,1.000000,0.000000,0.000000,0.000000,0.000000,7.846179,5.132181,-0.756503
1649346782.736083,26963.000000,1649346782.735365,0.000000,0.000000,1.000000,0.000000,0.000000,0.000000,0.000000,7.846846,5.129833,-0.773860
1649346782.833730,26964.000000,1649346782.832937,0.000000,0.000000,1.000000,0.000000,0.000000,0.000000,0.000000,7.846370,5.129797,-0.779226
1649346782.936895,26965.000000,1649346782.936122,0.000000,0.000000,1.000000,0.000000,0.000000,0.000000,0.000000,7.846996,5.129767,-0.796462
1649346783.037436,26966.000000,1649346783.035536,0.000000,0.000000,1.000000,0.000000,0.000000,0.000000,0.000000,7.847573,5.129741,-0.804900
1649346783.134045,26967.000000,1649346783.133651,0.000000,0.000000,1.000000,0.000000,0.000000,0.000000,0.000000,7.848102,5.129720,-0.806493
1649346783.233637,26968.000000,1649346783.233069,0.000000,0.000000,1.000000,0.000000,0.000000,0.000000,0.000000,7.848585,5.130793,-0.806358
1649346783.333733,26969.000000,1649346783.333190,0.000000,0.000000,1.000000,0.000000,0.000000,0.000000,0.000000,7.849024,5.131807,-0.798920
1649346783.432543,26970.000000,1649346783.432177,0.000000,0.000000,1.000000,0.000000,0.000000,0.000000,0.000000,7.847241,5.132762,-0.790939
1649346783.535560,26971.000000,1649346783.534971,0.000000,0.000000,1.000000,0.000000,0.000000,0.000000,0.000000,7.845544,5.134749,-0.784873
1649346783.633807,26972.000000,1649346783.633295,0.000000,0.000000,1.000000,0.000000,0.000000,0.000000,0.000000,7.843934,5.135524,-0.781462
1649346783.733294,26973.000000,1649346783.732852,0.000000,0.000000,1.000000,0.000000,0.000000,0.000000,0.000000,7.842412,5.136244,-0.778186
1649346783.835023,26974.000000,1649346783.833477,0.000000,0.000000,1.000000,0.000000,0.000000,0.000000,0.000000,7.840978,5.135818,-0.779883
1649346783.932835,26975.000000,1649346783.932256,0.000000,0.000000,1.000000,0.000000,0.000000,0.000000,0.000000,7.839631,5.135402,-0.779898
1649346784.036756,26976.000000,1649346784.035827,0.000000,0.000000,1.000000,0.000000,0.000000,0.000000,0.000000,7.838370,5.134997,-0.784751
1649346784.134329,26977.000000,1649346784.133545,0.000000,0.000000,1.000000,0.000000,0.000000,0.000000,0.000000,7.837195,5.133515,-0.790207
1649346784.233015,26978.000000,1649346784.232617,0.000000,0.000000,1.000000,0.000000,0.000000,0.000000,0.000000,7.836102,5.133199,-0.787360
1649346784.342440,26979.000000,1649346784.339635,0.000000,0.000000,1.000000,0.000000,0.000000,0.000000,0.000000,7.835090,5.132898,-0.781391
1649346784.436407,26980.000000,1649346784.436058,0.000000,0.000000,1.000000,0.000000,0.000000,0.000000,0.000000,7.833065,5.131521,-0.778887
1649346784.537505,26981.000000,1649346784.536844,0.000000,0.000000,1.000000,0.000000,0.000000,0.000000,0.000000,7.831180,5.130222,-0.776487
1649346784.636346,26982.000000,1649346784.635049,0.000000,0.000000,1.000000,0.000000,0.000000,0.000000,0.000000,7.830520,5.127910,-0.788707
1649346784.735758,26983.000000,1649346784.735060,0.000000,0.000000,1.000000,0.000000,0.000000,0.000000,0.000000,7.829928,5.125737,-0.799614
1649346784.833628,26984.000000,1649346784.833291,0.000000,0.000000,1.000000,0.000000,0.000000,0.000000,0.000000,7.830492,5.124792,-0.804404
1649346784.934097,26985.000000,1649346784.933644,0.000000,0.000000,1.000000,0.000000,0.000000,0.000000,0.000000,7.831055,5.123921,-0.807350
1649346785.035149,26986.000000,1649346785.034429,0.000000,0.000000,1.000000,0.000000,0.000000,0.000000,0.000000,7.831612,5.123119,-0.806909
1649346785.139124,26987.000000,1649346785.138314,0.000000,0.000000,1.000000,0.000000,0.000000,0.000000,0.000000,7.832161,5.122386,-0.804833
1649346785.233012,26988.000000,1649346785.232553,0.000000,0.000000,1.000000,0.000000,0.000000,0.000000,0.000000,7.831609,5.122807,-0.798775
1649346785.333959,26989.000000,1649346785.333139,0.000000,0.000000,1.000000,0.000000,0.000000,0.000000,0.000000,7.832198,5.123228,-0.793744
1649346785.433496,26990.000000,1649346785.432918,0.000000,0.000000,1.000000,0.000000,0.000000,0.000000,0.000000,7.832772,5.124736,-0.786484
1649346785.533568,26991.000000,1649346785.532785,0.000000,0.000000,1.000000,0.000000,0.000000,0.000000,0.000000,7.833328,5.127267,-0.777096
1649346785.633115,26992.000000,1649346785.632748,0.000000,0.000000,1.000000,0.000000,0.000000,0.000000,0.000000,7.833866,5.128573,-0.768910
1649346785.733456,26993.000000,1649346785.732964,0.000000,0.000000,1.000000,0.000000,0.000000,0.000000,0.000000,7.833294,5.130900,-0.751404
1649346785.833228,26994.000000,1649346785.832854,0.000000,0.000000,1.000000,0.000000,0.000000,0.000000,0.000000,7.832763,5.132003,-0.734661
1649346785.935563,26995.000000,1649346785.934967,0.000000,0.000000,1.000000,0.000000,0.000000,0.000000,0.000000,7.832273,5.133036,-0.723516
1649346786.035141,26996.000000,1649346786.034433,0.000000,0.000000,1.000000,0.000000,0.000000,0.000000,0.000000,7.830731,5.132909,-0.716144
1649346786.133818,26997.000000,1649346786.133188,0.000000,0.000000,1.000000,0.000000,0.000000,0.000000,0.000000,7.830380,5.132779,-0.713208
1649346786.240558,26998.000000,1649346786.239026,0.000000,0.000000,1.000000,0.000000,0.000000,0.000000,0.000000,7.830066,5.132644,-0.706466
1649346786.334402,26999.000000,1649346786.333840,0.000000,0.000000,1.000000,0.000000,0.000000,0.000000,0.000000,7.829785,5.131418,-0.708175
1649346786.436141,27000.000000,1649346786.435183,0.000000,0.000000,1.000000,0.000000,0.000000,0.000000,0.000000,7.829536,5.131344,-0.707502
1649346786.533015,27001.000000,1649346786.532559,0.000000,0.000000,1.000000,0.000000,0.000000,0.000000,0.000000,7.829317,5.131269,-0.702928
1649346786.638458,27002.000000,1649346786.637711,0.000000,0.000000,1.000000,0.000000,0.000000,0.000000,0.000000,7.829126,5.131195,-0.697838
1649346786.733374,27003.000000,1649346786.733001,0.000000,0.000000,1.000000,0.000000,0.000000,0.000000,0.000000,7.828962,5.131121,-0.691451
1649346786.834512,27004.000000,1649346786.834000,0.000000,0.000000,1.000000,0.000000,0.000000,0.000000,0.000000,7.828822,5.129958,-0.694310
1649346786.933617,27005.000000,1649346786.933200,0.000000,0.000000,1.000000,0.000000,0.000000,0.000000,0.000000,7.828705,5.129949,-0.693129
1649346787.034646,27006.000000,1649346787.033988,0.000000,0.000000,1.000000,0.000000,0.000000,0.000000,0.000000,7.828608,5.131032,-0.692100
1649346787.136116,27007.000000,1649346787.134957,0.000000,0.000000,1.000000,0.000000,0.000000,0.000000,0.000000,7.828531,5.132053,-0.689602
1649346787.234657,27008.000000,1649346787.233642,0.000000,0.000000,1.000000,0.000000,0.000000,0.000000,0.000000,7.827382,5.131923,-0.692146
1649346787.335660,27009.000000,1649346787.335172,0.000000,0.000000,1.000000,0.000000,0.000000,0.000000,0.000000,7.826311,5.130704,-0.701132
1649346787.432453,27010.000000,1649346787.432164,0.000000,0.000000,1.000000,0.000000,0.000000,0.000000,0.000000,7.825317,5.130642,-0.705798
1649346787.532958,27011.000000,1649346787.532604,0.000000,0.000000,1.000000,0.000000,0.000000,0.000000,0.000000,7.825488,5.129491,-0.711146
1649346787.632542,27012.000000,1649346787.632287,0.000000,0.000000,1.000000,0.000000,0.000000,0.000000,0.000000,7.826760,5.130587,-0.705846
1649346787.734709,27013.000000,1649346787.734369,0.000000,0.000000,1.000000,0.000000,0.000000,0.000000,0.000000,7.827976,5.130533,-0.705656
1649346787.837188,27014.000000,1649346787.836384,0.000000,0.000000,1.000000,0.000000,0.000000,0.000000,0.000000,7.828045,5.131571,-0.695047
1649346787.934426,27015.000000,1649346787.933926,0.000000,0.000000,1.000000,0.000000,0.000000,0.000000,0.000000,7.829209,5.132549,-0.687356
1649346788.035187,27016.000000,1649346788.034701,0.000000,0.000000,1.000000,0.000000,0.000000,0.000000,0.000000,7.829224,5.132378,-0.684897
1649346788.137307,27017.000000,1649346788.136366,0.000000,0.000000,1.000000,0.000000,0.000000,0.000000,0.000000,7.829242,5.131119,-0.686651
1649346788.237080,27018.000000,1649346788.236388,0.000000,0.000000,1.000000,0.000000,0.000000,0.000000,0.000000,7.829262,5.131018,-0.685184
1649346788.333033,27019.000000,1649346788.332785,0.000000,0.000000,1.000000,0.000000,0.000000,0.000000,0.000000,7.829285,5.130922,-0.683046
1649346788.432315,27020.000000,1649346788.432008,0.000000,0.000000,1.000000,0.000000,0.000000,0.000000,0.000000,7.829311,5.129740,-0.681070
1649346788.532824,27021.000000,1649346788.532560,0.000000,0.000000,1.000000,0.000000,0.000000,0.000000,0.000000,7.829337,5.130806,-0.667960
1649346788.636046,27022.000000,1649346788.635242,0.000000,0.000000,1.000000,0.000000,0.000000,0.000000,0.000000,7.829365,5.130724,-0.661924
1649346788.732672,27023.000000,1649346788.732333,0.000000,0.000000,1.000000,0.000000,0.000000,0.000000,0.000000,7.828304,5.130646,-0.657846
1649346788.832719,27024.000000,1649346788.832402,0.000000,0.000000,1.000000,0.000000,0.000000,0.000000,0.000000,7.828396,5.130572,-0.656456
1649346788.934315,27025.000000,1649346788.933286,0.000000,0.000000,1.000000,0.000000,0.000000,0.000000,0.000000,7.828489,5.130503,-0.654418
1649346789.032928,27026.000000,1649346789.032524,0.000000,0.000000,1.000000,0.000000,0.000000,0.000000,0.000000,7.828580,5.129348,-0.657401
1649346789.134301,27027.000000,1649346789.133006,0.000000,0.000000,1.000000,0.000000,0.000000,0.000000,0.000000,7.828671,5.129350,-0.662775
1649346789.233233,27028.000000,1649346789.232826,0.000000,0.000000,1.000000,0.000000,0.000000,0.000000,0.000000,7.827670,5.127176,-0.670431
1649346789.336051,27029.000000,1649346789.335378,0.000000,0.000000,1.000000,0.000000,0.000000,0.000000,0.000000,7.827820,5.126221,-0.681067
1649346789.434513,27030.000000,1649346789.433943,0.000000,0.000000,1.000000,0.000000,0.000000,0.000000,0.000000,7.826877,5.126421,-0.690510
1649346789.533008,27031.000000,1649346789.532628,0.000000,0.000000,1.000000,0.000000,0.000000,0.000000,0.000000,7.825994,5.126622,-0.709274
1649346789.632776,27032.000000,1649346789.632506,0.000000,0.000000,1.000000,0.000000,0.000000,0.000000,0.000000,7.826260,5.126822,-0.724046
1649346789.732712,27033.000000,1649346789.732308,0.000000,0.000000,1.000000,0.000000,0.000000,0.000000,0.000000,7.826520,5.128111,-0.722062
1649346789.835188,27034.000000,1649346789.834325,0.000000,0.000000,1.000000,0.000000,0.000000,0.000000,0.000000,7.826773,5.129334,-0.721741
1649346789.936056,27035.000000,1649346789.935240,0.000000,0.000000,1.000000,0.000000,0.000000,0.000000,0.000000,7.828110,5.129401,-0.725438
1649346790.034171,27036.000000,1649346790.033831,0.000000,0.000000,1.000000,0.000000,0.000000,0.000000,0.000000,7.829376,5.129463,-0.732181
1649346790.133008,27037.000000,1649346790.132638,0.000000,0.000000,1.000000,0.000000,0.000000,0.000000,0.000000,7.830571,5.129523,-0.732964
1649346790.231918,27038.000000,1649346790.231596,0.000000,0.000000,1.000000,0.000000,0.000000,0.000000,0.000000,7.831694,5.129579,-0.733675
1649346790.336114,27039.000000,1649346790.335521,0.000000,0.000000,1.000000,0.000000,0.000000,0.000000,0.000000,7.832748,5.129632,-0.695605
1649346790.433646,27040.000000,1649346790.433270,0.000000,0.000000,1.000000,0.000000,0.000000,0.000000,0.000000,7.832642,5.129681,-0.666353
1649346790.535694,27041.000000,1649346790.533726,0.000000,0.000000,1.000000,0.000000,0.000000,0.000000,0.000000,7.833621,5.129727,-0.660935
1649346790.640665,27042.000000,1649346790.637974,0.000000,0.000000,1.000000,0.000000,0.000000,0.000000,0.000000,7.835624,5.129769,-0.660654
1649346790.735385,27043.000000,1649346790.734897,0.000000,0.000000,1.000000,0.000000,0.000000,0.000000,0.000000,7.836408,5.130899,-0.655622
1649346790.835497,27044.000000,1649346790.834743,0.000000,0.000000,1.000000,0.000000,0.000000,0.000000,0.000000,7.837130,5.130872,-0.657327
1649346790.935204,27045.000000,1649346790.933906,0.000000,0.000000,1.000000,0.000000,0.000000,0.000000,0.000000,7.836701,5.129753,-0.662264
1649346791.032777,27046.000000,1649346791.032245,0.000000,0.000000,1.000000,0.000000,0.000000,0.000000,0.000000,7.836276,5.129784,-0.663035
1649346791.134857,27047.000000,1649346791.133575,0.000000,0.000000,1.000000,0.000000,0.000000,0.000000,0.000000,7.835858,5.129814,-0.663835
1649346791.234323,27048.000000,1649346791.233530,0.000000,0.000000,1.000000,0.000000,0.000000,0.000000,0.000000,7.835449,5.129841,-0.667079
1649346791.333560,27049.000000,1649346791.332803,0.000000,0.000000,1.000000,0.000000,0.000000,0.000000,0.000000,7.836140,5.130957,-0.671047
1649346791.433425,27050.000000,1649346791.432909,0.000000,0.000000,1.000000,0.000000,0.000000,0.000000,0.000000,7.835690,5.130918,-0.674895
1649346791.534225,27051.000000,1649346791.533921,0.000000,0.000000,1.000000,0.000000,0.000000,0.000000,0.000000,7.835254,5.130877,-0.675393
1649346791.634228,27052.000000,1649346791.633902,0.000000,0.000000,1.000000,0.000000,0.000000,0.000000,0.000000,7.834832,5.130835,-0.677514
1649346791.734320,27053.000000,1649346791.733536,0.000000,0.000000,1.000000,0.000000,0.000000,0.000000,0.000000,7.833335,5.129702,-0.681187
1649346791.834403,27054.000000,1649346791.833809,0.000000,0.000000,1.000000,0.000000,0.000000,0.000000,0.000000,7.831917,5.128631,-0.684728
1649346791.932874,27055.000000,1649346791.932632,0.000000,0.000000,1.000000,0.000000,0.000000,0.000000,0.000000,7.830579,5.127623,-0.688138
1649346792.032565,27056.000000,1649346792.032304,0.000000,0.000000,1.000000,0.000000,0.000000,0.000000,0.000000,7.831501,5.126677,-0.691415
1649346792.133127,27057.000000,1649346792.132732,0.000000,0.000000,1.000000,0.000000,0.000000,0.000000,0.000000,7.832376,5.126883,-0.694558
1649346792.236491,27058.000000,1649346792.235606,0.000000,0.000000,1.000000,0.000000,0.000000,0.000000,0.000000,7.833204,5.127085,-0.702407
1649346792.335495,27059.000000,1649346792.334407,0.000000,0.000000,1.000000,0.000000,0.000000,0.000000,0.000000,7.835074,5.128375,-0.705081
1649346792.436499,27060.000000,1649346792.435558,0.000000,0.000000,1.000000,0.000000,0.000000,0.000000,0.000000,7.836835,5.129596,-0.708430
1649346792.532944,27061.000000,1649346792.532424,0.000000,0.000000,1.000000,0.000000,0.000000,0.000000,0.000000,7.836305,5.129660,-0.714842
1649346792.632992,27062.000000,1649346792.632274,0.000000,0.000000,1.000000,0.000000,0.000000,0.000000,0.000000,7.835794,5.129719,-0.720958
1649346792.734734,27063.000000,1649346792.733842,0.000000,0.000000,1.000000,0.000000,0.000000,0.000000,0.000000,7.835302,5.130864,-0.721135
1649346792.833452,27064.000000,1649346792.833107,0.000000,0.000000,1.000000,0.000000,0.000000,0.000000,0.000000,7.834830,5.130851,-0.736583
1649346792.938138,27065.000000,1649346792.937082,0.000000,0.000000,1.000000,0.000000,0.000000,0.000000,0.000000,7.833289,5.130834,-0.747307
1649346793.034148,27066.000000,1649346793.033782,0.000000,0.000000,1.000000,0.000000,0.000000,0.000000,0.000000,7.832923,5.131903,-0.755902
1649346793.134048,27067.000000,1649346793.133348,0.000000,0.000000,1.000000,0.000000,0.000000,0.000000,0.000000,7.832578,5.132908,-0.755990
1649346793.234660,27068.000000,1649346793.234108,0.000000,0.000000,1.000000,0.000000,0.000000,0.000000,0.000000,7.833345,5.133847,-0.752756
1649346793.332477,27069.000000,1649346793.332164,0.000000,0.000000,1.000000,0.000000,0.000000,0.000000,0.000000,7.834070,5.134723,-0.746345
1649346793.433520,27070.000000,1649346793.433085,0.000000,0.000000,1.000000,0.000000,0.000000,0.000000,0.000000,7.833663,5.135536,-0.744157
1649346793.533262,27071.000000,1649346793.532696,0.000000,0.000000,1.000000,0.000000,0.000000,0.000000,0.000000,7.833278,5.135199,-0.746028
1649346793.633656,27072.000000,1649346793.632829,0.000000,0.000000,1.000000,0.000000,0.000000,0.000000,0.000000,7.832913,5.135956,-0.742923
1649346793.733614,27073.000000,1649346793.733103,0.000000,0.000000,1.000000,0.000000,0.000000,0.000000,0.000000,7.833661,5.136655,-0.739888
1649346793.836036,27074.000000,1649346793.833458,0.000000,0.000000,1.000000,0.000000,0.000000,0.000000,0.000000,7.834367,5.138390,-0.724833
1649346793.937354,27075.000000,1649346793.935711,0.000000,0.000000,1.000000,0.000000,0.000000,0.000000,0.000000,7.835031,5.140009,-0.716816
1649346794.036033,27076.000000,1649346794.035649,0.000000,0.000000,1.000000,0.000000,0.000000,0.000000,0.000000,7.836745,5.140424,-0.714764
1649346794.132802,27077.000000,1649346794.132382,0.000000,0.000000,1.000000,0.000000,0.000000,0.000000,0.000000,7.838355,5.140791,-0.717631
1649346794.232424,27078.000000,1649346794.232168,0.000000,0.000000,1.000000,0.000000,0.000000,0.000000,0.000000,7.839863,5.140022,-0.723603
1649346794.332553,27079.000000,1649346794.332295,0.000000,0.000000,1.000000,0.000000,0.000000,0.000000,0.000000,7.841270,5.139275,-0.732544
1649346794.432320,27080.000000,1649346794.432052,0.000000,0.000000,1.000000,0.000000,0.000000,0.000000,0.000000,7.841489,5.138550,-0.733836
1649346794.536124,27081.000000,1649346794.534114,0.000000,0.000000,1.000000,0.000000,0.000000,0.000000,0.000000,7.841674,5.137851,-0.728593
1649346794.633630,27082.000000,1649346794.633228,0.000000,0.000000,1.000000,0.000000,0.000000,0.000000,0.000000,7.841828,5.138269,-0.723541
1649346794.733033,27083.000000,1649346794.732710,0.000000,0.000000,1.000000,0.000000,0.000000,0.000000,0.000000,7.841955,5.138652,-0.717874
1649346794.837221,27084.000000,1649346794.836322,0.000000,0.000000,1.000000,0.000000,0.000000,0.000000,0.000000,7.842055,5.139002,-0.715660
1649346794.933828,27085.000000,1649346794.933172,0.000000,0.000000,1.000000,0.000000,0.000000,0.000000,0.000000,7.843221,5.139320,-0.719183
1649346795.032455,27086.000000,1649346795.032129,0.000000,0.000000,1.000000,0.000000,0.000000,0.000000,0.000000,7.844303,5.139607,-0.716108
1649346795.133764,27087.000000,1649346795.133285,0.000000,0.000000,1.000000,0.000000,0.000000,0.000000,0.000000,7.844213,5.138776,-0.712353
1649346795.233423,27088.000000,1649346795.232759,0.000000,0.000000,1.000000,0.000000,0.000000,0.000000,0.000000,7.844106,5.139070,-0.714401
1649346795.334269,27089.000000,1649346795.333640,0.000000,0.000000,1.000000,0.000000,0.000000,0.000000,0.000000,7.843984,5.139338,-0.715565
1649346795.432990,27090.000000,1649346795.432562,0.000000,0.000000,1.000000,0.000000,0.000000,0.000000,0.000000,7.843851,5.138490,-0.720717
1649346795.533064,27091.000000,1649346795.532757,0.000000,0.000000,1.000000,0.000000,0.000000,0.000000,0.000000,7.842618,5.137682,-0.723234
1649346795.632408,27092.000000,1649346795.632225,0.000000,0.000000,1.000000,0.000000,0.000000,0.000000,0.000000,7.841440,5.138004,-0.717575
1649346795.733913,27093.000000,1649346795.733346,0.000000,0.000000,1.000000,0.000000,0.000000,0.000000,0.000000,7.840318,5.137212,-0.716175
1649346795.833208,27094.000000,1649346795.832890,0.000000,0.000000,1.000000,0.000000,0.000000,0.000000,0.000000,7.839254,5.135372,-0.722898
1649346795.932361,27095.000000,1649346795.932094,0.000000,0.000000,1.000000,0.000000,0.000000,0.000000,0.000000,7.838247,5.132545,-0.733372
1649346796.033942,27096.000000,1649346796.033493,0.000000,0.000000,1.000000,0.000000,0.000000,0.000000,0.000000,7.838389,5.130974,-0.742591
1649346796.132635,27097.000000,1649346796.132330,0.000000,0.000000,1.000000,0.000000,0.000000,0.000000,0.000000,7.838526,5.129506,-0.751396
1649346796.235829,27098.000000,1649346796.235160,0.000000,0.000000,1.000000,0.000000,0.000000,0.000000,0.000000,7.837566,5.128138,-0.755760
1649346796.337729,27099.000000,1649346796.336229,0.000000,0.000000,1.000000,0.000000,0.000000,0.000000,0.000000,7.837754,5.126868,-0.756661
1649346796.433616,27100.000000,1649346796.433408,0.000000,0.000000,1.000000,0.000000,0.000000,0.000000,0.000000,7.837935,5.126784,-0.748597
1649346796.533830,27101.000000,1649346796.532500,0.000000,0.000000,1.000000,0.000000,0.000000,0.000000,0.000000,7.837020,5.126729,-0.733556
1649346796.636329,27102.000000,1649346796.634485,0.000000,0.000000,1.000000,0.000000,0.000000,0.000000,0.000000,7.836160,5.125610,-0.724752
1649346796.736321,27103.000000,1649346796.735334,0.000000,0.000000,1.000000,0.000000,0.000000,0.000000,0.000000,7.835355,5.124578,-0.719528
1649346796.833926,27104.000000,1649346796.833324,0.000000,0.000000,1.000000,0.000000,0.000000,0.000000,0.000000,7.834604,5.124721,-0.708072
1649346796.934914,27105.000000,1649346796.934294,0.000000,0.000000,1.000000,0.000000,0.000000,0.000000,0.000000,7.833906,5.123790,-0.713234
1649346797.033180,27106.000000,1649346797.032905,0.000000,0.000000,1.000000,0.000000,0.000000,0.000000,0.000000,7.833259,5.122937,-0.717401
1649346797.133673,27107.000000,1649346797.133339,0.000000,0.000000,1.000000,0.000000,0.000000,0.000000,0.000000,7.832663,5.123249,-0.721409
1649346797.234303,27108.000000,1649346797.233303,0.000000,0.000000,1.000000,0.000000,0.000000,0.000000,0.000000,7.832115,5.123569,-0.722034
1649346797.333359,27109.000000,1649346797.332865,0.000000,0.000000,1.000000,0.000000,0.000000,0.000000,0.000000,7.831613,5.123895,-0.718602
1649346797.434058,27110.000000,1649346797.433225,0.000000,0.000000,1.000000,0.000000,0.000000,0.000000,0.000000,7.832246,5.124224,-0.719349
1649346797.533040,27111.000000,1649346797.532758,0.000000,0.000000,1.000000,0.000000,0.000000,0.000000,0.000000,7.832859,5.125644,-0.710394
1649346797.634255,27112.000000,1649346797.633531,0.000000,0.000000,1.000000,0.000000,0.000000,0.000000,0.000000,7.833450,5.126999,-0.703434
1649346797.736406,27113.000000,1649346797.735467,0.000000,0.000000,1.000000,0.000000,0.000000,0.000000,0.000000,7.834018,5.127198,-0.712109
1649346797.836847,27114.000000,1649346797.834575,0.000000,0.000000,1.000000,0.000000,0.000000,0.000000,0.000000,7.833471,5.127393,-0.722063
1649346797.935571,27115.000000,1649346797.934819,0.000000,0.000000,1.000000,0.000000,0.000000,0.000000,0.000000,7.832962,5.126492,-0.733227
1649346798.032904,27116.000000,1649346798.032583,0.000000,0.000000,1.000000,0.000000,0.000000,0.000000,0.000000,7.832490,5.124559,-0.742308
1649346798.135968,27117.000000,1649346798.135016,0.000000,0.000000,1.000000,0.000000,0.000000,0.000000,0.000000,7.833144,5.123835,-0.745342
1649346798.234757,27118.000000,1649346798.233502,0.000000,0.000000,1.000000,0.000000,0.000000,0.000000,0.000000,7.832679,5.123166,-0.741763
1649346798.335096,27119.000000,1649346798.334152,0.000000,0.000000,1.000000,0.000000,0.000000,0.000000,0.000000,7.832249,5.122550,-0.739104
1649346798.432599,27120.000000,1649346798.432210,0.000000,0.000000,1.000000,0.000000,0.000000,0.000000,0.000000,7.831851,5.123076,-0.732495
1649346798.533877,27121.000000,1649346798.533253,0.000000,0.000000,1.000000,0.000000,0.000000,0.000000,0.000000,7.831484,5.123587,-0.730978
1649346798.634893,27122.000000,1649346798.634161,0.000000,0.000000,1.000000,0.000000,0.000000,0.000000,0.000000,7.831149,5.124084,-0.733544
1649346798.734682,27123.000000,1649346798.734210,0.000000,0.000000,1.000000,0.000000,0.000000,0.000000,0.000000,7.831933,5.123473,-0.749703
1649346798.832427,27124.000000,1649346798.832216,0.000000,0.000000,1.000000,0.000000,0.000000,0.000000,0.000000,7.832682,5.122906,-0.766782
1649346798.934507,27125.000000,1649346798.933949,0.000000,0.000000,1.000000,0.000000,0.000000,0.000000,0.000000,7.833396,5.123474,-0.777461
1649346799.032946,27126.000000,1649346799.032518,0.000000,0.000000,1.000000,0.000000,0.000000,0.000000,0.000000,7.835164,5.124021,-0.786012
1649346799.134197,27127.000000,1649346799.133725,0.000000,0.000000,1.000000,0.000000,0.000000,0.000000,0.000000,7.836832,5.123455,-0.797351
1649346799.233719,27128.000000,1649346799.233356,0.000000,0.000000,1.000000,0.000000,0.000000,0.000000,0.000000,7.838402,5.124020,-0.799252
1649346799.335331,27129.000000,1649346799.334569,0.000000,0.000000,1.000000,0.000000,0.000000,0.000000,0.000000,7.838783,5.124561,-0.796937
1649346799.434874,27130.000000,1649346799.434169,0.000000,0.000000,1.000000,0.000000,0.000000,0.000000,0.000000,7.838039,5.125077,-0.788163
1649346799.534010,27131.000000,1649346799.533000,0.000000,0.000000,1.000000,0.000000,0.000000,0.000000,0.000000,7.837326,5.126658,-0.778856
1649346799.633537,27132.000000,1649346799.633145,0.000000,0.000000,1.000000,0.000000,0.000000,0.000000,0.000000,7.836645,5.128151,-0.774702
1649346799.733587,27133.000000,1649346799.732655,0.000000,0.000000,1.000000,0.000000,0.000000,0.000000,0.000000,7.834906,5.128465,-0.773082
1649346799.834071,27134.000000,1649346799.833327,0.000000,0.000000,1.000000,0.000000,0.000000,0.000000,0.000000,7.834353,5.128754,-0.769868
1649346799.934435,27135.000000,1649346799.933374,0.000000,0.000000,1.000000,0.000000,0.000000,0.000000,0.000000,7.832743,5.130110,-0.765938
1649346800.033477,27136.000000,1649346800.033000,0.000000,0.000000,1.000000,0.000000,0.000000,0.000000,0.000000,7.831227,5.130291,-0.762135
1649346800.134924,27137.000000,1649346800.134262,0.000000,0.000000,1.000000,0.000000,0.000000,0.000000,0.000000,7.828717,5.130449,-0.758462
1649346800.237808,27138.000000,1649346800.236875,0.000000,0.000000,1.000000,0.000000,0.000000,0.000000,0.000000,7.826362,5.130588,-0.756534
1649346800.337545,27139.000000,1649346800.336581,0.000000,0.000000,1.000000,0.000000,0.000000,0.000000,0.000000,7.824161,5.129617,-0.759510
1649346800.435804,27140.000000,1649346800.434817,0.000000,0.000000,1.000000,0.000000,0.000000,0.000000,0.000000,7.823201,5.128692,-0.760737
1649346800.537378,27141.000000,1649346800.535909,0.000000,0.000000,1.000000,0.000000,0.000000,0.000000,0.000000,7.822326,5.127813,-0.758670
1649346800.632611,27142.000000,1649346800.632294,0.000000,0.000000,1.000000,0.000000,0.000000,0.000000,0.000000,7.820441,5.128071,-0.755867
1649346800.732997,27143.000000,1649346800.732416,0.000000,0.000000,1.000000,0.000000,0.000000,0.000000,0.000000,7.819786,5.127222,-0.760425
1649346800.833406,27144.000000,1649346800.832883,0.000000,0.000000,1.000000,0.000000,0.000000,0.000000,0.000000,7.820295,5.125331,-0.765591
1649346800.932634,27145.000000,1649346800.932305,0.000000,0.000000,1.000000,0.000000,0.000000,0.000000,0.000000,7.820809,5.123549,-0.770525
1649346801.035226,27146.000000,1649346801.034726,0.000000,0.000000,1.000000,0.000000,0.000000,0.000000,0.000000,7.821325,5.124057,-0.767970
1649346801.134134,27147.000000,1649346801.133412,0.000000,0.000000,1.000000,0.000000,0.000000,0.000000,0.000000,7.821839,5.124546,-0.763073
1649346801.235320,27148.000000,1649346801.234498,0.000000,0.000000,1.000000,0.000000,0.000000,0.000000,0.000000,7.822348,5.125017,-0.754326
1649346801.333754,27149.000000,1649346801.333361,0.000000,0.000000,1.000000,0.000000,0.000000,0.000000,0.000000,7.822850,5.126558,-0.741897
1649346801.432986,27150.000000,1649346801.432487,0.000000,0.000000,1.000000,0.000000,0.000000,0.000000,0.000000,7.824433,5.128016,-0.735635
1649346801.538511,27151.000000,1649346801.537995,0.000000,0.000000,1.000000,0.000000,0.000000,0.000000,0.000000,7.825941,5.129390,-0.728043
1649346801.632647,27152.000000,1649346801.632370,0.000000,0.000000,1.000000,0.000000,0.000000,0.000000,0.000000,7.827373,5.130681,-0.720798
1649346801.733380,27153.000000,1649346801.732926,0.000000,0.000000,1.000000,0.000000,0.000000,0.000000,0.000000,7.828729,5.131890,-0.712285
1649346801.837579,27154.000000,1649346801.837123,0.000000,0.000000,1.000000,0.000000,0.000000,0.000000,0.000000,7.831098,5.131928,-0.720309
1649346801.937348,27155.000000,1649346801.936618,0.000000,0.000000,1.000000,0.000000,0.000000,0.000000,0.000000,7.833327,5.131950,-0.728057
1649346802.034821,27156.000000,1649346802.033730,0.000000,0.000000,1.000000,0.000000,0.000000,0.000000,0.000000,7.835419,5.133047,-0.731493
1649346802.132649,27157.000000,1649346802.132254,0.000000,0.000000,1.000000,0.000000,0.000000,0.000000,0.000000,7.837374,5.132978,-0.733205
1649346802.233699,27158.000000,1649346802.232755,0.000000,0.000000,1.000000,0.000000,0.000000,0.000000,0.000000,7.838105,5.132898,-0.737288
1649346802.333354,27159.000000,1649346802.332829,0.000000,0.000000,1.000000,0.000000,0.000000,0.000000,0.000000,7.839858,5.132808,-0.744446
1649346802.436256,27160.000000,1649346802.435342,0.000000,0.000000,1.000000,0.000000,0.000000,0.000000,0.000000,7.841485,5.133801,-0.748092
1649346802.535617,27161.000000,1649346802.534996,0.000000,0.000000,1.000000,0.000000,0.000000,0.000000,0.000000,7.842987,5.134725,-0.743521
1649346802.637437,27162.000000,1649346802.636517,0.000000,0.000000,1.000000,0.000000,0.000000,0.000000,0.000000,7.842189,5.134490,-0.740750
1649346802.734889,27163.000000,1649346802.733779,0.000000,0.000000,1.000000,0.000000,0.000000,0.000000,0.000000,7.840311,5.134253,-0.738098
1649346802.832709,27164.000000,1649346802.832381,0.000000,0.000000,1.000000,0.000000,0.000000,0.000000,0.000000,7.839600,5.135106,-0.732339
1649346802.932940,27165.000000,1649346802.932598,0.000000,0.000000,1.000000,0.000000,0.000000,0.000000,0.000000,7.838907,5.134806,-0.733285
1649346803.035776,27166.000000,1649346803.034738,0.000000,0.000000,1.000000,0.000000,0.000000,0.000000,0.000000,7.838233,5.135598,-0.731792
1649346803.133628,27167.000000,1649346803.133255,0.000000,0.000000,1.000000,0.000000,0.000000,0.000000,0.000000,7.838671,5.136332,-0.726347
1649346803.238617,27168.000000,1649346803.237431,0.000000,0.000000,1.000000,0.000000,0.000000,0.000000,0.000000,7.839069,5.137009,-0.724375
1649346803.332402,27169.000000,1649346803.332123,0.000000,0.000000,1.000000,0.000000,0.000000,0.000000,0.000000,7.839430,5.137631,-0.721708
1649346803.432512,27170.000000,1649346803.432234,0.000000,0.000000,1.000000,0.000000,0.000000,0.000000,0.000000,7.839756,5.137110,-0.725634
1649346803.537031,27171.000000,1649346803.534916,0.000000,0.000000,1.000000,0.000000,0.000000,0.000000,0.000000,7.840047,5.137691,-0.722976
1649346803.634977,27172.000000,1649346803.634547,0.000000,0.000000,1.000000,0.000000,0.000000,0.000000,0.000000,7.840306,5.138224,-0.718841
1649346803.733137,27173.000000,1649346803.732646,0.000000,0.000000,1.000000,0.000000,0.000000,0.000000,0.000000,7.841626,5.138709,-0.718941
1649346803.840622,27174.000000,1649346803.836685,0.000000,0.000000,1.000000,0.000000,0.000000,0.000000,0.000000,7.842854,5.139150,-0.718263
1649346803.937123,27175.000000,1649346803.935825,0.000000,0.000000,1.000000,0.000000,0.000000,0.000000,0.000000,7.842903,5.139548,-0.719259
1649346804.037503,27176.000000,1649346804.036583,0.000000,0.000000,1.000000,0.000000,0.000000,0.000000,0.000000,7.841838,5.138815,-0.733955
1649346804.132901,27177.000000,1649346804.132395,0.000000,0.000000,1.000000,0.000000,0.000000,0.000000,0.000000,7.840814,5.138107,-0.741611
1649346804.234352,27178.000000,1649346804.233622,0.000000,0.000000,1.000000,0.000000,0.000000,0.000000,0.000000,7.839834,5.137424,-0.750561
1649346804.340204,27179.000000,1649346804.339370,0.000000,0.000000,1.000000,0.000000,0.000000,0.000000,0.000000,7.838900,5.137860,-0.755095
1649346804.435193,27180.000000,1649346804.433925,0.000000,0.000000,1.000000,0.000000,0.000000,0.000000,0.000000,7.838011,5.138262,-0.759416
1649346804.535972,27181.000000,1649346804.535489,0.000000,0.000000,1.000000,0.000000,0.000000,0.000000,0.000000,7.838258,5.137540,-0.765945
1649346804.633193,27182.000000,1649346804.632750,0.000000,0.000000,1.000000,0.000000,0.000000,0.000000,0.000000,7.838490,5.137940,-0.769745
1649346804.733651,27183.000000,1649346804.732992,0.000000,0.000000,1.000000,0.000000,0.000000,0.000000,0.000000,7.838706,5.138310,-0.774148
1649346804.832761,27184.000000,1649346804.832445,0.000000,0.000000,1.000000,0.000000,0.000000,0.000000,0.000000,7.838907,5.137559,-0.783155
1649346804.935907,27185.000000,1649346804.935195,0.000000,0.000000,1.000000,0.000000,0.000000,0.000000,0.000000,7.838002,5.136843,-0.785280
1649346805.036762,27186.000000,1649346805.035897,0.000000,0.000000,1.000000,0.000000,0.000000,0.000000,0.000000,7.837146,5.136162,-0.792087
1649346805.133581,27187.000000,1649346805.133087,0.000000,0.000000,1.000000,0.000000,0.000000,0.000000,0.000000,7.837428,5.135516,-0.795317
1649346805.237770,27188.000000,1649346805.235911,0.000000,0.000000,1.000000,0.000000,0.000000,0.000000,0.000000,7.837696,5.135996,-0.793496
1649346805.334049,27189.000000,1649346805.333066,0.000000,0.000000,1.000000,0.000000,0.000000,0.000000,0.000000,7.839039,5.135359,-0.793288
1649346805.433581,27190.000000,1649346805.432940,0.000000,0.000000,1.000000,0.000000,0.000000,0.000000,0.000000,7.839215,5.135848,-0.785760
1649346805.532499,27191.000000,1649346805.532195,0.000000,0.000000,1.000000,0.000000,0.000000,0.000000,0.000000,7.839376,5.135219,-0.781706
1649346805.636216,27192.000000,1649346805.635213,0.000000,0.000000,1.000000,0.000000,0.000000,0.000000,0.000000,7.839524,5.134626,-0.777770
1649346805.735180,27193.000000,1649346805.733849,0.000000,0.000000,1.000000,0.000000,0.000000,0.000000,0.000000,7.838568,5.135159,-0.769923
1649346805.834258,27194.000000,1649346805.833395,0.000000,0.000000,1.000000,0.000000,0.000000,0.000000,0.000000,7.837663,5.134574,-0.765597
1649346805.937770,27195.000000,1649346805.936638,0.000000,0.000000,1.000000,0.000000,0.000000,0.000000,0.000000,7.837898,5.132934,-0.767075
1649346806.033071,27196.000000,1649346806.032748,0.000000,0.000000,1.000000,0.000000,0.000000,0.000000,0.000000,7.838121,5.132481,-0.757188
1649346806.134034,27197.000000,1649346806.133422,0.000000,0.000000,1.000000,0.000000,0.000000,0.000000,0.000000,7.838332,5.133153,-0.740443
1649346806.234600,27198.000000,1649346806.233458,0.000000,0.000000,1.000000,0.000000,0.000000,0.000000,0.000000,7.838530,5.133794,-0.731661
1649346806.335392,27199.000000,1649346806.334754,0.000000,0.000000,1.000000,0.000000,0.000000,0.000000,0.000000,7.838715,5.134405,-0.716018
1649346806.435318,27200.000000,1649346806.434921,0.000000,0.000000,1.000000,0.000000,0.000000,0.000000,0.000000,7.839979,5.133893,-0.710752
1649346806.532960,27201.000000,1649346806.532691,0.000000,0.000000,1.000000,0.000000,0.000000,0.000000,0.000000,7.840078,5.132323,-0.707385
1649346806.638272,27202.000000,1649346806.637445,0.000000,0.000000,1.000000,0.000000,0.000000,0.000000,0.000000,7.840165,5.131937,-0.704230
1649346806.735100,27203.000000,1649346806.734058,0.000000,0.000000,1.000000,0.000000,0.000000,0.000000,0.000000,7.841333,5.129400,-0.712572
1649346806.835342,27204.000000,1649346806.834541,0.000000,0.000000,1.000000,0.000000,0.000000,0.000000,0.000000,7.842427,5.128107,-0.719027
1649346806.936633,27205.000000,1649346806.935812,0.000000,0.000000,1.000000,0.000000,0.000000,0.000000,0.000000,7.842360,5.126905,-0.718011
1649346807.041072,27206.000000,1649346807.040128,0.000000,0.000000,1.000000,0.000000,0.000000,0.000000,0.000000,7.842285,5.125791,-0.720310
1649346807.137243,27207.000000,1649346807.136793,0.000000,0.000000,1.000000,0.000000,0.000000,0.000000,0.000000,7.841113,5.125851,-0.722558
1649346807.235486,27208.000000,1649346807.234431,0.000000,0.000000,1.000000,0.000000,0.000000,0.000000,0.000000,7.841090,5.125932,-0.727977
1649346807.333626,27209.000000,1649346807.333275,0.000000,0.000000,1.000000,0.000000,0.000000,0.000000,0.000000,7.841062,5.127119,-0.731591
1649346807.434886,27210.000000,1649346807.434413,0.000000,0.000000,1.000000,0.000000,0.000000,0.000000,0.000000,7.841031,5.127168,-0.738303
1649346807.535233,27211.000000,1649346807.534632,0.000000,0.000000,1.000000,0.000000,0.000000,0.000000,0.000000,7.840996,5.127229,-0.739912
1649346807.635989,27212.000000,1649346807.634809,0.000000,0.000000,1.000000,0.000000,0.000000,0.000000,0.000000,7.840959,5.127301,-0.741459
1649346807.734760,27213.000000,1649346807.732932,0.000000,0.000000,1.000000,0.000000,0.000000,0.000000,0.000000,7.838740,5.128473,-0.743751
1649346807.833539,27214.000000,1649346807.833114,0.000000,0.000000,1.000000,0.000000,0.000000,0.000000,0.000000,7.838825,5.129589,-0.745141
1649346807.932544,27215.000000,1649346807.932151,0.000000,0.000000,1.000000,0.000000,0.000000,0.000000,0.000000,7.837818,5.129559,-0.745662
1649346808.034507,27216.000000,1649346808.033904,0.000000,0.000000,1.000000,0.000000,0.000000,0.000000,0.000000,7.837962,5.129534,-0.743737
1649346808.135562,27217.000000,1649346808.134223,0.000000,0.000000,1.000000,0.000000,0.000000,0.000000,0.000000,7.838103,5.130606,-0.741886
1649346808.232437,27218.000000,1649346808.232198,0.000000,0.000000,1.000000,0.000000,0.000000,0.000000,0.000000,7.838240,5.131620,-0.739304
1649346808.336709,27219.000000,1649346808.336283,0.000000,0.000000,1.000000,0.000000,0.000000,0.000000,0.000000,7.839464,5.131486,-0.742476
1649346808.433668,27220.000000,1649346808.433093,0.000000,0.000000,1.000000,0.000000,0.000000,0.000000,0.000000,7.840621,5.132447,-0.747133
1649346808.536293,27221.000000,1649346808.535565,0.000000,0.000000,1.000000,0.000000,0.000000,0.000000,0.000000,7.842801,5.133352,-0.749174
1649346808.634245,27222.000000,1649346808.633185,0.000000,0.000000,1.000000,0.000000,0.000000,0.000000,0.000000,7.843761,5.133109,-0.754346
1649346808.734988,27223.000000,1649346808.734118,0.000000,0.000000,1.000000,0.000000,0.000000,0.000000,0.000000,7.844656,5.132873,-0.756871
1649346808.834365,27224.000000,1649346808.833903,0.000000,0.000000,1.000000,0.000000,0.000000,0.000000,0.000000,7.845487,5.131554,-0.758464
1649346808.934448,27225.000000,1649346808.933421,0.000000,0.000000,1.000000,0.000000,0.000000,0.000000,0.000000,7.846256,5.131396,-0.759161
1649346809.033227,27226.000000,1649346809.032844,0.000000,0.000000,1.000000,0.000000,0.000000,0.000000,0.000000,7.846964,5.131247,-0.758999
1649346809.133690,27227.000000,1649346809.132601,0.000000,0.000000,1.000000,0.000000,0.000000,0.000000,0.000000,7.846524,5.132197,-0.756400
1649346809.233441,27228.000000,1649346809.232524,0.000000,0.000000,1.000000,0.000000,0.000000,0.000000,0.000000,7.847181,5.132002,-0.757919
1649346809.335072,27229.000000,1649346809.334133,0.000000,0.000000,1.000000,0.000000,0.000000,0.000000,0.000000,7.846694,5.132906,-0.752098
1649346809.437267,27230.000000,1649346809.436292,0.000000,0.000000,1.000000,0.000000,0.000000,0.000000,0.000000,7.846218,5.133756,-0.744083
1649346809.533022,27231.000000,1649346809.532578,0.000000,0.000000,1.000000,0.000000,0.000000,0.000000,0.000000,7.845755,5.135644,-0.733977
1649346809.634833,27232.000000,1649346809.634250,0.000000,0.000000,1.000000,0.000000,0.000000,0.000000,0.000000,7.845306,5.136325,-0.727524
1649346809.733291,27233.000000,1649346809.732741,0.000000,0.000000,1.000000,0.000000,0.000000,0.000000,0.000000,7.843782,5.136955,-0.718944
1649346809.832630,27234.000000,1649346809.832275,0.000000,0.000000,1.000000,0.000000,0.000000,0.000000,0.000000,7.842338,5.137535,-0.705916
1649346809.936710,27235.000000,1649346809.935637,0.000000,0.000000,1.000000,0.000000,0.000000,0.000000,0.000000,7.842063,5.138068,-0.694284
1649346810.033196,27236.000000,1649346810.032432,0.000000,0.000000,1.000000,0.000000,0.000000,0.000000,0.000000,7.840716,5.137465,-0.689654
1649346810.134559,27237.000000,1649346810.133852,0.000000,0.000000,1.000000,0.000000,0.000000,0.000000,0.000000,7.839448,5.137970,-0.676426
1649346810.236896,27238.000000,1649346810.235552,0.000000,0.000000,1.000000,0.000000,0.000000,0.000000,0.000000,7.837168,5.138434,-0.658191
1649346810.335574,27239.000000,1649346810.334700,0.000000,0.000000,1.000000,0.000000,0.000000,0.000000,0.000000,7.835029,5.138856,-0.636790
1649346810.434102,27240.000000,1649346810.433453,0.000000,0.000000,1.000000,0.000000,0.000000,0.000000,0.000000,7.834119,5.140330,-0.622866
1649346810.536626,27241.000000,1649346810.535875,0.000000,0.000000,1.000000,0.000000,0.000000,0.000000,0.000000,7.832192,5.139524,-0.616940
1649346810.634852,27242.000000,1649346810.634373,0.000000,0.000000,1.000000,0.000000,0.000000,0.000000,0.000000,7.830398,5.138745,-0.617080
1649346810.736490,27243.000000,1649346810.735426,0.000000,0.000000,1.000000,0.000000,0.000000,0.000000,0.000000,7.829825,5.137997,-0.619807
1649346810.832504,27244.000000,1649346810.832175,0.000000,0.000000,1.000000,0.000000,0.000000,0.000000,0.000000,7.829315,5.137279,-0.622586
1649346810.934979,27245.000000,1649346810.934487,0.000000,0.000000,1.000000,0.000000,0.000000,0.000000,0.000000,7.827775,5.137685,-0.627017
1649346811.034325,27246.000000,1649346811.033816,0.000000,0.000000,1.000000,0.000000,0.000000,0.000000,0.000000,7.827444,5.138061,-0.633018
1649346811.136385,27247.000000,1649346811.135350,0.000000,0.000000,1.000000,0.000000,0.000000,0.000000,0.000000,7.827166,5.137317,-0.643737
1649346811.235783,27248.000000,1649346811.235213,0.000000,0.000000,1.000000,0.000000,0.000000,0.000000,0.000000,7.826935,5.136609,-0.651701
1649346811.334401,27249.000000,1649346811.333874,0.000000,0.000000,1.000000,0.000000,0.000000,0.000000,0.000000,7.825659,5.135936,-0.652167
1649346811.435712,27250.000000,1649346811.434459,0.000000,0.000000,1.000000,0.000000,0.000000,0.000000,0.000000,7.825577,5.136390,-0.655915
1649346811.534525,27251.000000,1649346811.533805,0.000000,0.000000,1.000000,0.000000,0.000000,0.000000,0.000000,7.826621,5.135727,-0.663610
1649346811.632483,27252.000000,1649346811.632128,0.000000,0.000000,1.000000,0.000000,0.000000,0.000000,0.000000,7.826546,5.136190,-0.664593
1649346811.733182,27253.000000,1649346811.732291,0.000000,0.000000,1.000000,0.000000,0.000000,0.000000,0.000000,7.826501,5.136626,-0.659939
1649346811.835529,27254.000000,1649346811.834689,0.000000,0.000000,1.000000,0.000000,0.000000,0.000000,0.000000,7.826482,5.137037,-0.654717
1649346811.936196,27255.000000,1649346811.935086,0.000000,0.000000,1.000000,0.000000,0.000000,0.000000,0.000000,7.826488,5.137421,-0.640088
1649346812.033656,27256.000000,1649346812.033180,0.000000,0.000000,1.000000,0.000000,0.000000,0.000000,0.000000,7.826515,5.137780,-0.632582
1649346812.134868,27257.000000,1649346812.134197,0.000000,0.000000,1.000000,0.000000,0.000000,0.000000,0.000000,7.827652,5.138113,-0.630307
1649346812.234603,27258.000000,1649346812.234227,0.000000,0.000000,1.000000,0.000000,0.000000,0.000000,0.000000,7.828742,5.138422,-0.619344
1649346812.334826,27259.000000,1649346812.334361,0.000000,0.000000,1.000000,0.000000,0.000000,0.000000,0.000000,7.829784,5.138707,-0.613767
1649346812.433924,27260.000000,1649346812.433194,0.000000,0.000000,1.000000,0.000000,0.000000,0.000000,0.000000,7.830777,5.138969,-0.613363
1649346812.534700,27261.000000,1649346812.533103,0.000000,0.000000,1.000000,0.000000,0.000000,0.000000,0.000000,7.830630,5.139210,-0.613083
1649346812.635490,27262.000000,1649346812.634920,0.000000,0.000000,1.000000,0.000000,0.000000,0.000000,0.000000,7.830494,5.139428,-0.612110
1649346812.733000,27263.000000,1649346812.732553,0.000000,0.000000,1.000000,0.000000,0.000000,0.000000,0.000000,7.831461,5.139627,-0.607244
1649346812.838174,27264.000000,1649346812.837202,0.000000,0.000000,1.000000,0.000000,0.000000,0.000000,0.000000,7.832376,5.138716,-0.609130
1649346812.935140,27265.000000,1649346812.934616,0.000000,0.000000,1.000000,0.000000,0.000000,0.000000,0.000000,7.833239,5.136759,-0.619100
1649346813.032608,27266.000000,1649346813.032229,0.000000,0.000000,1.000000,0.000000,0.000000,0.000000,0.000000,7.834050,5.136000,-0.626325
1649346813.133104,27267.000000,1649346813.132623,0.000000,0.000000,1.000000,0.000000,0.000000,0.000000,0.000000,7.834811,5.134196,-0.636545
1649346813.233424,27268.000000,1649346813.233051,0.000000,0.000000,1.000000,0.000000,0.000000,0.000000,0.000000,7.836611,5.133590,-0.647199
1649346813.337623,27269.000000,1649346813.337082,0.000000,0.000000,1.000000,0.000000,0.000000,0.000000,0.000000,7.838300,5.131937,-0.659863
1649346813.433045,27270.000000,1649346813.432809,0.000000,0.000000,1.000000,0.000000,0.000000,0.000000,0.000000,7.839878,5.131479,-0.670402
1649346813.534069,27271.000000,1649346813.533350,0.000000,0.000000,1.000000,0.000000,0.000000,0.000000,0.000000,7.840257,5.131062,-0.678884
1649346813.633897,27272.000000,1649346813.633358,0.000000,0.000000,1.000000,0.000000,0.000000,0.000000,0.000000,7.839503,5.131774,-0.684571
1649346813.733314,27273.000000,1649346813.732902,0.000000,0.000000,1.000000,0.000000,0.000000,0.000000,0.000000,7.839862,5.131370,-0.692407
1649346813.832751,27274.000000,1649346813.832450,0.000000,0.000000,1.000000,0.000000,0.000000,0.000000,0.000000,7.840182,5.131001,-0.697455
1649346813.934057,27275.000000,1649346813.933513,0.000000,0.000000,1.000000,0.000000,0.000000,0.000000,0.000000,7.840466,5.131757,-0.693369
1649346814.034847,27276.000000,1649346814.034478,0.000000,0.000000,1.000000,0.000000,0.000000,0.000000,0.000000,7.839627,5.131392,-0.687784
1649346814.135568,27277.000000,1649346814.135146,0.000000,0.000000,1.000000,0.000000,0.000000,0.000000,0.000000,7.838818,5.132148,-0.683999
1649346814.235415,27278.000000,1649346814.234710,0.000000,0.000000,1.000000,0.000000,0.000000,0.000000,0.000000,7.838041,5.132871,-0.683563
1649346814.335065,27279.000000,1649346814.334540,0.000000,0.000000,1.000000,0.000000,0.000000,0.000000,0.000000,7.837299,5.132470,-0.698438
1649346814.432753,27280.000000,1649346814.432381,0.000000,0.000000,1.000000,0.000000,0.000000,0.000000,0.000000,7.836592,5.133187,-0.705403
1649346814.541178,27281.000000,1649346814.540516,0.000000,0.000000,1.000000,0.000000,0.000000,0.000000,0.000000,7.835920,5.131688,-0.724928
1649346814.632366,27282.000000,1649346814.632113,0.000000,0.000000,1.000000,0.000000,0.000000,0.000000,0.000000,7.835285,5.129189,-0.745994
1649346814.736474,27283.000000,1649346814.735756,0.000000,0.000000,1.000000,0.000000,0.000000,0.000000,0.000000,7.834685,5.127932,-0.756408
1649346814.833714,27284.000000,1649346814.832971,0.000000,0.000000,1.000000,0.000000,0.000000,0.000000,0.000000,7.833031,5.127852,-0.757396
1649346814.933313,27285.000000,1649346814.932703,0.000000,0.000000,1.000000,0.000000,0.000000,0.000000,0.000000,7.832566,5.127795,-0.754984
1649346815.034952,27286.000000,1649346815.034225,0.000000,0.000000,1.000000,0.000000,0.000000,0.000000,0.000000,7.831045,5.127758,-0.747709
1649346815.133091,27287.000000,1649346815.132687,0.000000,0.000000,1.000000,0.000000,0.000000,0.000000,0.000000,7.829620,5.127739,-0.745459
1649346815.234360,27288.000000,1649346815.233858,0.000000,0.000000,1.000000,0.000000,0.000000,0.000000,0.000000,7.828290,5.126645,-0.745623
1649346815.334029,27289.000000,1649346815.333469,0.000000,0.000000,1.000000,0.000000,0.000000,0.000000,0.000000,7.827053,5.126720,-0.735203
1649346815.433840,27290.000000,1649346815.433402,0.000000,0.000000,1.000000,0.000000,0.000000,0.000000,0.000000,7.825907,5.126807,-0.729162
1649346815.533635,27291.000000,1649346815.532889,0.000000,0.000000,1.000000,0.000000,0.000000,0.000000,0.000000,7.824848,5.126905,-0.721694
1649346815.634567,27292.000000,1649346815.634285,0.000000,0.000000,1.000000,0.000000,0.000000,0.000000,0.000000,7.824964,5.127011,-0.718516
1649346815.733028,27293.000000,1649346815.732679,0.000000,0.000000,1.000000,0.000000,0.000000,0.000000,0.000000,7.826190,5.127125,-0.724301
1649346815.835307,27294.000000,1649346815.834126,0.000000,0.000000,1.000000,0.000000,0.000000,0.000000,0.000000,7.827370,5.127244,-0.722549
1649346815.939040,27295.000000,1649346815.938230,0.000000,0.000000,1.000000,0.000000,0.000000,0.000000,0.000000,7.827409,5.128459,-0.717603
1649346816.033218,27296.000000,1649346816.032844,0.000000,0.000000,1.000000,0.000000,0.000000,0.000000,0.000000,7.827461,5.129613,-0.712020
1649346816.133680,27297.000000,1649346816.132986,0.000000,0.000000,1.000000,0.000000,0.000000,0.000000,0.000000,7.827523,5.130707,-0.700192
1649346816.235245,27298.000000,1649346816.234303,0.000000,0.000000,1.000000,0.000000,0.000000,0.000000,0.000000,7.828684,5.131740,-0.685616
1649346816.337705,27299.000000,1649346816.337215,0.000000,0.000000,1.000000,0.000000,0.000000,0.000000,0.000000,7.829790,5.132712,-0.680526
1649346816.432434,27300.000000,1649346816.432147,0.000000,0.000000,1.000000,0.000000,0.000000,0.000000,0.000000,7.830840,5.133624,-0.675674
1649346816.533068,27301.000000,1649346816.532683,0.000000,0.000000,1.000000,0.000000,0.000000,0.000000,0.000000,7.831832,5.134477,-0.667027
1649346816.639480,27302.000000,1649346816.638919,0.000000,0.000000,1.000000,0.000000,0.000000,0.000000,0.000000,7.831678,5.135272,-0.664427
1649346816.735562,27303.000000,1649346816.735054,0.000000,0.000000,1.000000,0.000000,0.000000,0.000000,0.000000,7.830439,5.137100,-0.662795
1649346816.834488,27304.000000,1649346816.833710,0.000000,0.000000,1.000000,0.000000,0.000000,0.000000,0.000000,7.830360,5.137720,-0.663704
1649346816.935094,27305.000000,1649346816.934342,0.000000,0.000000,1.000000,0.000000,0.000000,0.000000,0.000000,7.830288,5.139376,-0.668661
1649346817.036024,27306.000000,1649346817.035183,0.000000,0.000000,1.000000,0.000000,0.000000,0.000000,0.000000,7.831312,5.139829,-0.679912
1649346817.135894,27307.000000,1649346817.133744,0.000000,0.000000,1.000000,0.000000,0.000000,0.000000,0.000000,7.832279,5.140233,-0.685892
1649346817.234249,27308.000000,1649346817.233911,0.000000,0.000000,1.000000,0.000000,0.000000,0.000000,0.000000,7.833189,5.140592,-0.693253
1649346817.333931,27309.000000,1649346817.333022,0.000000,0.000000,1.000000,0.000000,0.000000,0.000000,0.000000,7.834042,5.140908,-0.704347
1649346817.433336,27310.000000,1649346817.432641,0.000000,0.000000,1.000000,0.000000,0.000000,0.000000,0.000000,7.834841,5.141184,-0.705296
1649346817.532794,27311.000000,1649346817.532572,0.000000,0.000000,1.000000,0.000000,0.000000,0.000000,0.000000,7.835584,5.141422,-0.704570
1649346817.633037,27312.000000,1649346817.632736,0.000000,0.000000,1.000000,0.000000,0.000000,0.000000,0.000000,7.836274,5.140535,-0.707080
1649346817.734886,27313.000000,1649346817.734143,0.000000,0.000000,1.000000,0.000000,0.000000,0.000000,0.000000,7.836913,5.140769,-0.707045
1649346817.834220,27314.000000,1649346817.833598,0.000000,0.000000,1.000000,0.000000,0.000000,0.000000,0.000000,7.838592,5.140972,-0.706990
1649346817.933340,27315.000000,1649346817.933029,0.000000,0.000000,1.000000,0.000000,0.000000,0.000000,0.000000,7.840159,5.140057,-0.710947
1649346818.033524,27316.000000,1649346818.033095,0.000000,0.000000,1.000000,0.000000,0.000000,0.000000,0.000000,7.840527,5.140268,-0.707460
1649346818.134928,27317.000000,1649346818.133630,0.000000,0.000000,1.000000,0.000000,0.000000,0.000000,0.000000,7.841942,5.140455,-0.705706
1649346818.233821,27318.000000,1649346818.233157,0.000000,0.000000,1.000000,0.000000,0.000000,0.000000,0.000000,7.842163,5.141709,-0.697554
1649346818.337413,27319.000000,1649346818.336186,0.000000,0.000000,1.000000,0.000000,0.000000,0.000000,0.000000,7.842346,5.141788,-0.691342
1649346818.439133,27320.000000,1649346818.437747,0.000000,0.000000,1.000000,0.000000,0.000000,0.000000,0.000000,7.843585,5.141847,-0.687003
1649346818.536888,27321.000000,1649346818.536116,0.000000,0.000000,1.000000,0.000000,0.000000,0.000000,0.000000,7.843639,5.141889,-0.687692
1649346818.638074,27322.000000,1649346818.637037,0.000000,0.000000,1.000000,0.000000,0.000000,0.000000,0.000000,7.843664,5.141913,-0.691594
1649346818.737009,27323.000000,1649346818.736543,0.000000,0.000000,1.000000,0.000000,0.000000,0.000000,0.000000,7.844754,5.140833,-0.692925
1649346818.833844,27324.000000,1649346818.833462,0.000000,0.000000,1.000000,0.000000,0.000000,0.000000,0.000000,7.845758,5.138712,-0.708723
1649346818.936783,27325.000000,1649346818.934737,0.000000,0.000000,1.000000,0.000000,0.000000,0.000000,0.000000,7.845588,5.136704,-0.720636
1649346819.038652,27326.000000,1649346819.037863,0.000000,0.000000,1.000000,0.000000,0.000000,0.000000,0.000000,7.845402,5.135901,-0.723962
1649346819.135237,27327.000000,1649346819.134285,0.000000,0.000000,1.000000,0.000000,0.000000,0.000000,0.000000,7.844112,5.135148,-0.728722
1649346819.234432,27328.000000,1649346819.233774,0.000000,0.000000,1.000000,0.000000,0.000000,0.000000,0.000000,7.842874,5.134445,-0.733237
1649346819.336984,27329.000000,1649346819.336296,0.000000,0.000000,1.000000,0.000000,0.000000,0.000000,0.000000,7.841690,5.133790,-0.732674
1649346819.433462,27330.000000,1649346819.432986,0.000000,0.000000,1.000000,0.000000,0.000000,0.000000,0.000000,7.840561,5.134273,-0.732886
1649346819.534127,27331.000000,1649346819.533713,0.000000,0.000000,1.000000,0.000000,0.000000,0.000000,0.000000,7.839489,5.133650,-0.733037
1649346819.634639,27332.000000,1649346819.634039,0.000000,0.000000,1.000000,0.000000,0.000000,0.000000,0.000000,7.839565,5.133071,-0.737971
1649346819.732610,27333.000000,1649346819.732289,0.000000,0.000000,1.000000,0.000000,0.000000,0.000000,0.000000,7.838544,5.132536,-0.737004
1649346819.836271,27334.000000,1649346819.835003,0.000000,0.000000,1.000000,0.000000,0.000000,0.000000,0.000000,7.837581,5.132044,-0.737636
1649346819.933232,27335.000000,1649346819.932778,0.000000,0.000000,1.000000,0.000000,0.000000,0.000000,0.000000,7.836676,5.131592,-0.737385
1649346820.034902,27336.000000,1649346820.034182,0.000000,0.000000,1.000000,0.000000,0.000000,0.000000,0.000000,7.836917,5.131180,-0.752418
1649346820.134154,27337.000000,1649346820.133672,0.000000,0.000000,1.000000,0.000000,0.000000,0.000000,0.000000,7.836061,5.129714,-0.765966
1649346820.239814,27338.000000,1649346820.237880,0.000000,0.000000,1.000000,0.000000,0.000000,0.000000,0.000000,7.835261,5.129438,-0.765973
1649346820.342147,27339.000000,1649346820.336116,0.000000,0.000000,1.000000,0.000000,0.000000,0.000000,0.000000,7.834514,5.129196,-0.758633
1649346820.433235,27340.000000,1649346820.432503,0.000000,0.000000,1.000000,0.000000,0.000000,0.000000,0.000000,7.833821,5.130075,-0.753936
1649346820.538507,27341.000000,1649346820.537649,0.000000,0.000000,1.000000,0.000000,0.000000,0.000000,0.000000,7.833179,5.130921,-0.749368
1649346820.634314,27342.000000,1649346820.633737,0.000000,0.000000,1.000000,0.000000,0.000000,0.000000,0.000000,7.832587,5.131732,-0.735255
1649346820.736371,27343.000000,1649346820.734851,0.000000,0.000000,1.000000,0.000000,0.000000,0.000000,0.000000,7.832044,5.133596,-0.715234
1649346820.835217,27344.000000,1649346820.834318,0.000000,0.000000,1.000000,0.000000,0.000000,0.000000,0.000000,7.831546,5.135361,-0.701676
1649346820.934769,27345.000000,1649346820.934008,0.000000,0.000000,1.000000,0.000000,0.000000,0.000000,0.000000,7.831094,5.135935,-0.691923
1649346821.035496,27346.000000,1649346821.034437,0.000000,0.000000,1.000000,0.000000,0.000000,0.000000,0.000000,7.831774,5.135382,-0.687450
1649346821.138484,27347.000000,1649346821.135137,0.000000,0.000000,1.000000,0.000000,0.000000,0.000000,0.000000,7.832432,5.133764,-0.692081
1649346821.235702,27348.000000,1649346821.235243,0.000000,0.000000,1.000000,0.000000,0.000000,0.000000,0.000000,7.833065,5.133327,-0.686892
1649346821.333141,27349.000000,1649346821.332627,0.000000,0.000000,1.000000,0.000000,0.000000,0.000000,0.000000,7.832583,5.132917,-0.681156
1649346821.436487,27350.000000,1649346821.435706,0.000000,0.000000,1.000000,0.000000,0.000000,0.000000,0.000000,7.832137,5.132533,-0.680547
1649346821.535494,27351.000000,1649346821.534006,0.000000,0.000000,1.000000,0.000000,0.000000,0.000000,0.000000,7.832817,5.132174,-0.674375
1649346821.633595,27352.000000,1649346821.632916,0.000000,0.000000,1.000000,0.000000,0.000000,0.000000,0.000000,7.833468,5.131842,-0.673355
1649346821.734852,27353.000000,1649346821.734356,0.000000,0.000000,1.000000,0.000000,0.000000,0.000000,0.000000,7.834088,5.131534,-0.678085
1649346821.835642,27354.000000,1649346821.834706,0.000000,0.000000,1.000000,0.000000,0.000000,0.000000,0.000000,7.835769,5.132340,-0.668967
1649346821.934321,27355.000000,1649346821.933821,0.000000,0.000000,1.000000,0.000000,0.000000,0.000000,0.000000,7.837356,5.133107,-0.660283
1649346822.033410,27356.000000,1649346822.032887,0.000000,0.000000,1.000000,0.000000,0.000000,0.000000,0.000000,7.838850,5.132742,-0.658479
1649346822.134963,27357.000000,1649346822.134239,0.000000,0.000000,1.000000,0.000000,0.000000,0.000000,0.000000,7.840251,5.133491,-0.656019
1649346822.233500,27358.000000,1649346822.232989,0.000000,0.000000,1.000000,0.000000,0.000000,0.000000,0.000000,7.840470,5.134199,-0.651318
1649346822.338375,27359.000000,1649346822.337374,0.000000,0.000000,1.000000,0.000000,0.000000,0.000000,0.000000,7.841753,5.134867,-0.649309
1649346822.441253,27360.000000,1649346822.439606,0.000000,0.000000,1.000000,0.000000,0.000000,0.000000,0.000000,7.841857,5.135494,-0.648271
1649346822.532842,27361.000000,1649346822.532441,0.000000,0.000000,1.000000,0.000000,0.000000,0.000000,0.000000,7.841938,5.134990,-0.653001
1649346822.633982,27362.000000,1649346822.632186,0.000000,0.000000,1.000000,0.000000,0.000000,0.000000,0.000000,7.841998,5.134510,-0.664063
1649346822.737684,27363.000000,1649346822.736273,0.000000,0.000000,1.000000,0.000000,0.000000,0.000000,0.000000,7.842039,5.134054,-0.673921
1649346822.836730,27364.000000,1649346822.835486,0.000000,0.000000,1.000000,0.000000,0.000000,0.000000,0.000000,7.840973,5.133622,-0.679379
1649346822.933734,27365.000000,1649346822.933058,0.000000,0.000000,1.000000,0.000000,0.000000,0.000000,0.000000,7.841044,5.134305,-0.678991
1649346823.034380,27366.000000,1649346823.033828,0.000000,0.000000,1.000000,0.000000,0.000000,0.000000,0.000000,7.841100,5.133859,-0.679444
1649346823.133988,27367.000000,1649346823.132561,0.000000,0.000000,1.000000,0.000000,0.000000,0.000000,0.000000,7.840054,5.133437,-0.682316
1649346823.233908,27368.000000,1649346823.233573,0.000000,0.000000,1.000000,0.000000,0.000000,0.000000,0.000000,7.840148,5.133040,-0.686697
1649346823.332938,27369.000000,1649346823.332680,0.000000,0.000000,1.000000,0.000000,0.000000,0.000000,0.000000,7.840231,5.132667,-0.688486
1649346823.435680,27370.000000,1649346823.434705,0.000000,0.000000,1.000000,0.000000,0.000000,0.000000,0.000000,7.840304,5.132317,-0.693429
