__time,/dwm1001/id_458E/pose_kf/header/seq,/dwm1001/id_458E/pose_kf/header/stamp,/dwm1001/id_458E/pose_kf/pose/orientation/pitch_deg,/dwm1001/id_458E/pose_kf/pose/orientation/roll_deg,/dwm1001/id_458E/pose_kf/pose/orientation/w,/dwm1001/id_458E/pose_kf/pose/orientation/x,/dwm1001/id_458E/pose_kf/pose/orientation/y,/dwm1001/id_458E/pose_kf/pose/orientation/yaw_deg,/dwm1001/id_458E/pose_kf/pose/orientation/z,/dwm1001/id_458E/pose_kf/pose/position/x,/dwm1001/id_458E/pose_kf/pose/position/y,/dwm1001/id_458E/pose_kf/pose/position/z
1649345144.534839,10676.000000,1649345144.533973,0.000000,0.000000,1.000000,0.000000,0.000000,0.000000,0.000000,4.437335,7.394675,0.135316
1649345144.633468,10677.000000,1649345144.633002,0.000000,0.000000,1.000000,0.000000,0.000000,0.000000,0.000000,4.441671,7.390265,0.128117
1649345144.734614,10678.000000,1649345144.733711,0.000000,0.000000,1.000000,0.000000,0.000000,0.000000,0.000000,4.446930,7.384930,0.107889
1649345144.833660,10679.000000,1649345144.833194,0.000000,0.000000,1.000000,0.000000,0.000000,0.000000,0.000000,4.445406,7.385283,0.115533
1649345144.933110,10680.000000,1649345144.932767,0.000000,0.000000,1.000000,0.000000,0.000000,0.000000,0.000000,4.446196,7.383383,0.094281
1649345145.033120,10681.000000,1649345145.032778,0.000000,0.000000,1.000000,0.000000,0.000000,0.000000,0.000000,4.450257,7.378272,0.051802
1649345145.135886,10682.000000,1649345145.134510,0.000000,0.000000,1.000000,0.000000,0.000000,0.000000,0.000000,4.457397,7.372324,-0.000480
1649345145.232702,10683.000000,1649345145.232497,0.000000,0.000000,1.000000,0.000000,0.000000,0.000000,0.000000,4.453248,7.373238,-0.012071
1649345145.332452,10684.000000,1649345145.332148,0.000000,0.000000,1.000000,0.000000,0.000000,0.000000,0.000000,4.452614,7.371914,-0.029749
1649345145.433442,10685.000000,1649345145.432875,0.000000,0.000000,1.000000,0.000000,0.000000,0.000000,0.000000,4.444400,7.376111,-0.020975
1649345145.532566,10686.000000,1649345145.532258,0.000000,0.000000,1.000000,0.000000,0.000000,0.000000,0.000000,4.442128,7.378973,-0.001344
1649345145.633801,10687.000000,1649345145.633145,0.000000,0.000000,1.000000,0.000000,0.000000,0.000000,0.000000,4.443298,7.378385,0.019000
1649345145.738192,10688.000000,1649345145.736691,0.000000,0.000000,1.000000,0.000000,0.000000,0.000000,0.000000,4.445537,7.375627,0.006932
1649345145.833051,10689.000000,1649345145.832748,0.000000,0.000000,1.000000,0.000000,0.000000,0.000000,0.000000,4.450956,7.370828,-0.028149
1649345145.937248,10690.000000,1649345145.936219,0.000000,0.000000,1.000000,0.000000,0.000000,0.000000,0.000000,4.447370,7.373928,-0.029607
1649345146.034840,10691.000000,1649345146.034366,0.000000,0.000000,1.000000,0.000000,0.000000,0.000000,0.000000,4.447274,7.373582,-0.002018
1649345146.133184,10692.000000,1649345146.132898,0.000000,0.000000,1.000000,0.000000,0.000000,0.000000,0.000000,4.450477,7.369981,-0.007888
1649345146.233309,10693.000000,1649345146.233028,0.000000,0.000000,1.000000,0.000000,0.000000,0.000000,0.000000,4.454607,7.366584,-0.028113
1649345146.332994,10694.000000,1649345146.332630,0.000000,0.000000,1.000000,0.000000,0.000000,0.000000,0.000000,4.449786,7.371023,-0.020142
1649345146.432913,10695.000000,1649345146.432592,0.000000,0.000000,1.000000,0.000000,0.000000,0.000000,0.000000,4.439788,7.380674,-0.034316
1649345146.535677,10696.000000,1649345146.534907,0.000000,0.000000,1.000000,0.000000,0.000000,0.000000,0.000000,4.435831,7.385411,-0.019717
1649345146.632756,10697.000000,1649345146.632517,0.000000,0.000000,1.000000,0.000000,0.000000,0.000000,0.000000,4.435413,7.386578,0.019247
1649345146.736435,10698.000000,1649345146.734324,0.000000,0.000000,1.000000,0.000000,0.000000,0.000000,0.000000,4.438341,7.385459,0.036367
1649345146.832511,10699.000000,1649345146.832278,0.000000,0.000000,1.000000,0.000000,0.000000,0.000000,0.000000,4.442240,7.381093,0.038952
1649345146.932686,10700.000000,1649345146.932435,0.000000,0.000000,1.000000,0.000000,0.000000,0.000000,0.000000,4.436137,7.376945,0.028394
1649345147.037102,10701.000000,1649345147.035550,0.000000,0.000000,1.000000,0.000000,0.000000,0.000000,0.000000,4.434771,7.371926,-0.006849
1649345147.134085,10702.000000,1649345147.133554,0.000000,0.000000,1.000000,0.000000,0.000000,0.000000,0.000000,4.437886,7.367190,-0.041525
1649345147.232874,10703.000000,1649345147.232677,0.000000,0.000000,1.000000,0.000000,0.000000,0.000000,0.000000,4.443044,7.361647,-0.076402
1649345147.335955,10704.000000,1649345147.334497,0.000000,0.000000,1.000000,0.000000,0.000000,0.000000,0.000000,4.447935,7.355355,-0.128349
1649345147.432325,10705.000000,1649345147.432172,0.000000,0.000000,1.000000,0.000000,0.000000,0.000000,0.000000,4.455828,7.348374,-0.190142
1649345147.534339,10706.000000,1649345147.533610,0.000000,0.000000,1.000000,0.000000,0.000000,0.000000,0.000000,4.464355,7.341849,-0.258865
1649345147.632758,10707.000000,1649345147.632597,0.000000,0.000000,1.000000,0.000000,0.000000,0.000000,0.000000,4.473456,7.335773,-0.330909
1649345147.733245,10708.000000,1649345147.732786,0.000000,0.000000,1.000000,0.000000,0.000000,0.000000,0.000000,4.481983,7.329044,-0.386677
1649345147.833391,10709.000000,1649345147.832830,0.000000,0.000000,1.000000,0.000000,0.000000,0.000000,0.000000,4.489945,7.322802,-0.447718
1649345147.933295,10710.000000,1649345147.932863,0.000000,0.000000,1.000000,0.000000,0.000000,0.000000,0.000000,4.499535,7.327939,-0.458901
1649345148.039053,10711.000000,1649345148.035470,0.000000,0.000000,1.000000,0.000000,0.000000,0.000000,0.000000,4.508460,7.329635,-0.470629
1649345148.135245,10712.000000,1649345148.134302,0.000000,0.000000,1.000000,0.000000,0.000000,0.000000,0.000000,4.516736,7.329156,-0.498209
1649345148.235217,10713.000000,1649345148.234599,0.000000,0.000000,1.000000,0.000000,0.000000,0.000000,0.000000,4.523291,7.327708,-0.526465
1649345148.338985,10714.000000,1649345148.335858,0.000000,0.000000,1.000000,0.000000,0.000000,0.000000,0.000000,4.531481,7.325341,-0.561800
1649345148.439096,10715.000000,1649345148.437476,0.000000,0.000000,1.000000,0.000000,0.000000,0.000000,0.000000,4.537929,7.322109,-0.603896
1649345148.537099,10716.000000,1649345148.535799,0.000000,0.000000,1.000000,0.000000,0.000000,0.000000,0.000000,4.543813,7.319152,-0.651631
1649345148.634582,10717.000000,1649345148.633806,0.000000,0.000000,1.000000,0.000000,0.000000,0.000000,0.000000,4.548067,7.315370,-0.692632
1649345148.733197,10718.000000,1649345148.732807,0.000000,0.000000,1.000000,0.000000,0.000000,0.000000,0.000000,4.551870,7.311904,-0.725519
1649345148.832349,10719.000000,1649345148.832083,0.000000,0.000000,1.000000,0.000000,0.000000,0.000000,0.000000,4.556336,7.307651,-0.765921
1649345148.933803,10720.000000,1649345148.933296,0.000000,0.000000,1.000000,0.000000,0.000000,0.000000,0.000000,4.549435,7.311382,-0.766728
1649345149.033732,10721.000000,1649345149.032930,0.000000,0.000000,1.000000,0.000000,0.000000,0.000000,0.000000,4.545994,7.313923,-0.781990
1649345149.132743,10722.000000,1649345149.132545,0.000000,0.000000,1.000000,0.000000,0.000000,0.000000,0.000000,4.544757,7.314233,-0.804682
1649345149.233048,10723.000000,1649345149.232742,0.000000,0.000000,1.000000,0.000000,0.000000,0.000000,0.000000,4.534714,7.321150,-0.790146
1649345149.333711,10724.000000,1649345149.333211,0.000000,0.000000,1.000000,0.000000,0.000000,0.000000,0.000000,4.519654,7.332108,-0.745587
1649345149.433527,10725.000000,1649345149.433114,0.000000,0.000000,1.000000,0.000000,0.000000,0.000000,0.000000,4.508629,7.338126,-0.677161
1649345149.536157,10726.000000,1649345149.535029,0.000000,0.000000,1.000000,0.000000,0.000000,0.000000,0.000000,4.501456,7.340542,-0.642427
1649345149.632701,10727.000000,1649345149.632475,0.000000,0.000000,1.000000,0.000000,0.000000,0.000000,0.000000,4.499041,7.340637,-0.627204
1649345149.736263,10728.000000,1649345149.733776,0.000000,0.000000,1.000000,0.000000,0.000000,0.000000,0.000000,4.488046,7.347260,-0.585587
1649345149.832819,10729.000000,1649345149.832532,0.000000,0.000000,1.000000,0.000000,0.000000,0.000000,0.000000,4.471153,7.360035,-0.568729
1649345149.934958,10730.000000,1649345149.933614,0.000000,0.000000,1.000000,0.000000,0.000000,0.000000,0.000000,4.461820,7.367684,-0.536157
1649345150.035928,10731.000000,1649345150.034873,0.000000,0.000000,1.000000,0.000000,0.000000,0.000000,0.000000,4.445482,7.379191,-0.523247
1649345150.132749,10732.000000,1649345150.132294,0.000000,0.000000,1.000000,0.000000,0.000000,0.000000,0.000000,4.436742,7.384499,-0.481657
1649345150.234080,10733.000000,1649345150.233268,0.000000,0.000000,1.000000,0.000000,0.000000,0.000000,0.000000,4.434112,7.387208,-0.417459
1649345150.337149,10734.000000,1649345150.333773,0.000000,0.000000,1.000000,0.000000,0.000000,0.000000,0.000000,4.435077,7.386368,-0.367968
1649345150.433407,10735.000000,1649345150.433009,0.000000,0.000000,1.000000,0.000000,0.000000,0.000000,0.000000,4.438338,7.383273,-0.351221
1649345150.533247,10736.000000,1649345150.532946,0.000000,0.000000,1.000000,0.000000,0.000000,0.000000,0.000000,4.443748,7.378062,-0.359472
1649345150.636880,10737.000000,1649345150.636242,0.000000,0.000000,1.000000,0.000000,0.000000,0.000000,0.000000,4.439173,7.379596,-0.334436
1649345150.736197,10738.000000,1649345150.734434,0.000000,0.000000,1.000000,0.000000,0.000000,0.000000,0.000000,4.439337,7.377695,-0.336362
1649345150.832727,10739.000000,1649345150.832414,0.000000,0.000000,1.000000,0.000000,0.000000,0.000000,0.000000,4.442884,7.373646,-0.339962
1649345150.939430,10740.000000,1649345150.938665,0.000000,0.000000,1.000000,0.000000,0.000000,0.000000,0.000000,4.447432,7.369763,-0.362092
1649345151.032557,10741.000000,1649345151.032366,0.000000,0.000000,1.000000,0.000000,0.000000,0.000000,0.000000,4.443091,7.372597,-0.353574
1649345151.138816,10742.000000,1649345151.134083,0.000000,0.000000,1.000000,0.000000,0.000000,0.000000,0.000000,4.432536,7.380682,-0.322106
1649345151.234445,10743.000000,1649345151.233691,0.000000,0.000000,1.000000,0.000000,0.000000,0.000000,0.000000,4.427037,7.384988,-0.265437
1649345151.335093,10744.000000,1649345151.333321,0.000000,0.000000,1.000000,0.000000,0.000000,0.000000,0.000000,4.426329,7.385711,-0.191124
1649345151.432556,10745.000000,1649345151.432242,0.000000,0.000000,1.000000,0.000000,0.000000,0.000000,0.000000,4.430146,7.384138,-0.155641
1649345151.534709,10746.000000,1649345151.534146,0.000000,0.000000,1.000000,0.000000,0.000000,0.000000,0.000000,4.425137,7.388037,-0.108273
1649345151.634526,10747.000000,1649345151.633896,0.000000,0.000000,1.000000,0.000000,0.000000,0.000000,0.000000,4.415064,7.397101,-0.089080
1649345151.734007,10748.000000,1649345151.733566,0.000000,0.000000,1.000000,0.000000,0.000000,0.000000,0.000000,4.410042,7.402301,-0.058229
1649345151.833950,10749.000000,1649345151.833302,0.000000,0.000000,1.000000,0.000000,0.000000,0.000000,0.000000,4.408713,7.402747,-0.030740
1649345151.938869,10750.000000,1649345151.938386,0.000000,0.000000,1.000000,0.000000,0.000000,0.000000,0.000000,4.401057,7.408516,0.014466
1649345152.038293,10751.000000,1649345152.037442,0.000000,0.000000,1.000000,0.000000,0.000000,0.000000,0.000000,4.398339,7.410583,0.059686
1649345152.135343,10752.000000,1649345152.134754,0.000000,0.000000,1.000000,0.000000,0.000000,0.000000,0.000000,4.398108,7.409150,0.095994
1649345152.232574,10753.000000,1649345152.232300,0.000000,0.000000,1.000000,0.000000,0.000000,0.000000,0.000000,4.401312,7.405508,0.096296
1649345152.332601,10754.000000,1649345152.332252,0.000000,0.000000,1.000000,0.000000,0.000000,0.000000,0.000000,4.406653,7.400887,0.070943
1649345152.434830,10755.000000,1649345152.434308,0.000000,0.000000,1.000000,0.000000,0.000000,0.000000,0.000000,4.412901,7.394269,0.037166
1649345152.539343,10756.000000,1649345152.537455,0.000000,0.000000,1.000000,0.000000,0.000000,0.000000,0.000000,4.410167,7.394511,0.038130
1649345152.634697,10757.000000,1649345152.633862,0.000000,0.000000,1.000000,0.000000,0.000000,0.000000,0.000000,4.413119,7.391426,0.020033
1649345152.734642,10758.000000,1649345152.733810,0.000000,0.000000,1.000000,0.000000,0.000000,0.000000,0.000000,4.419253,7.386300,-0.017919
1649345152.832537,10759.000000,1649345152.832339,0.000000,0.000000,1.000000,0.000000,0.000000,0.000000,0.000000,4.426190,7.379260,-0.053068
1649345152.940984,10760.000000,1649345152.939081,0.000000,0.000000,1.000000,0.000000,0.000000,0.000000,0.000000,4.433863,7.372615,-0.102390
1649345153.033158,10761.000000,1649345153.032431,0.000000,0.000000,1.000000,0.000000,0.000000,0.000000,0.000000,4.442205,7.365273,-0.142638
1649345153.132765,10762.000000,1649345153.132455,0.000000,0.000000,1.000000,0.000000,0.000000,0.000000,0.000000,4.452246,7.358384,-0.193457
1649345153.235546,10763.000000,1649345153.234316,0.000000,0.000000,1.000000,0.000000,0.000000,0.000000,0.000000,4.462771,7.350851,-0.252717
1649345153.333675,10764.000000,1649345153.333026,0.000000,0.000000,1.000000,0.000000,0.000000,0.000000,0.000000,4.472635,7.343819,-0.316753
1649345153.438568,10765.000000,1649345153.434721,0.000000,0.000000,1.000000,0.000000,0.000000,0.000000,0.000000,4.480756,7.337279,-0.370750
1649345153.533268,10766.000000,1649345153.532634,0.000000,0.000000,1.000000,0.000000,0.000000,0.000000,0.000000,4.478489,7.337759,-0.384385
1649345153.636493,10767.000000,1649345153.634185,0.000000,0.000000,1.000000,0.000000,0.000000,0.000000,0.000000,4.480588,7.336146,-0.395564
1649345153.735528,10768.000000,1649345153.734742,0.000000,0.000000,1.000000,0.000000,0.000000,0.000000,0.000000,4.486816,7.332553,-0.423734
1649345153.833859,10769.000000,1649345153.833493,0.000000,0.000000,1.000000,0.000000,0.000000,0.000000,0.000000,4.483850,7.336905,-0.414950
1649345153.932832,10770.000000,1649345153.932514,0.000000,0.000000,1.000000,0.000000,0.000000,0.000000,0.000000,4.474390,7.346568,-0.379599
1649345154.034583,10771.000000,1649345154.034102,0.000000,0.000000,1.000000,0.000000,0.000000,0.000000,0.000000,4.469729,7.352495,-0.320440
1649345154.132887,10772.000000,1649345154.132634,0.000000,0.000000,1.000000,0.000000,0.000000,0.000000,0.000000,4.469625,7.354866,-0.246606
1649345154.233887,10773.000000,1649345154.233274,0.000000,0.000000,1.000000,0.000000,0.000000,0.000000,0.000000,4.471652,7.353866,-0.216078
1649345154.332964,10774.000000,1649345154.332574,0.000000,0.000000,1.000000,0.000000,0.000000,0.000000,0.000000,4.474601,7.350769,-0.214257
1649345154.438417,10775.000000,1649345154.437856,0.000000,0.000000,1.000000,0.000000,0.000000,0.000000,0.000000,4.479506,7.346789,-0.210957
1649345154.534736,10776.000000,1649345154.534135,0.000000,0.000000,1.000000,0.000000,0.000000,0.000000,0.000000,4.475346,7.349617,-0.180432
1649345154.632535,10777.000000,1649345154.632214,0.000000,0.000000,1.000000,0.000000,0.000000,0.000000,0.000000,4.474624,7.349057,-0.162538
1649345154.733536,10778.000000,1649345154.733138,0.000000,0.000000,1.000000,0.000000,0.000000,0.000000,0.000000,4.466257,7.355106,-0.126148
1649345154.833174,10779.000000,1649345154.832736,0.000000,0.000000,1.000000,0.000000,0.000000,0.000000,0.000000,4.460503,7.357569,-0.070450
1649345154.934984,10780.000000,1649345154.934175,0.000000,0.000000,1.000000,0.000000,0.000000,0.000000,0.000000,4.449606,7.364267,-0.001953
1649345155.032805,10781.000000,1649345155.032488,0.000000,0.000000,1.000000,0.000000,0.000000,0.000000,0.000000,4.444786,7.367314,0.060173
1649345155.134349,10782.000000,1649345155.133320,0.000000,0.000000,1.000000,0.000000,0.000000,0.000000,0.000000,4.445724,7.365810,0.100775
1649345155.233193,10783.000000,1649345155.232846,0.000000,0.000000,1.000000,0.000000,0.000000,0.000000,0.000000,4.449922,7.361099,0.105347
1649345155.333619,10784.000000,1649345155.333309,0.000000,0.000000,1.000000,0.000000,0.000000,0.000000,0.000000,4.457184,7.355553,0.099549
1649345155.433373,10785.000000,1649345155.433158,0.000000,0.000000,1.000000,0.000000,0.000000,0.000000,0.000000,4.464050,7.350325,0.089477
1649345155.533132,10786.000000,1649345155.532676,0.000000,0.000000,1.000000,0.000000,0.000000,0.000000,0.000000,4.470520,7.344323,0.080984
1649345155.633661,10787.000000,1649345155.633264,0.000000,0.000000,1.000000,0.000000,0.000000,0.000000,0.000000,4.477686,7.339786,0.050652
1649345155.733763,10788.000000,1649345155.733384,0.000000,0.000000,1.000000,0.000000,0.000000,0.000000,0.000000,4.486580,7.333377,0.005076
1649345155.834574,10789.000000,1649345155.833583,0.000000,0.000000,1.000000,0.000000,0.000000,0.000000,0.000000,4.485091,7.335026,-0.009071
1649345155.934162,10790.000000,1649345155.933546,0.000000,0.000000,1.000000,0.000000,0.000000,0.000000,0.000000,4.485786,7.334471,-0.043827
1649345156.033674,10791.000000,1649345156.033343,0.000000,0.000000,1.000000,0.000000,0.000000,0.000000,0.000000,4.487460,7.334012,-0.078134
1649345156.138881,10792.000000,1649345156.137060,0.000000,0.000000,1.000000,0.000000,0.000000,0.000000,0.000000,4.490057,7.332550,-0.114364
1649345156.235209,10793.000000,1649345156.234058,0.000000,0.000000,1.000000,0.000000,0.000000,0.000000,0.000000,4.492434,7.330141,-0.145116
1649345156.332965,10794.000000,1649345156.332744,0.000000,0.000000,1.000000,0.000000,0.000000,0.000000,0.000000,4.485877,7.333383,-0.138301
1649345156.434297,10795.000000,1649345156.433918,0.000000,0.000000,1.000000,0.000000,0.000000,0.000000,0.000000,4.473077,7.341954,-0.107543
1649345156.536108,10796.000000,1649345156.535397,0.000000,0.000000,1.000000,0.000000,0.000000,0.000000,0.000000,4.465323,7.346810,-0.056279
1649345156.634915,10797.000000,1649345156.634412,0.000000,0.000000,1.000000,0.000000,0.000000,0.000000,0.000000,4.462365,7.349227,-0.028969
1649345156.735104,10798.000000,1649345156.733979,0.000000,0.000000,1.000000,0.000000,0.000000,0.000000,0.000000,4.451956,7.356964,0.016438
1649345156.836550,10799.000000,1649345156.835298,0.000000,0.000000,1.000000,0.000000,0.000000,0.000000,0.000000,4.447619,7.362073,0.075918
1649345156.936692,10800.000000,1649345156.935287,0.000000,0.000000,1.000000,0.000000,0.000000,0.000000,0.000000,4.447942,7.363593,0.143974
1649345157.033850,10801.000000,1649345157.033160,0.000000,0.000000,1.000000,0.000000,0.000000,0.000000,0.000000,4.440673,7.371529,0.211285
1649345157.136964,10802.000000,1649345157.135762,0.000000,0.000000,1.000000,0.000000,0.000000,0.000000,0.000000,4.439329,7.375697,0.283433
1649345157.232652,10803.000000,1649345157.232446,0.000000,0.000000,1.000000,0.000000,0.000000,0.000000,0.000000,4.440317,7.377382,0.357700
1649345157.333150,10804.000000,1649345157.332698,0.000000,0.000000,1.000000,0.000000,0.000000,0.000000,0.000000,4.444593,7.376720,0.403258
1649345157.432708,10805.000000,1649345157.432276,0.000000,0.000000,1.000000,0.000000,0.000000,0.000000,0.000000,4.449778,7.373843,0.404279
1649345157.533409,10806.000000,1649345157.533021,0.000000,0.000000,1.000000,0.000000,0.000000,0.000000,0.000000,4.455804,7.369977,0.390816
1649345157.637258,10807.000000,1649345157.634985,0.000000,0.000000,1.000000,0.000000,0.000000,0.000000,0.000000,4.461515,7.365191,0.349796
1649345157.733050,10808.000000,1649345157.732754,0.000000,0.000000,1.000000,0.000000,0.000000,0.000000,0.000000,4.458184,7.366094,0.338879
1649345157.836430,10809.000000,1649345157.835120,0.000000,0.000000,1.000000,0.000000,0.000000,0.000000,0.000000,4.448497,7.373465,0.345606
1649345157.932988,10810.000000,1649345157.932611,0.000000,0.000000,1.000000,0.000000,0.000000,0.000000,0.000000,4.444825,7.377118,0.359598
1649345158.034590,10811.000000,1649345158.033683,0.000000,0.000000,1.000000,0.000000,0.000000,0.000000,0.000000,4.443577,7.378335,0.381369
1649345158.133364,10812.000000,1649345158.132973,0.000000,0.000000,1.000000,0.000000,0.000000,0.000000,0.000000,4.445714,7.377249,0.366234
1649345158.233846,10813.000000,1649345158.233255,0.000000,0.000000,1.000000,0.000000,0.000000,0.000000,0.000000,4.448861,7.373992,0.346375
1649345158.332762,10814.000000,1649345158.332301,0.000000,0.000000,1.000000,0.000000,0.000000,0.000000,0.000000,4.443138,7.378510,0.348649
1649345158.432814,10815.000000,1649345158.432441,0.000000,0.000000,1.000000,0.000000,0.000000,0.000000,0.000000,4.443220,7.379461,0.368148
1649345158.536202,10816.000000,1649345158.533314,0.000000,0.000000,1.000000,0.000000,0.000000,0.000000,0.000000,4.446606,7.377041,0.371904
1649345158.632804,10817.000000,1649345158.632434,0.000000,0.000000,1.000000,0.000000,0.000000,0.000000,0.000000,4.441110,7.381258,0.392821
1649345158.733937,10818.000000,1649345158.733376,0.000000,0.000000,1.000000,0.000000,0.000000,0.000000,0.000000,4.440317,7.381924,0.428577
1649345158.832264,10819.000000,1649345158.832104,0.000000,0.000000,1.000000,0.000000,0.000000,0.000000,0.000000,4.442879,7.379234,0.422081
1649345158.933989,10820.000000,1649345158.933546,0.000000,0.000000,1.000000,0.000000,0.000000,0.000000,0.000000,4.447513,7.375563,0.384745
1649345159.036721,10821.000000,1649345159.036126,0.000000,0.000000,1.000000,0.000000,0.000000,0.000000,0.000000,4.454090,7.369888,0.346926
1649345159.136302,10822.000000,1649345159.135658,0.000000,0.000000,1.000000,0.000000,0.000000,0.000000,0.000000,4.451578,7.371060,0.337757
1649345159.235012,10823.000000,1649345159.233546,0.000000,0.000000,1.000000,0.000000,0.000000,0.000000,0.000000,4.453566,7.368889,0.299658
1649345159.333281,10824.000000,1649345159.332999,0.000000,0.000000,1.000000,0.000000,0.000000,0.000000,0.000000,4.458712,7.364656,0.240323
1649345159.433790,10825.000000,1649345159.433241,0.000000,0.000000,1.000000,0.000000,0.000000,0.000000,0.000000,4.465737,7.358485,0.167168
1649345159.532840,10826.000000,1649345159.532490,0.000000,0.000000,1.000000,0.000000,0.000000,0.000000,0.000000,4.473429,7.351592,0.088943
1649345159.634329,10827.000000,1649345159.633350,0.000000,0.000000,1.000000,0.000000,0.000000,0.000000,0.000000,4.480637,7.344035,0.027756
1649345159.734166,10828.000000,1649345159.733486,0.000000,0.000000,1.000000,0.000000,0.000000,0.000000,0.000000,4.487370,7.334781,-0.043595
1649345159.835712,10829.000000,1649345159.834078,0.000000,0.000000,1.000000,0.000000,0.000000,0.000000,0.000000,4.494728,7.327219,-0.120560
1649345159.933394,10830.000000,1649345159.932881,0.000000,0.000000,1.000000,0.000000,0.000000,0.000000,0.000000,4.500478,7.321275,-0.201184
1649345160.039491,10831.000000,1649345160.037028,0.000000,0.000000,1.000000,0.000000,0.000000,0.000000,0.000000,4.505787,7.315782,-0.286011
1649345160.133253,10832.000000,1649345160.132998,0.000000,0.000000,1.000000,0.000000,0.000000,0.000000,0.000000,4.510669,7.310726,-0.369915
1649345160.234640,10833.000000,1649345160.233653,0.000000,0.000000,1.000000,0.000000,0.000000,0.000000,0.000000,4.515140,7.306091,-0.453627
1649345160.332983,10834.000000,1649345160.332591,0.000000,0.000000,1.000000,0.000000,0.000000,0.000000,0.000000,4.520308,7.301860,-0.521726
1649345160.435465,10835.000000,1649345160.434582,0.000000,0.000000,1.000000,0.000000,0.000000,0.000000,0.000000,4.514133,7.305648,-0.540895
1649345160.537313,10836.000000,1649345160.535908,0.000000,0.000000,1.000000,0.000000,0.000000,0.000000,0.000000,4.510345,7.307185,-0.576020
1649345160.635918,10837.000000,1649345160.634876,0.000000,0.000000,1.000000,0.000000,0.000000,0.000000,0.000000,4.509924,7.306580,-0.600634
1649345160.732700,10838.000000,1649345160.732336,0.000000,0.000000,1.000000,0.000000,0.000000,0.000000,0.000000,4.510514,7.306125,-0.619194
1649345160.832947,10839.000000,1649345160.832667,0.000000,0.000000,1.000000,0.000000,0.000000,0.000000,0.000000,4.502251,7.312349,-0.600505
1649345160.933146,10840.000000,1649345160.932814,0.000000,0.000000,1.000000,0.000000,0.000000,0.000000,0.000000,4.498733,7.316140,-0.605821
1649345161.036618,10841.000000,1649345161.034675,0.000000,0.000000,1.000000,0.000000,0.000000,0.000000,0.000000,4.497535,7.318703,-0.628558
1649345161.134458,10842.000000,1649345161.134042,0.000000,0.000000,1.000000,0.000000,0.000000,0.000000,0.000000,4.499629,7.319002,-0.647048
1649345161.235866,10843.000000,1649345161.234308,0.000000,0.000000,1.000000,0.000000,0.000000,0.000000,0.000000,4.501559,7.318248,-0.667112
1649345161.333777,10844.000000,1649345161.333373,0.000000,0.000000,1.000000,0.000000,0.000000,0.000000,0.000000,4.505514,7.316497,-0.695951
1649345161.433297,10845.000000,1649345161.432941,0.000000,0.000000,1.000000,0.000000,0.000000,0.000000,0.000000,4.500467,7.321438,-0.680779
1649345161.537194,10846.000000,1649345161.536290,0.000000,0.000000,1.000000,0.000000,0.000000,0.000000,0.000000,4.488021,7.331598,-0.639564
1649345161.636071,10847.000000,1649345161.635514,0.000000,0.000000,1.000000,0.000000,0.000000,0.000000,0.000000,4.479524,7.337935,-0.587170
1649345161.735658,10848.000000,1649345161.734934,0.000000,0.000000,1.000000,0.000000,0.000000,0.000000,0.000000,4.474786,7.341728,-0.554007
1649345161.833548,10849.000000,1649345161.833082,0.000000,0.000000,1.000000,0.000000,0.000000,0.000000,0.000000,4.471437,7.344195,-0.548254
1649345161.935411,10850.000000,1649345161.933939,0.000000,0.000000,1.000000,0.000000,0.000000,0.000000,0.000000,4.470499,7.343221,-0.547870
1649345162.034661,10851.000000,1649345162.034010,0.000000,0.000000,1.000000,0.000000,0.000000,0.000000,0.000000,4.472931,7.341180,-0.566371
1649345162.137036,10852.000000,1649345162.135749,0.000000,0.000000,1.000000,0.000000,0.000000,0.000000,0.000000,4.476358,7.339228,-0.597339
1649345162.232556,10853.000000,1649345162.232331,0.000000,0.000000,1.000000,0.000000,0.000000,0.000000,0.000000,4.469810,7.345001,-0.591046
1649345162.332644,10854.000000,1649345162.332254,0.000000,0.000000,1.000000,0.000000,0.000000,0.000000,0.000000,4.457121,7.354788,-0.553867
1649345162.432405,10855.000000,1649345162.432176,0.000000,0.000000,1.000000,0.000000,0.000000,0.000000,0.000000,4.449565,7.360711,-0.491967
1649345162.535509,10856.000000,1649345162.533218,0.000000,0.000000,1.000000,0.000000,0.000000,0.000000,0.000000,4.445793,7.364055,-0.432273
1649345162.634092,10857.000000,1649345162.633054,0.000000,0.000000,1.000000,0.000000,0.000000,0.000000,0.000000,4.445603,7.364953,-0.392551
1649345162.733460,10858.000000,1649345162.732976,0.000000,0.000000,1.000000,0.000000,0.000000,0.000000,0.000000,4.446615,7.364632,-0.372878
1649345162.832928,10859.000000,1649345162.832568,0.000000,0.000000,1.000000,0.000000,0.000000,0.000000,0.000000,4.450936,7.363164,-0.357966
1649345162.935330,10860.000000,1649345162.934552,0.000000,0.000000,1.000000,0.000000,0.000000,0.000000,0.000000,4.457274,7.359529,-0.350877
1649345163.033590,10861.000000,1649345163.032932,0.000000,0.000000,1.000000,0.000000,0.000000,0.000000,0.000000,4.452413,7.362584,-0.316632
1649345163.134893,10862.000000,1649345163.133509,0.000000,0.000000,1.000000,0.000000,0.000000,0.000000,0.000000,4.451148,7.363234,-0.311224
1649345163.233579,10863.000000,1649345163.233251,0.000000,0.000000,1.000000,0.000000,0.000000,0.000000,0.000000,4.453286,7.360523,-0.301240
1649345163.333146,10864.000000,1649345163.332626,0.000000,0.000000,1.000000,0.000000,0.000000,0.000000,0.000000,4.446635,7.365547,-0.266718
1649345163.434861,10865.000000,1649345163.433418,0.000000,0.000000,1.000000,0.000000,0.000000,0.000000,0.000000,4.444778,7.366969,-0.221606
1649345163.532486,10866.000000,1649345163.532233,0.000000,0.000000,1.000000,0.000000,0.000000,0.000000,0.000000,4.435460,7.373708,-0.161564
1649345163.633801,10867.000000,1649345163.633231,0.000000,0.000000,1.000000,0.000000,0.000000,0.000000,0.000000,4.433289,7.376731,-0.110674
1649345163.732542,10868.000000,1649345163.732189,0.000000,0.000000,1.000000,0.000000,0.000000,0.000000,0.000000,4.435695,7.376238,-0.075901
1649345163.833022,10869.000000,1649345163.832577,0.000000,0.000000,1.000000,0.000000,0.000000,0.000000,0.000000,4.440236,7.374605,-0.075188
1649345163.933182,10870.000000,1649345163.932848,0.000000,0.000000,1.000000,0.000000,0.000000,0.000000,0.000000,4.446775,7.370815,-0.095048
1649345164.033372,10871.000000,1649345164.033043,0.000000,0.000000,1.000000,0.000000,0.000000,0.000000,0.000000,4.444276,7.373724,-0.087830
1649345164.133563,10872.000000,1649345164.132936,0.000000,0.000000,1.000000,0.000000,0.000000,0.000000,0.000000,4.436508,7.379689,-0.053009
1649345164.236566,10873.000000,1649345164.235915,0.000000,0.000000,1.000000,0.000000,0.000000,0.000000,0.000000,4.433593,7.383077,-0.016743
1649345164.335845,10874.000000,1649345164.334194,0.000000,0.000000,1.000000,0.000000,0.000000,0.000000,0.000000,4.434181,7.382930,0.039413
1649345164.433911,10875.000000,1649345164.433260,0.000000,0.000000,1.000000,0.000000,0.000000,0.000000,0.000000,4.426082,7.388170,0.101675
1649345164.538936,10876.000000,1649345164.537730,0.000000,0.000000,1.000000,0.000000,0.000000,0.000000,0.000000,4.425055,7.389768,0.172940
1649345164.634586,10877.000000,1649345164.633994,0.000000,0.000000,1.000000,0.000000,0.000000,0.000000,0.000000,4.428533,7.389012,0.197102
1649345164.735073,10878.000000,1649345164.734433,0.000000,0.000000,1.000000,0.000000,0.000000,0.000000,0.000000,4.435164,7.384948,0.187339
1649345164.833196,10879.000000,1649345164.832957,0.000000,0.000000,1.000000,0.000000,0.000000,0.000000,0.000000,4.443660,7.378864,0.153128
1649345164.935679,10880.000000,1649345164.934308,0.000000,0.000000,1.000000,0.000000,0.000000,0.000000,0.000000,4.452801,7.370891,0.112474
1649345165.032498,10881.000000,1649345165.032298,0.000000,0.000000,1.000000,0.000000,0.000000,0.000000,0.000000,4.462521,7.362252,0.056860
1649345165.135839,10882.000000,1649345165.134510,0.000000,0.000000,1.000000,0.000000,0.000000,0.000000,0.000000,4.472760,7.354100,-0.008965
1649345165.232726,10883.000000,1649345165.232455,0.000000,0.000000,1.000000,0.000000,0.000000,0.000000,0.000000,4.482368,7.347524,-0.080432
1649345165.332797,10884.000000,1649345165.332399,0.000000,0.000000,1.000000,0.000000,0.000000,0.000000,0.000000,4.492444,7.341365,-0.155568
1649345165.438024,10885.000000,1649345165.434112,0.000000,0.000000,1.000000,0.000000,0.000000,0.000000,0.000000,4.502937,7.334528,-0.234095
1649345165.532940,10886.000000,1649345165.532611,0.000000,0.000000,1.000000,0.000000,0.000000,0.000000,0.000000,4.512708,7.328156,-0.314131
1649345165.633766,10887.000000,1649345165.633410,0.000000,0.000000,1.000000,0.000000,0.000000,0.000000,0.000000,4.521774,7.322239,-0.393067
1649345165.735938,10888.000000,1649345165.735460,0.000000,0.000000,1.000000,0.000000,0.000000,0.000000,0.000000,4.519251,7.325487,-0.425665
1649345165.838866,10889.000000,1649345165.837535,0.000000,0.000000,1.000000,0.000000,0.000000,0.000000,0.000000,4.521055,7.325390,-0.453270
1649345165.933474,10890.000000,1649345165.933081,0.000000,0.000000,1.000000,0.000000,0.000000,0.000000,0.000000,4.523683,7.324305,-0.492991
1649345166.032765,10891.000000,1649345166.032569,0.000000,0.000000,1.000000,0.000000,0.000000,0.000000,0.000000,4.527092,7.322283,-0.541068
1649345166.132991,10892.000000,1649345166.132515,0.000000,0.000000,1.000000,0.000000,0.000000,0.000000,0.000000,4.530147,7.319378,-0.583394
1649345166.236115,10893.000000,1649345166.235516,0.000000,0.000000,1.000000,0.000000,0.000000,0.000000,0.000000,4.532868,7.315640,-0.618542
1649345166.336505,10894.000000,1649345166.335814,0.000000,0.000000,1.000000,0.000000,0.000000,0.000000,0.000000,4.524371,7.319843,-0.616928
1649345166.435156,10895.000000,1649345166.434135,0.000000,0.000000,1.000000,0.000000,0.000000,0.000000,0.000000,4.520568,7.321723,-0.613936
1649345166.532528,10896.000000,1649345166.532274,0.000000,0.000000,1.000000,0.000000,0.000000,0.000000,0.000000,4.520132,7.321396,-0.609654
1649345166.633763,10897.000000,1649345166.633096,0.000000,0.000000,1.000000,0.000000,0.000000,0.000000,0.000000,4.520708,7.318977,-0.609811
1649345166.733184,10898.000000,1649345166.732726,0.000000,0.000000,1.000000,0.000000,0.000000,0.000000,0.000000,4.522244,7.315676,-0.610220
1649345166.833699,10899.000000,1649345166.833251,0.000000,0.000000,1.000000,0.000000,0.000000,0.000000,0.000000,4.513784,7.320268,-0.578636
1649345166.933685,10900.000000,1649345166.933132,0.000000,0.000000,1.000000,0.000000,0.000000,0.000000,0.000000,4.508992,7.322492,-0.553519
1649345167.033212,10901.000000,1649345167.032845,0.000000,0.000000,1.000000,0.000000,0.000000,0.000000,0.000000,4.506594,7.323556,-0.553220
1649345167.134582,10902.000000,1649345167.133768,0.000000,0.000000,1.000000,0.000000,0.000000,0.000000,0.000000,4.507561,7.322426,-0.549335
1649345167.233147,10903.000000,1649345167.232849,0.000000,0.000000,1.000000,0.000000,0.000000,0.000000,0.000000,4.509529,7.320315,-0.562193
1649345167.333858,10904.000000,1649345167.333093,0.000000,0.000000,1.000000,0.000000,0.000000,0.000000,0.000000,4.512438,7.317278,-0.584660
1649345167.432686,10905.000000,1649345167.432491,0.000000,0.000000,1.000000,0.000000,0.000000,0.000000,0.000000,4.516232,7.313373,-0.602615
1649345167.533297,10906.000000,1649345167.532527,0.000000,0.000000,1.000000,0.000000,0.000000,0.000000,0.000000,4.520851,7.309747,-0.629937
1649345167.632412,10907.000000,1649345167.632184,0.000000,0.000000,1.000000,0.000000,0.000000,0.000000,0.000000,4.526241,7.306392,-0.648476
1649345167.734075,10908.000000,1649345167.733416,0.000000,0.000000,1.000000,0.000000,0.000000,0.000000,0.000000,4.520351,7.310932,-0.626313
1649345167.835466,10909.000000,1649345167.833670,0.000000,0.000000,1.000000,0.000000,0.000000,0.000000,0.000000,4.516905,7.313106,-0.626437
1649345167.933623,10910.000000,1649345167.933434,0.000000,0.000000,1.000000,0.000000,0.000000,0.000000,0.000000,4.515783,7.311940,-0.639899
1649345168.033935,10911.000000,1649345168.033547,0.000000,0.000000,1.000000,0.000000,0.000000,0.000000,0.000000,4.514684,7.310889,-0.649220
1649345168.135726,10912.000000,1649345168.135051,0.000000,0.000000,1.000000,0.000000,0.000000,0.000000,0.000000,4.515793,7.308857,-0.672308
1649345168.233517,10913.000000,1649345168.232991,0.000000,0.000000,1.000000,0.000000,0.000000,0.000000,0.000000,4.517898,7.306991,-0.702939
1649345168.332747,10914.000000,1649345168.332511,0.000000,0.000000,1.000000,0.000000,0.000000,0.000000,0.000000,4.511127,7.312917,-0.690775
1649345168.433271,10915.000000,1649345168.433101,0.000000,0.000000,1.000000,0.000000,0.000000,0.000000,0.000000,4.507980,7.316375,-0.694030
1649345168.533940,10916.000000,1649345168.533454,0.000000,0.000000,1.000000,0.000000,0.000000,0.000000,0.000000,4.496278,7.324029,-0.657255
1649345168.635337,10917.000000,1649345168.634228,0.000000,0.000000,1.000000,0.000000,0.000000,0.000000,0.000000,4.489607,7.327993,-0.646659
1649345168.737857,10918.000000,1649345168.734752,0.000000,0.000000,1.000000,0.000000,0.000000,0.000000,0.000000,4.485532,7.329545,-0.635411
1649345168.833298,10919.000000,1649345168.832793,0.000000,0.000000,1.000000,0.000000,0.000000,0.000000,0.000000,4.474108,7.338626,-0.598566
1649345168.933497,10920.000000,1649345168.933045,0.000000,0.000000,1.000000,0.000000,0.000000,0.000000,0.000000,4.466672,7.344986,-0.533198
1649345169.034856,10921.000000,1649345169.034265,0.000000,0.000000,1.000000,0.000000,0.000000,0.000000,0.000000,4.452120,7.356387,-0.458316
1649345169.133639,10922.000000,1649345169.133185,0.000000,0.000000,1.000000,0.000000,0.000000,0.000000,0.000000,4.443964,7.363800,-0.370400
1649345169.233176,10923.000000,1649345169.232959,0.000000,0.000000,1.000000,0.000000,0.000000,0.000000,0.000000,4.439692,7.368515,-0.290283
1649345169.333367,10924.000000,1649345169.333051,0.000000,0.000000,1.000000,0.000000,0.000000,0.000000,0.000000,4.439096,7.369580,-0.237938
1649345169.434584,10925.000000,1649345169.434075,0.000000,0.000000,1.000000,0.000000,0.000000,0.000000,0.000000,4.440877,7.369377,-0.199417
1649345169.534784,10926.000000,1649345169.533966,0.000000,0.000000,1.000000,0.000000,0.000000,0.000000,0.000000,4.443801,7.367985,-0.173404
1649345169.635162,10927.000000,1649345169.633592,0.000000,0.000000,1.000000,0.000000,0.000000,0.000000,0.000000,4.447786,7.366568,-0.175547
1649345169.732926,10928.000000,1649345169.732521,0.000000,0.000000,1.000000,0.000000,0.000000,0.000000,0.000000,4.442943,7.370591,-0.145817
1649345169.839838,10929.000000,1649345169.834460,0.000000,0.000000,1.000000,0.000000,0.000000,0.000000,0.000000,4.442845,7.372116,-0.127464
1649345169.933043,10930.000000,1649345169.932564,0.000000,0.000000,1.000000,0.000000,0.000000,0.000000,0.000000,4.445047,7.371281,-0.136169
1649345170.032913,10931.000000,1649345170.032322,0.000000,0.000000,1.000000,0.000000,0.000000,0.000000,0.000000,4.448318,7.369313,-0.149838
1649345170.136598,10932.000000,1649345170.134413,0.000000,0.000000,1.000000,0.000000,0.000000,0.000000,0.000000,4.453677,7.366284,-0.156936
1649345170.233556,10933.000000,1649345170.233070,0.000000,0.000000,1.000000,0.000000,0.000000,0.000000,0.000000,4.459895,7.362267,-0.170602
1649345170.335454,10934.000000,1649345170.334423,0.000000,0.000000,1.000000,0.000000,0.000000,0.000000,0.000000,4.467995,7.357332,-0.179240
1649345170.436577,10935.000000,1649345170.435689,0.000000,0.000000,1.000000,0.000000,0.000000,0.000000,0.000000,4.475664,7.352637,-0.191894
1649345170.535847,10936.000000,1649345170.534311,0.000000,0.000000,1.000000,0.000000,0.000000,0.000000,0.000000,4.471998,7.355818,-0.172884
1649345170.634865,10937.000000,1649345170.634012,0.000000,0.000000,1.000000,0.000000,0.000000,0.000000,0.000000,4.459808,7.364256,-0.134794
1649345170.738093,10938.000000,1649345170.735852,0.000000,0.000000,1.000000,0.000000,0.000000,0.000000,0.000000,4.453770,7.368917,-0.090543
1649345170.832764,10939.000000,1649345170.832560,0.000000,0.000000,1.000000,0.000000,0.000000,0.000000,0.000000,4.452478,7.369995,-0.046890
1649345170.934592,10940.000000,1649345170.933748,0.000000,0.000000,1.000000,0.000000,0.000000,0.000000,0.000000,4.453491,7.369864,-0.039351
1649345171.032343,10941.000000,1649345171.032068,0.000000,0.000000,1.000000,0.000000,0.000000,0.000000,0.000000,4.446865,7.376228,-0.013236
1649345171.135657,10942.000000,1649345171.134632,0.000000,0.000000,1.000000,0.000000,0.000000,0.000000,0.000000,4.445028,7.378902,0.034713
1649345171.232844,10943.000000,1649345171.232505,0.000000,0.000000,1.000000,0.000000,0.000000,0.000000,0.000000,4.446630,7.379174,0.046298
1649345171.338761,10944.000000,1649345171.335016,0.000000,0.000000,1.000000,0.000000,0.000000,0.000000,0.000000,4.450386,7.376087,0.046375
1649345171.432408,10945.000000,1649345171.431907,0.000000,0.000000,1.000000,0.000000,0.000000,0.000000,0.000000,4.444169,7.380742,0.074143
1649345171.534518,10946.000000,1649345171.533487,0.000000,0.000000,1.000000,0.000000,0.000000,0.000000,0.000000,4.432899,7.390526,0.077652
1649345171.633622,10947.000000,1649345171.632985,0.000000,0.000000,1.000000,0.000000,0.000000,0.000000,0.000000,4.426698,7.396409,0.091770
1649345171.735896,10948.000000,1649345171.735110,0.000000,0.000000,1.000000,0.000000,0.000000,0.000000,0.000000,4.425304,7.399681,0.125745
1649345171.832711,10949.000000,1649345171.832362,0.000000,0.000000,1.000000,0.000000,0.000000,0.000000,0.000000,4.427362,7.400481,0.175516
1649345171.933665,10950.000000,1649345171.933175,0.000000,0.000000,1.000000,0.000000,0.000000,0.000000,0.000000,4.420678,7.406579,0.232322
1649345172.035689,10951.000000,1649345172.034667,0.000000,0.000000,1.000000,0.000000,0.000000,0.000000,0.000000,4.418829,7.407861,0.297423
1649345172.133605,10952.000000,1649345172.133138,0.000000,0.000000,1.000000,0.000000,0.000000,0.000000,0.000000,4.421550,7.406773,0.352661
1649345172.233761,10953.000000,1649345172.233136,0.000000,0.000000,1.000000,0.000000,0.000000,0.000000,0.000000,4.415494,7.411087,0.406439
1649345172.332452,10954.000000,1649345172.332126,0.000000,0.000000,1.000000,0.000000,0.000000,0.000000,0.000000,4.415326,7.411779,0.468436
1649345172.442431,10955.000000,1649345172.441061,0.000000,0.000000,1.000000,0.000000,0.000000,0.000000,0.000000,4.417450,7.409050,0.535029
1649345172.537391,10956.000000,1649345172.536047,0.000000,0.000000,1.000000,0.000000,0.000000,0.000000,0.000000,4.411914,7.410734,0.603540
1649345172.633317,10957.000000,1649345172.632885,0.000000,0.000000,1.000000,0.000000,0.000000,0.000000,0.000000,4.410052,7.408959,0.669789
1649345172.735164,10958.000000,1649345172.734293,0.000000,0.000000,1.000000,0.000000,0.000000,0.000000,0.000000,4.412755,7.402834,0.683799
1649345172.837033,10959.000000,1649345172.835968,0.000000,0.000000,1.000000,0.000000,0.000000,0.000000,0.000000,4.417578,7.395890,0.670285
1649345172.932838,10960.000000,1649345172.932346,0.000000,0.000000,1.000000,0.000000,0.000000,0.000000,0.000000,4.423295,7.387109,0.624780
1649345173.033160,10961.000000,1649345173.032709,0.000000,0.000000,1.000000,0.000000,0.000000,0.000000,0.000000,4.430927,7.378800,0.579342
1649345173.136210,10962.000000,1649345173.134009,0.000000,0.000000,1.000000,0.000000,0.000000,0.000000,0.000000,4.439251,7.369873,0.512313
1649345173.234768,10963.000000,1649345173.234224,0.000000,0.000000,1.000000,0.000000,0.000000,0.000000,0.000000,4.437300,7.369113,0.480355
1649345173.336730,10964.000000,1649345173.336062,0.000000,0.000000,1.000000,0.000000,0.000000,0.000000,0.000000,4.437633,7.366260,0.424076
1649345173.433301,10965.000000,1649345173.432762,0.000000,0.000000,1.000000,0.000000,0.000000,0.000000,0.000000,4.441216,7.361436,0.369575
1649345173.534264,10966.000000,1649345173.533219,0.000000,0.000000,1.000000,0.000000,0.000000,0.000000,0.000000,4.447860,7.354759,0.322540
1649345173.634032,10967.000000,1649345173.633526,0.000000,0.000000,1.000000,0.000000,0.000000,0.000000,0.000000,4.455199,7.348528,0.257764
1649345173.736617,10968.000000,1649345173.735746,0.000000,0.000000,1.000000,0.000000,0.000000,0.000000,0.000000,4.464263,7.341644,0.199473
1649345173.840027,10969.000000,1649345173.839149,0.000000,0.000000,1.000000,0.000000,0.000000,0.000000,0.000000,4.472752,7.334158,0.128962
1649345173.935617,10970.000000,1649345173.933864,0.000000,0.000000,1.000000,0.000000,0.000000,0.000000,0.000000,4.479585,7.327211,0.063779
1649345174.035619,10971.000000,1649345174.034049,0.000000,0.000000,1.000000,0.000000,0.000000,0.000000,0.000000,4.487018,7.320786,0.011884
1649345174.132714,10972.000000,1649345174.132378,0.000000,0.000000,1.000000,0.000000,0.000000,0.000000,0.000000,4.493911,7.314869,-0.036050
1649345174.236534,10973.000000,1649345174.235083,0.000000,0.000000,1.000000,0.000000,0.000000,0.000000,0.000000,4.500280,7.310531,-0.098660
1649345174.333863,10974.000000,1649345174.333442,0.000000,0.000000,1.000000,0.000000,0.000000,0.000000,0.000000,4.507231,7.306599,-0.151070
1649345174.432668,10975.000000,1649345174.432445,0.000000,0.000000,1.000000,0.000000,0.000000,0.000000,0.000000,4.515812,7.301964,-0.197651
1649345174.537140,10976.000000,1649345174.535207,0.000000,0.000000,1.000000,0.000000,0.000000,0.000000,0.000000,4.523735,7.297760,-0.254708
1649345174.632602,10977.000000,1649345174.632362,0.000000,0.000000,1.000000,0.000000,0.000000,0.000000,0.000000,4.529932,7.293965,-0.303198
1649345174.733634,10978.000000,1649345174.733092,0.000000,0.000000,1.000000,0.000000,0.000000,0.000000,0.000000,4.535579,7.290559,-0.361958
1649345174.833150,10979.000000,1649345174.832877,0.000000,0.000000,1.000000,0.000000,0.000000,0.000000,0.000000,4.540702,7.287520,-0.403084
1649345174.933040,10980.000000,1649345174.932667,0.000000,0.000000,1.000000,0.000000,0.000000,0.000000,0.000000,4.536601,7.292462,-0.407893
1649345175.033412,10981.000000,1649345175.032650,0.000000,0.000000,1.000000,0.000000,0.000000,0.000000,0.000000,4.534709,7.296199,-0.433519
1649345175.133401,10982.000000,1649345175.133142,0.000000,0.000000,1.000000,0.000000,0.000000,0.000000,0.000000,4.533833,7.297686,-0.458951
1649345175.235295,10983.000000,1649345175.234137,0.000000,0.000000,1.000000,0.000000,0.000000,0.000000,0.000000,4.535020,7.298124,-0.475315
1649345175.335058,10984.000000,1649345175.334558,0.000000,0.000000,1.000000,0.000000,0.000000,0.000000,0.000000,4.535982,7.297562,-0.488626
1649345175.433264,10985.000000,1649345175.432913,0.000000,0.000000,1.000000,0.000000,0.000000,0.000000,0.000000,4.538921,7.296049,-0.497406
1649345175.535310,10986.000000,1649345175.533761,0.000000,0.000000,1.000000,0.000000,0.000000,0.000000,0.000000,4.541545,7.294726,-0.521208
1649345175.635059,10987.000000,1649345175.633946,0.000000,0.000000,1.000000,0.000000,0.000000,0.000000,0.000000,4.535151,7.300122,-0.507806
1649345175.737647,10988.000000,1649345175.736280,0.000000,0.000000,1.000000,0.000000,0.000000,0.000000,0.000000,4.533342,7.303126,-0.516819
1649345175.834158,10989.000000,1649345175.833734,0.000000,0.000000,1.000000,0.000000,0.000000,0.000000,0.000000,4.522798,7.312577,-0.498164
1649345175.935778,10990.000000,1649345175.933662,0.000000,0.000000,1.000000,0.000000,0.000000,0.000000,0.000000,4.514937,7.319367,-0.465920
1649345176.032840,10991.000000,1649345176.032436,0.000000,0.000000,1.000000,0.000000,0.000000,0.000000,0.000000,4.509643,7.323617,-0.444103
1649345176.133732,10992.000000,1649345176.133141,0.000000,0.000000,1.000000,0.000000,0.000000,0.000000,0.000000,4.507885,7.324362,-0.449288
1649345176.237427,10993.000000,1649345176.235858,0.000000,0.000000,1.000000,0.000000,0.000000,0.000000,0.000000,4.508387,7.323970,-0.451367
1649345176.336752,10994.000000,1649345176.334851,0.000000,0.000000,1.000000,0.000000,0.000000,0.000000,0.000000,4.508844,7.322506,-0.455321
1649345176.434556,10995.000000,1649345176.434004,0.000000,0.000000,1.000000,0.000000,0.000000,0.000000,0.000000,4.511439,7.318942,-0.476408
1649345176.535368,10996.000000,1649345176.534155,0.000000,0.000000,1.000000,0.000000,0.000000,0.000000,0.000000,4.514959,7.315584,-0.486502
1649345176.633753,10997.000000,1649345176.633194,0.000000,0.000000,1.000000,0.000000,0.000000,0.000000,0.000000,4.518252,7.312432,-0.489275
1649345176.732627,10998.000000,1649345176.732283,0.000000,0.000000,1.000000,0.000000,0.000000,0.000000,0.000000,4.510419,7.317115,-0.461649
1649345176.837102,10999.000000,1649345176.833919,0.000000,0.000000,1.000000,0.000000,0.000000,0.000000,0.000000,4.506269,7.318286,-0.460560
1649345176.932916,11000.000000,1649345176.932566,0.000000,0.000000,1.000000,0.000000,0.000000,0.000000,0.000000,4.494710,7.325945,-0.433343
1649345177.035307,11001.000000,1649345177.034079,0.000000,0.000000,1.000000,0.000000,0.000000,0.000000,0.000000,4.488177,7.329901,-0.434340
1649345177.132481,11002.000000,1649345177.132282,0.000000,0.000000,1.000000,0.000000,0.000000,0.000000,0.000000,4.486414,7.331434,-0.451940
1649345177.238103,11003.000000,1649345177.235691,0.000000,0.000000,1.000000,0.000000,0.000000,0.000000,0.000000,4.488075,7.330674,-0.484650
1649345177.332954,11004.000000,1649345177.332686,0.000000,0.000000,1.000000,0.000000,0.000000,0.000000,0.000000,4.491873,7.328838,-0.525367
1649345177.432713,11005.000000,1649345177.432395,0.000000,0.000000,1.000000,0.000000,0.000000,0.000000,0.000000,4.494407,7.327085,-0.564842
1649345177.535908,11006.000000,1649345177.535093,0.000000,0.000000,1.000000,0.000000,0.000000,0.000000,0.000000,4.497916,7.325414,-0.594206
1649345177.633170,11007.000000,1649345177.632809,0.000000,0.000000,1.000000,0.000000,0.000000,0.000000,0.000000,4.501244,7.323830,-0.612222
1649345177.733958,11008.000000,1649345177.733247,0.000000,0.000000,1.000000,0.000000,0.000000,0.000000,0.000000,4.494577,7.327782,-0.587885
1649345177.833899,11009.000000,1649345177.833591,0.000000,0.000000,1.000000,0.000000,0.000000,0.000000,0.000000,4.491564,7.330416,-0.577805
1649345177.934039,11010.000000,1649345177.933527,0.000000,0.000000,1.000000,0.000000,0.000000,0.000000,0.000000,4.481112,7.338339,-0.535473
1649345178.036061,11011.000000,1649345178.034967,0.000000,0.000000,1.000000,0.000000,0.000000,0.000000,0.000000,4.475650,7.343604,-0.468729
1649345178.132656,11012.000000,1649345178.132417,0.000000,0.000000,1.000000,0.000000,0.000000,0.000000,0.000000,4.462927,7.353976,-0.387556
1649345178.234596,11013.000000,1649345178.233720,0.000000,0.000000,1.000000,0.000000,0.000000,0.000000,0.000000,4.455368,7.359335,-0.311227
1649345178.336853,11014.000000,1649345178.335140,0.000000,0.000000,1.000000,0.000000,0.000000,0.000000,0.000000,4.452709,7.361030,-0.275971
1649345178.436915,11015.000000,1649345178.434675,0.000000,0.000000,1.000000,0.000000,0.000000,0.000000,0.000000,4.452504,7.360354,-0.271315
1649345178.532811,11016.000000,1649345178.532449,0.000000,0.000000,1.000000,0.000000,0.000000,0.000000,0.000000,4.455702,7.358533,-0.264577
1649345178.635061,11017.000000,1649345178.633949,0.000000,0.000000,1.000000,0.000000,0.000000,0.000000,0.000000,4.461012,7.354550,-0.260685
1649345178.733272,11018.000000,1649345178.732953,0.000000,0.000000,1.000000,0.000000,0.000000,0.000000,0.000000,4.467204,7.349631,-0.255491
1649345178.836368,11019.000000,1649345178.835770,0.000000,0.000000,1.000000,0.000000,0.000000,0.000000,0.000000,4.462212,7.352568,-0.222438
1649345178.933257,11020.000000,1649345178.932810,0.000000,0.000000,1.000000,0.000000,0.000000,0.000000,0.000000,4.449929,7.360747,-0.173182
1649345179.034127,11021.000000,1649345179.033057,0.000000,0.000000,1.000000,0.000000,0.000000,0.000000,0.000000,4.443871,7.365136,-0.106837
1649345179.133151,11022.000000,1649345179.132690,0.000000,0.000000,1.000000,0.000000,0.000000,0.000000,0.000000,4.442622,7.365931,-0.061290
1649345179.233290,11023.000000,1649345179.232576,0.000000,0.000000,1.000000,0.000000,0.000000,0.000000,0.000000,4.443737,7.365512,-0.036570
1649345179.333844,11024.000000,1649345179.333421,0.000000,0.000000,1.000000,0.000000,0.000000,0.000000,0.000000,4.436172,7.370493,0.006848
1649345179.433584,11025.000000,1649345179.432686,0.000000,0.000000,1.000000,0.000000,0.000000,0.000000,0.000000,4.432413,7.372936,0.056867
1649345179.532836,11026.000000,1649345179.532574,0.000000,0.000000,1.000000,0.000000,0.000000,0.000000,0.000000,4.434437,7.372976,0.070415
1649345179.636158,11027.000000,1649345179.635484,0.000000,0.000000,1.000000,0.000000,0.000000,0.000000,0.000000,4.437555,7.371840,0.056223
1649345179.732525,11028.000000,1649345179.732156,0.000000,0.000000,1.000000,0.000000,0.000000,0.000000,0.000000,4.442781,7.368509,0.022714
1649345179.832579,11029.000000,1649345179.832307,0.000000,0.000000,1.000000,0.000000,0.000000,0.000000,0.000000,4.448887,7.363119,-0.012318
1649345179.933741,11030.000000,1649345179.933222,0.000000,0.000000,1.000000,0.000000,0.000000,0.000000,0.000000,4.456893,7.356891,-0.062442
1649345180.032328,11031.000000,1649345180.032166,0.000000,0.000000,1.000000,0.000000,0.000000,0.000000,0.000000,4.454673,7.358618,-0.072918
1649345180.132253,11032.000000,1649345180.132097,0.000000,0.000000,1.000000,0.000000,0.000000,0.000000,0.000000,4.455873,7.358047,-0.084023
1649345180.232339,11033.000000,1649345180.232061,0.000000,0.000000,1.000000,0.000000,0.000000,0.000000,0.000000,4.449399,7.364029,-0.067478
1649345180.332614,11034.000000,1649345180.332236,0.000000,0.000000,1.000000,0.000000,0.000000,0.000000,0.000000,4.446591,7.367468,-0.046190
1649345180.434561,11035.000000,1649345180.433816,0.000000,0.000000,1.000000,0.000000,0.000000,0.000000,0.000000,4.448346,7.366313,-0.040537
1649345180.535400,11036.000000,1649345180.534748,0.000000,0.000000,1.000000,0.000000,0.000000,0.000000,0.000000,4.451137,7.364090,-0.041018
1649345180.635165,11037.000000,1649345180.634043,0.000000,0.000000,1.000000,0.000000,0.000000,0.000000,0.000000,4.455986,7.359777,-0.065921
1649345180.733238,11038.000000,1649345180.732554,0.000000,0.000000,1.000000,0.000000,0.000000,0.000000,0.000000,4.462763,7.354594,-0.104532
1649345180.835107,11039.000000,1649345180.833611,0.000000,0.000000,1.000000,0.000000,0.000000,0.000000,0.000000,4.471343,7.348605,-0.138484
1649345180.934108,11040.000000,1649345180.933652,0.000000,0.000000,1.000000,0.000000,0.000000,0.000000,0.000000,4.480510,7.341873,-0.172739
1649345181.036634,11041.000000,1649345181.035097,0.000000,0.000000,1.000000,0.000000,0.000000,0.000000,0.000000,4.478210,7.343181,-0.169321
1649345181.133021,11042.000000,1649345181.132515,0.000000,0.000000,1.000000,0.000000,0.000000,0.000000,0.000000,4.479255,7.342272,-0.187821
1649345181.233442,11043.000000,1649345181.233116,0.000000,0.000000,1.000000,0.000000,0.000000,0.000000,0.000000,4.482371,7.339266,-0.199902
1649345181.333948,11044.000000,1649345181.333428,0.000000,0.000000,1.000000,0.000000,0.000000,0.000000,0.000000,4.475445,7.343010,-0.182418
1649345181.433484,11045.000000,1649345181.432826,0.000000,0.000000,1.000000,0.000000,0.000000,0.000000,0.000000,4.474315,7.344397,-0.190624
1649345181.532803,11046.000000,1649345181.532501,0.000000,0.000000,1.000000,0.000000,0.000000,0.000000,0.000000,4.474308,7.344641,-0.218633
1649345181.635128,11047.000000,1649345181.634534,0.000000,0.000000,1.000000,0.000000,0.000000,0.000000,0.000000,4.476455,7.343801,-0.239793
1649345181.734538,11048.000000,1649345181.733778,0.000000,0.000000,1.000000,0.000000,0.000000,0.000000,0.000000,4.481725,7.340849,-0.277735
1649345181.832589,11049.000000,1649345181.832310,0.000000,0.000000,1.000000,0.000000,0.000000,0.000000,0.000000,4.475757,7.345719,-0.279303
1649345181.932379,11050.000000,1649345181.932187,0.000000,0.000000,1.000000,0.000000,0.000000,0.000000,0.000000,4.474450,7.347067,-0.292742
1649345182.033791,11051.000000,1649345182.033305,0.000000,0.000000,1.000000,0.000000,0.000000,0.000000,0.000000,4.475376,7.346168,-0.323204
1649345182.134802,11052.000000,1649345182.133795,0.000000,0.000000,1.000000,0.000000,0.000000,0.000000,0.000000,4.477320,7.343147,-0.365924
1649345182.232859,11053.000000,1649345182.232528,0.000000,0.000000,1.000000,0.000000,0.000000,0.000000,0.000000,4.482403,7.339220,-0.418734
1649345182.335776,11054.000000,1649345182.334587,0.000000,0.000000,1.000000,0.000000,0.000000,0.000000,0.000000,4.487169,7.335537,-0.468245
1649345182.432633,11055.000000,1649345182.432291,0.000000,0.000000,1.000000,0.000000,0.000000,0.000000,0.000000,4.493802,7.332095,-0.506458
1649345182.532670,11056.000000,1649345182.532351,0.000000,0.000000,1.000000,0.000000,0.000000,0.000000,0.000000,4.500003,7.327799,-0.532975
1649345182.633781,11057.000000,1649345182.633263,0.000000,0.000000,1.000000,0.000000,0.000000,0.000000,0.000000,4.505779,7.323796,-0.557919
1649345182.733666,11058.000000,1649345182.733123,0.000000,0.000000,1.000000,0.000000,0.000000,0.000000,0.000000,4.502418,7.326622,-0.547462
1649345182.835476,11059.000000,1649345182.834238,0.000000,0.000000,1.000000,0.000000,0.000000,0.000000,0.000000,4.501337,7.327170,-0.554684
1649345182.933653,11060.000000,1649345182.933399,0.000000,0.000000,1.000000,0.000000,0.000000,0.000000,0.000000,4.500240,7.327738,-0.570816
1649345183.033302,11061.000000,1649345183.032796,0.000000,0.000000,1.000000,0.000000,0.000000,0.000000,0.000000,4.491502,7.335955,-0.555168
1649345183.133685,11062.000000,1649345183.133398,0.000000,0.000000,1.000000,0.000000,0.000000,0.000000,0.000000,4.487566,7.340470,-0.533262
1649345183.233196,11063.000000,1649345183.232776,0.000000,0.000000,1.000000,0.000000,0.000000,0.000000,0.000000,4.477280,7.350193,-0.487664
1649345183.332783,11064.000000,1649345183.332580,0.000000,0.000000,1.000000,0.000000,0.000000,0.000000,0.000000,4.473018,7.356088,-0.419421
1649345183.433017,11065.000000,1649345183.432686,0.000000,0.000000,1.000000,0.000000,0.000000,0.000000,0.000000,4.471194,7.359435,-0.352962
1649345183.533421,11066.000000,1649345183.533098,0.000000,0.000000,1.000000,0.000000,0.000000,0.000000,0.000000,4.472770,7.359276,-0.310109
1649345183.632935,11067.000000,1649345183.632636,0.000000,0.000000,1.000000,0.000000,0.000000,0.000000,0.000000,4.477553,7.356894,-0.298855
1649345183.734076,11068.000000,1649345183.733053,0.000000,0.000000,1.000000,0.000000,0.000000,0.000000,0.000000,4.473359,7.360055,-0.259073
1649345183.832973,11069.000000,1649345183.832760,0.000000,0.000000,1.000000,0.000000,0.000000,0.000000,0.000000,4.462870,7.367359,-0.200849
1649345183.933254,11070.000000,1649345183.932771,0.000000,0.000000,1.000000,0.000000,0.000000,0.000000,0.000000,4.447552,7.379649,-0.173409
1649345184.036623,11071.000000,1649345184.035686,0.000000,0.000000,1.000000,0.000000,0.000000,0.000000,0.000000,4.428802,7.395529,-0.170709
1649345184.132277,11072.000000,1649345184.132050,0.000000,0.000000,1.000000,0.000000,0.000000,0.000000,0.000000,4.416675,7.404947,-0.139328
1649345184.234930,11073.000000,1649345184.234040,0.000000,0.000000,1.000000,0.000000,0.000000,0.000000,0.000000,4.410840,7.409322,-0.105465
1649345184.334705,11074.000000,1649345184.333606,0.000000,0.000000,1.000000,0.000000,0.000000,0.000000,0.000000,4.409872,7.410016,-0.053136
1649345184.433978,11075.000000,1649345184.433506,0.000000,0.000000,1.000000,0.000000,0.000000,0.000000,0.000000,4.412407,7.408328,-0.021869
1649345184.533149,11076.000000,1649345184.532630,0.000000,0.000000,1.000000,0.000000,0.000000,0.000000,0.000000,4.416055,7.404402,-0.011660
1649345184.634217,11077.000000,1649345184.633762,0.000000,0.000000,1.000000,0.000000,0.000000,0.000000,0.000000,4.410922,7.406013,0.020279
1649345184.733759,11078.000000,1649345184.733263,0.000000,0.000000,1.000000,0.000000,0.000000,0.000000,0.000000,4.410579,7.404140,0.072229
1649345184.832924,11079.000000,1649345184.832699,0.000000,0.000000,1.000000,0.000000,0.000000,0.000000,0.000000,4.404943,7.406618,0.133639
1649345184.933987,11080.000000,1649345184.933263,0.000000,0.000000,1.000000,0.000000,0.000000,0.000000,0.000000,4.405217,7.405575,0.183883
1649345185.032597,11081.000000,1649345185.032378,0.000000,0.000000,1.000000,0.000000,0.000000,0.000000,0.000000,4.397984,7.409938,0.241096
1649345185.134129,11082.000000,1649345185.133612,0.000000,0.000000,1.000000,0.000000,0.000000,0.000000,0.000000,4.396753,7.409589,0.287186
1649345185.233718,11083.000000,1649345185.233359,0.000000,0.000000,1.000000,0.000000,0.000000,0.000000,0.000000,4.400101,7.405884,0.307232
1649345185.333029,11084.000000,1649345185.332658,0.000000,0.000000,1.000000,0.000000,0.000000,0.000000,0.000000,4.395765,7.407746,0.341800
1649345185.434064,11085.000000,1649345185.433387,0.000000,0.000000,1.000000,0.000000,0.000000,0.000000,0.000000,4.396165,7.407239,0.365280
1649345185.533847,11086.000000,1649345185.533317,0.000000,0.000000,1.000000,0.000000,0.000000,0.000000,0.000000,4.399941,7.403407,0.370048
1649345185.637717,11087.000000,1649345185.634869,0.000000,0.000000,1.000000,0.000000,0.000000,0.000000,0.000000,4.395989,7.405172,0.393176
1649345185.732916,11088.000000,1649345185.732552,0.000000,0.000000,1.000000,0.000000,0.000000,0.000000,0.000000,4.397818,7.404594,0.422628
1649345185.834283,11089.000000,1649345185.833690,0.000000,0.000000,1.000000,0.000000,0.000000,0.000000,0.000000,4.401832,7.400716,0.413779
1649345185.933166,11090.000000,1649345185.932933,0.000000,0.000000,1.000000,0.000000,0.000000,0.000000,0.000000,4.408982,7.394824,0.375480
1649345186.033730,11091.000000,1649345186.033441,0.000000,0.000000,1.000000,0.000000,0.000000,0.000000,0.000000,4.407076,7.396862,0.361434
1649345186.134493,11092.000000,1649345186.133883,0.000000,0.000000,1.000000,0.000000,0.000000,0.000000,0.000000,4.408605,7.396580,0.369910
1649345186.233731,11093.000000,1649345186.233431,0.000000,0.000000,1.000000,0.000000,0.000000,0.000000,0.000000,4.412282,7.393016,0.357271
1649345186.333291,11094.000000,1649345186.332802,0.000000,0.000000,1.000000,0.000000,0.000000,0.000000,0.000000,4.417977,7.387452,0.337317
1649345186.435776,11095.000000,1649345186.433934,0.000000,0.000000,1.000000,0.000000,0.000000,0.000000,0.000000,4.426649,7.380015,0.304756
1649345186.536671,11096.000000,1649345186.535786,0.000000,0.000000,1.000000,0.000000,0.000000,0.000000,0.000000,4.437018,7.370831,0.252108
1649345186.632959,11097.000000,1649345186.632591,0.000000,0.000000,1.000000,0.000000,0.000000,0.000000,0.000000,4.447869,7.361112,0.185129
1649345186.735343,11098.000000,1649345186.734237,0.000000,0.000000,1.000000,0.000000,0.000000,0.000000,0.000000,4.459144,7.352006,0.106943
1649345186.833302,11099.000000,1649345186.832997,0.000000,0.000000,1.000000,0.000000,0.000000,0.000000,0.000000,4.470788,7.343502,0.042336
1649345186.935165,11100.000000,1649345186.933910,0.000000,0.000000,1.000000,0.000000,0.000000,0.000000,0.000000,4.470758,7.343221,0.015067
