__time,/dwm1001/id_458E/pose_kf/header/seq,/dwm1001/id_458E/pose_kf/header/stamp,/dwm1001/id_458E/pose_kf/pose/orientation/pitch_deg,/dwm1001/id_458E/pose_kf/pose/orientation/roll_deg,/dwm1001/id_458E/pose_kf/pose/orientation/w,/dwm1001/id_458E/pose_kf/pose/orientation/x,/dwm1001/id_458E/pose_kf/pose/orientation/y,/dwm1001/id_458E/pose_kf/pose/orientation/yaw_deg,/dwm1001/id_458E/pose_kf/pose/orientation/z,/dwm1001/id_458E/pose_kf/pose/position/x,/dwm1001/id_458E/pose_kf/pose/position/y,/dwm1001/id_458E/pose_kf/pose/position/z
1649344634.834036,6025.000000,1649344634.833568,0.000000,0.000000,1.000000,0.000000,0.000000,0.000000,0.000000,7.848823,2.436996,-0.575922
1649344634.933465,6026.000000,1649344634.933110,0.000000,0.000000,1.000000,0.000000,0.000000,0.000000,0.000000,7.844930,2.440404,-0.571153
1649344635.033534,6027.000000,1649344635.032982,0.000000,0.000000,1.000000,0.000000,0.000000,0.000000,0.000000,7.847847,2.437021,-0.536586
1649344635.133007,6028.000000,1649344635.132729,0.000000,0.000000,1.000000,0.000000,0.000000,0.000000,0.000000,7.849558,2.433774,-0.525102
1649344635.233859,6029.000000,1649344635.233604,0.000000,0.000000,1.000000,0.000000,0.000000,0.000000,0.000000,7.849030,2.431760,-0.518856
1649344635.334952,6030.000000,1649344635.334245,0.000000,0.000000,1.000000,0.000000,0.000000,0.000000,0.000000,7.848566,2.430918,-0.514426
1649344635.433093,6031.000000,1649344635.432734,0.000000,0.000000,1.000000,0.000000,0.000000,0.000000,0.000000,7.847071,2.430099,-0.525458
1649344635.534755,6032.000000,1649344635.534168,0.000000,0.000000,1.000000,0.000000,0.000000,0.000000,0.000000,7.844605,2.429306,-0.531149
1649344635.634671,6033.000000,1649344635.634240,0.000000,0.000000,1.000000,0.000000,0.000000,0.000000,0.000000,7.842315,2.430722,-0.533321
1649344635.734299,6034.000000,1649344635.733511,0.000000,0.000000,1.000000,0.000000,0.000000,0.000000,0.000000,7.840197,2.434223,-0.532922
1649344635.833423,6035.000000,1649344635.833037,0.000000,0.000000,1.000000,0.000000,0.000000,0.000000,0.000000,7.837156,2.437504,-0.524412
1649344635.934711,6036.000000,1649344635.934238,0.000000,0.000000,1.000000,0.000000,0.000000,0.000000,0.000000,7.834339,2.441659,-0.516201
1649344636.034324,6037.000000,1649344636.033978,0.000000,0.000000,1.000000,0.000000,0.000000,0.000000,0.000000,7.831738,2.444449,-0.509904
1649344636.133643,6038.000000,1649344636.133168,0.000000,0.000000,1.000000,0.000000,0.000000,0.000000,0.000000,7.835890,2.440490,-0.473200
1649344636.232991,6039.000000,1649344636.232620,0.000000,0.000000,1.000000,0.000000,0.000000,0.000000,0.000000,7.838776,2.439980,-0.442053
1649344636.333287,6040.000000,1649344636.333061,0.000000,0.000000,1.000000,0.000000,0.000000,0.000000,0.000000,7.839363,2.440553,-0.420323
1649344636.433558,6041.000000,1649344636.433292,0.000000,0.000000,1.000000,0.000000,0.000000,0.000000,0.000000,7.845405,2.434517,-0.374598
1649344636.535650,6042.000000,1649344636.534519,0.000000,0.000000,1.000000,0.000000,0.000000,0.000000,0.000000,7.850041,2.430977,-0.345435
1649344636.636104,6043.000000,1649344636.635013,0.000000,0.000000,1.000000,0.000000,0.000000,0.000000,0.000000,7.852242,2.427629,-0.329786
1649344636.733785,6044.000000,1649344636.733470,0.000000,0.000000,1.000000,0.000000,0.000000,0.000000,0.000000,7.853225,2.425562,-0.324704
1649344636.832618,6045.000000,1649344636.832312,0.000000,0.000000,1.000000,0.000000,0.000000,0.000000,0.000000,7.853053,2.425803,-0.324923
1649344636.937855,6046.000000,1649344636.936612,0.000000,0.000000,1.000000,0.000000,0.000000,0.000000,0.000000,7.851790,2.424954,-0.340702
1649344637.035150,6047.000000,1649344637.034358,0.000000,0.000000,1.000000,0.000000,0.000000,0.000000,0.000000,7.850590,2.426347,-0.356053
1649344637.134204,6048.000000,1649344637.133818,0.000000,0.000000,1.000000,0.000000,0.000000,0.000000,0.000000,7.848364,2.428764,-0.365314
1649344637.233445,6049.000000,1649344637.233043,0.000000,0.000000,1.000000,0.000000,0.000000,0.000000,0.000000,7.848447,2.431052,-0.379998
1649344637.333259,6050.000000,1649344637.332983,0.000000,0.000000,1.000000,0.000000,0.000000,0.000000,0.000000,7.847439,2.431028,-0.406306
1649344637.433236,6051.000000,1649344637.433008,0.000000,0.000000,1.000000,0.000000,0.000000,0.000000,0.000000,7.847585,2.432092,-0.441301
1649344637.534174,6052.000000,1649344637.533659,0.000000,0.000000,1.000000,0.000000,0.000000,0.000000,0.000000,7.846640,2.434179,-0.462797
1649344637.633526,6053.000000,1649344637.633119,0.000000,0.000000,1.000000,0.000000,0.000000,0.000000,0.000000,7.845756,2.436138,-0.475332
1649344637.732506,6054.000000,1649344637.732361,0.000000,0.000000,1.000000,0.000000,0.000000,0.000000,0.000000,7.844933,2.439061,-0.484088
1649344637.834726,6055.000000,1649344637.833841,0.000000,0.000000,1.000000,0.000000,0.000000,0.000000,0.000000,7.843077,2.441797,-0.500493
1649344637.936066,6056.000000,1649344637.935534,0.000000,0.000000,1.000000,0.000000,0.000000,0.000000,0.000000,7.841342,2.443260,-0.526633
1649344638.034013,6057.000000,1649344638.033283,0.000000,0.000000,1.000000,0.000000,0.000000,0.000000,0.000000,7.840815,2.444605,-0.556431
1649344638.134192,6058.000000,1649344638.133641,0.000000,0.000000,1.000000,0.000000,0.000000,0.000000,0.000000,7.839250,2.446927,-0.576791
1649344638.234137,6059.000000,1649344638.233300,0.000000,0.000000,1.000000,0.000000,0.000000,0.000000,0.000000,7.837797,2.449079,-0.587258
1649344638.336655,6060.000000,1649344638.335893,0.000000,0.000000,1.000000,0.000000,0.000000,0.000000,0.000000,7.835364,2.451065,-0.590643
1649344638.433725,6061.000000,1649344638.433131,0.000000,0.000000,1.000000,0.000000,0.000000,0.000000,0.000000,7.834189,2.451800,-0.605781
1649344638.537209,6062.000000,1649344638.536402,0.000000,0.000000,1.000000,0.000000,0.000000,0.000000,0.000000,7.833116,2.451353,-0.620086
1649344638.634782,6063.000000,1649344638.634234,0.000000,0.000000,1.000000,0.000000,0.000000,0.000000,0.000000,7.832141,2.449793,-0.639221
1649344638.732878,6064.000000,1649344638.732522,0.000000,0.000000,1.000000,0.000000,0.000000,0.000000,0.000000,7.831258,2.450460,-0.651679
1649344638.836491,6065.000000,1649344638.835856,0.000000,0.000000,1.000000,0.000000,0.000000,0.000000,0.000000,7.830464,2.451051,-0.664170
1649344638.936116,6066.000000,1649344638.935541,0.000000,0.000000,1.000000,0.000000,0.000000,0.000000,0.000000,7.829753,2.452661,-0.668619
1649344639.032434,6067.000000,1649344639.032293,0.000000,0.000000,1.000000,0.000000,0.000000,0.000000,0.000000,7.829121,2.451961,-0.683902
1649344639.133395,6068.000000,1649344639.133014,0.000000,0.000000,1.000000,0.000000,0.000000,0.000000,0.000000,7.828564,2.450172,-0.706343
1649344639.234846,6069.000000,1649344639.234202,0.000000,0.000000,1.000000,0.000000,0.000000,0.000000,0.000000,7.828077,2.449541,-0.721918
1649344639.333985,6070.000000,1649344639.333718,0.000000,0.000000,1.000000,0.000000,0.000000,0.000000,0.000000,7.827655,2.450009,-0.726052
1649344639.434810,6071.000000,1649344639.434128,0.000000,0.000000,1.000000,0.000000,0.000000,0.000000,0.000000,7.826203,2.449336,-0.721632
1649344639.533600,6072.000000,1649344639.532958,0.000000,0.000000,1.000000,0.000000,0.000000,0.000000,0.000000,7.824870,2.448678,-0.709829
1649344639.634220,6073.000000,1649344639.633533,0.000000,0.000000,1.000000,0.000000,0.000000,0.000000,0.000000,7.823653,2.448037,-0.698234
1649344639.732587,6074.000000,1649344639.732336,0.000000,0.000000,1.000000,0.000000,0.000000,0.000000,0.000000,7.822545,2.447415,-0.683642
1649344639.837255,6075.000000,1649344639.836765,0.000000,0.000000,1.000000,0.000000,0.000000,0.000000,0.000000,7.822632,2.446814,-0.673467
1649344639.933248,6076.000000,1649344639.932808,0.000000,0.000000,1.000000,0.000000,0.000000,0.000000,0.000000,7.823846,2.447326,-0.661105
1649344640.033627,6077.000000,1649344640.033038,0.000000,0.000000,1.000000,0.000000,0.000000,0.000000,0.000000,7.823939,2.445618,-0.662801
1649344640.135677,6078.000000,1649344640.134806,0.000000,0.000000,1.000000,0.000000,0.000000,0.000000,0.000000,7.824061,2.445089,-0.661058
1649344640.233425,6079.000000,1649344640.233140,0.000000,0.000000,1.000000,0.000000,0.000000,0.000000,0.000000,7.824206,2.445676,-0.658442
1649344640.336804,6080.000000,1649344640.335586,0.000000,0.000000,1.000000,0.000000,0.000000,0.000000,0.000000,7.825462,2.446226,-0.667096
1649344640.433097,6081.000000,1649344640.432700,0.000000,0.000000,1.000000,0.000000,0.000000,0.000000,0.000000,7.825583,2.447830,-0.663168
1649344640.537217,6082.000000,1649344640.536252,0.000000,0.000000,1.000000,0.000000,0.000000,0.000000,0.000000,7.826808,2.448246,-0.663307
1649344640.633925,6083.000000,1649344640.633613,0.000000,0.000000,1.000000,0.000000,0.000000,0.000000,0.000000,7.826893,2.449717,-0.652838
1649344640.733704,6084.000000,1649344640.733068,0.000000,0.000000,1.000000,0.000000,0.000000,0.000000,0.000000,7.828078,2.451093,-0.644308
1649344640.836713,6085.000000,1649344640.835950,0.000000,0.000000,1.000000,0.000000,0.000000,0.000000,0.000000,7.829209,2.454556,-0.637657
1649344640.934747,6086.000000,1649344640.934107,0.000000,0.000000,1.000000,0.000000,0.000000,0.000000,0.000000,7.830285,2.457801,-0.626373
1649344641.034062,6087.000000,1649344641.033862,0.000000,0.000000,1.000000,0.000000,0.000000,0.000000,0.000000,7.830214,2.459742,-0.617116
1649344641.136315,6088.000000,1649344641.135709,0.000000,0.000000,1.000000,0.000000,0.000000,0.000000,0.000000,7.830149,2.460445,-0.608208
1649344641.236022,6089.000000,1649344641.235220,0.000000,0.000000,1.000000,0.000000,0.000000,0.000000,0.000000,7.830091,2.461069,-0.598846
1649344641.335921,6090.000000,1649344641.335407,0.000000,0.000000,1.000000,0.000000,0.000000,0.000000,0.000000,7.830038,2.461618,-0.583417
1649344641.434599,6091.000000,1649344641.434093,0.000000,0.000000,1.000000,0.000000,0.000000,0.000000,0.000000,7.829991,2.462097,-0.572678
1649344641.534272,6092.000000,1649344641.533773,0.000000,0.000000,1.000000,0.000000,0.000000,0.000000,0.000000,7.829949,2.462510,-0.559196
1649344641.633217,6093.000000,1649344641.632893,0.000000,0.000000,1.000000,0.000000,0.000000,0.000000,0.000000,7.828822,2.462863,-0.543105
1649344641.734920,6094.000000,1649344641.734182,0.000000,0.000000,1.000000,0.000000,0.000000,0.000000,0.000000,7.827762,2.464249,-0.521306
1649344641.835928,6095.000000,1649344641.835361,0.000000,0.000000,1.000000,0.000000,0.000000,0.000000,0.000000,7.826768,2.465521,-0.498902
1649344641.939462,6096.000000,1649344641.936612,0.000000,0.000000,1.000000,0.000000,0.000000,0.000000,0.000000,7.825841,2.465592,-0.477563
1649344642.038211,6097.000000,1649344642.036708,0.000000,0.000000,1.000000,0.000000,0.000000,0.000000,0.000000,7.833701,2.457987,-0.425824
1649344642.134034,6098.000000,1649344642.132932,0.000000,0.000000,1.000000,0.000000,0.000000,0.000000,0.000000,7.838940,2.451874,-0.389343
1649344642.232574,6099.000000,1649344642.232263,0.000000,0.000000,1.000000,0.000000,0.000000,0.000000,0.000000,7.842776,2.448281,-0.364332
1649344642.335346,6100.000000,1649344642.334779,0.000000,0.000000,1.000000,0.000000,0.000000,0.000000,0.000000,7.846365,2.445993,-0.351163
1649344642.435088,6101.000000,1649344642.434482,0.000000,0.000000,1.000000,0.000000,0.000000,0.000000,0.000000,7.848621,2.443854,-0.344528
1649344642.533248,6102.000000,1649344642.532748,0.000000,0.000000,1.000000,0.000000,0.000000,0.000000,0.000000,7.849612,2.442951,-0.340127
1649344642.635169,6103.000000,1649344642.634486,0.000000,0.000000,1.000000,0.000000,0.000000,0.000000,0.000000,7.850498,2.443219,-0.333024
1649344642.736607,6104.000000,1649344642.736022,0.000000,0.000000,1.000000,0.000000,0.000000,0.000000,0.000000,7.849103,2.443500,-0.323326
1649344642.833717,6105.000000,1649344642.833088,0.000000,0.000000,1.000000,0.000000,0.000000,0.000000,0.000000,7.847740,2.442701,-0.315978
1649344642.933046,6106.000000,1649344642.932754,0.000000,0.000000,1.000000,0.000000,0.000000,0.000000,0.000000,7.846414,2.444152,-0.306044
1649344643.032523,6107.000000,1649344643.032296,0.000000,0.000000,1.000000,0.000000,0.000000,0.000000,0.000000,7.845130,2.445546,-0.297663
1649344643.133427,6108.000000,1649344643.133138,0.000000,0.000000,1.000000,0.000000,0.000000,0.000000,0.000000,7.842799,2.446878,-0.285934
1649344643.235325,6109.000000,1649344643.234440,0.000000,0.000000,1.000000,0.000000,0.000000,0.000000,0.000000,7.841670,2.448147,-0.285512
1649344643.335074,6110.000000,1649344643.334423,0.000000,0.000000,1.000000,0.000000,0.000000,0.000000,0.000000,7.842771,2.443901,-0.258832
1649344643.434736,6111.000000,1649344643.434097,0.000000,0.000000,1.000000,0.000000,0.000000,0.000000,0.000000,7.849250,2.434453,-0.212628
1649344643.532377,6112.000000,1649344643.532180,0.000000,0.000000,1.000000,0.000000,0.000000,0.000000,0.000000,7.853161,2.428837,-0.178395
1649344643.632810,6113.000000,1649344643.632430,0.000000,0.000000,1.000000,0.000000,0.000000,0.000000,0.000000,7.855724,2.425770,-0.158916
1649344643.734523,6114.000000,1649344643.734206,0.000000,0.000000,1.000000,0.000000,0.000000,0.000000,0.000000,7.855916,2.424029,-0.145545
1649344643.836250,6115.000000,1649344643.835182,0.000000,0.000000,1.000000,0.000000,0.000000,0.000000,0.000000,7.856050,2.422452,-0.143684
1649344643.934460,6116.000000,1649344643.933630,0.000000,0.000000,1.000000,0.000000,0.000000,0.000000,0.000000,7.855041,2.422122,-0.147206
1649344644.033239,6117.000000,1649344644.032875,0.000000,0.000000,1.000000,0.000000,0.000000,0.000000,0.000000,7.854048,2.421878,-0.151836
1649344644.134183,6118.000000,1649344644.133344,0.000000,0.000000,1.000000,0.000000,0.000000,0.000000,0.000000,7.853074,2.422802,-0.159116
1649344644.236377,6119.000000,1649344644.234994,0.000000,0.000000,1.000000,0.000000,0.000000,0.000000,0.000000,7.852125,2.423733,-0.183425
1649344644.333163,6120.000000,1649344644.332840,0.000000,0.000000,1.000000,0.000000,0.000000,0.000000,0.000000,7.851202,2.425755,-0.218375
1649344644.436275,6121.000000,1649344644.435104,0.000000,0.000000,1.000000,0.000000,0.000000,0.000000,0.000000,7.849220,2.427710,-0.244108
1649344644.533570,6122.000000,1649344644.533257,0.000000,0.000000,1.000000,0.000000,0.000000,0.000000,0.000000,7.847332,2.429592,-0.262555
1649344644.638717,6123.000000,1649344644.637817,0.000000,0.000000,1.000000,0.000000,0.000000,0.000000,0.000000,7.845541,2.432487,-0.292517
1649344644.734431,6124.000000,1649344644.734095,0.000000,0.000000,1.000000,0.000000,0.000000,0.000000,0.000000,7.842758,2.435240,-0.315732
1649344644.835941,6125.000000,1649344644.835171,0.000000,0.000000,1.000000,0.000000,0.000000,0.000000,0.000000,7.840134,2.438938,-0.333233
1649344644.933735,6126.000000,1649344644.933018,0.000000,0.000000,1.000000,0.000000,0.000000,0.000000,0.000000,7.838761,2.441339,-0.362155
1649344645.034615,6127.000000,1649344645.033781,0.000000,0.000000,1.000000,0.000000,0.000000,0.000000,0.000000,7.837482,2.442505,-0.381018
1649344645.133654,6128.000000,1649344645.133208,0.000000,0.000000,1.000000,0.000000,0.000000,0.000000,0.000000,7.836295,2.442500,-0.411166
1649344645.235016,6129.000000,1649344645.234176,0.000000,0.000000,1.000000,0.000000,0.000000,0.000000,0.000000,7.835198,2.442480,-0.448868
1649344645.332673,6130.000000,1649344645.332465,0.000000,0.000000,1.000000,0.000000,0.000000,0.000000,0.000000,7.834188,2.442447,-0.476018
1649344645.435036,6131.000000,1649344645.434565,0.000000,0.000000,1.000000,0.000000,0.000000,0.000000,0.000000,7.833262,2.443493,-0.508325
1649344645.535483,6132.000000,1649344645.534604,0.000000,0.000000,1.000000,0.000000,0.000000,0.000000,0.000000,7.832417,2.446646,-0.531019
1649344645.634087,6133.000000,1649344645.633852,0.000000,0.000000,1.000000,0.000000,0.000000,0.000000,0.000000,7.831648,2.448512,-0.559781
1649344645.734657,6134.000000,1649344645.733865,0.000000,0.000000,1.000000,0.000000,0.000000,0.000000,0.000000,7.830953,2.452427,-0.571750
1649344645.834299,6135.000000,1649344645.833844,0.000000,0.000000,1.000000,0.000000,0.000000,0.000000,0.000000,7.830327,2.453908,-0.594207
1649344645.935202,6136.000000,1649344645.934541,0.000000,0.000000,1.000000,0.000000,0.000000,0.000000,0.000000,7.829768,2.455267,-0.608964
1649344646.033204,6137.000000,1649344646.032862,0.000000,0.000000,1.000000,0.000000,0.000000,0.000000,0.000000,7.829271,2.456506,-0.617932
1649344646.133976,6138.000000,1649344646.133512,0.000000,0.000000,1.000000,0.000000,0.000000,0.000000,0.000000,7.828833,2.457633,-0.622152
1649344646.233756,6139.000000,1649344646.233310,0.000000,0.000000,1.000000,0.000000,0.000000,0.000000,0.000000,7.833902,2.452109,-0.591177
1649344646.333035,6140.000000,1649344646.332778,0.000000,0.000000,1.000000,0.000000,0.000000,0.000000,0.000000,7.837618,2.446860,-0.582139
1649344646.437054,6141.000000,1649344646.436031,0.000000,0.000000,1.000000,0.000000,0.000000,0.000000,0.000000,7.838952,2.442979,-0.575632
1649344646.533929,6142.000000,1649344646.533331,0.000000,0.000000,1.000000,0.000000,0.000000,0.000000,0.000000,7.840209,2.440403,-0.576413
1649344646.633442,6143.000000,1649344646.632974,0.000000,0.000000,1.000000,0.000000,0.000000,0.000000,0.000000,7.841392,2.437981,-0.590650
1649344646.733808,6144.000000,1649344646.733363,0.000000,0.000000,1.000000,0.000000,0.000000,0.000000,0.000000,7.845770,2.432437,-0.571818
1649344646.832690,6145.000000,1649344646.832432,0.000000,0.000000,1.000000,0.000000,0.000000,0.000000,0.000000,7.847706,2.429413,-0.555968
1649344646.934537,6146.000000,1649344646.933926,0.000000,0.000000,1.000000,0.000000,0.000000,0.000000,0.000000,7.848418,2.427686,-0.546242
1649344647.035809,6147.000000,1649344647.035025,0.000000,0.000000,1.000000,0.000000,0.000000,0.000000,0.000000,7.849062,2.427189,-0.537577
1649344647.134121,6148.000000,1649344647.133345,0.000000,0.000000,1.000000,0.000000,0.000000,0.000000,0.000000,7.848552,2.427855,-0.533983
1649344647.234071,6149.000000,1649344647.233602,0.000000,0.000000,1.000000,0.000000,0.000000,0.000000,0.000000,7.849133,2.429615,-0.530428
1649344647.334243,6150.000000,1649344647.333538,0.000000,0.000000,1.000000,0.000000,0.000000,0.000000,0.000000,7.849657,2.431311,-0.529341
1649344647.434722,6151.000000,1649344647.433957,0.000000,0.000000,1.000000,0.000000,0.000000,0.000000,0.000000,7.849035,2.434031,-0.521756
1649344647.533092,6152.000000,1649344647.532775,0.000000,0.000000,1.000000,0.000000,0.000000,0.000000,0.000000,7.848425,2.436617,-0.528920
1649344647.634291,6153.000000,1649344647.633784,0.000000,0.000000,1.000000,0.000000,0.000000,0.000000,0.000000,7.847827,2.440159,-0.526036
1649344647.734105,6154.000000,1649344647.733433,0.000000,0.000000,1.000000,0.000000,0.000000,0.000000,0.000000,7.845065,2.444592,-0.535291
1649344647.835690,6155.000000,1649344647.834828,0.000000,0.000000,1.000000,0.000000,0.000000,0.000000,0.000000,7.843537,2.447675,-0.543281
1649344647.935857,6156.000000,1649344647.935193,0.000000,0.000000,1.000000,0.000000,0.000000,0.000000,0.000000,7.842090,2.451652,-0.544401
1649344648.033633,6157.000000,1649344648.032973,0.000000,0.000000,1.000000,0.000000,0.000000,0.000000,0.000000,7.839635,2.454284,-0.538930
1649344648.134117,6158.000000,1649344648.133534,0.000000,0.000000,1.000000,0.000000,0.000000,0.000000,0.000000,7.838414,2.457818,-0.531986
1649344648.232611,6159.000000,1649344648.232406,0.000000,0.000000,1.000000,0.000000,0.000000,0.000000,0.000000,7.837273,2.460016,-0.517998
1649344648.338496,6160.000000,1649344648.336822,0.000000,0.000000,1.000000,0.000000,0.000000,0.000000,0.000000,7.837302,2.463128,-0.503729
1649344648.434253,6161.000000,1649344648.432687,0.000000,0.000000,1.000000,0.000000,0.000000,0.000000,0.000000,7.837344,2.466006,-0.490827
1649344648.536303,6162.000000,1649344648.535743,0.000000,0.000000,1.000000,0.000000,0.000000,0.000000,0.000000,7.837398,2.468659,-0.494584
1649344648.635138,6163.000000,1649344648.633990,0.000000,0.000000,1.000000,0.000000,0.000000,0.000000,0.000000,7.836372,2.468913,-0.511096
1649344648.736809,6164.000000,1649344648.736327,0.000000,0.000000,1.000000,0.000000,0.000000,0.000000,0.000000,7.835418,2.469083,-0.522883
1649344648.835532,6165.000000,1649344648.834978,0.000000,0.000000,1.000000,0.000000,0.000000,0.000000,0.000000,7.834534,2.468087,-0.526893
1649344648.935180,6166.000000,1649344648.934520,0.000000,0.000000,1.000000,0.000000,0.000000,0.000000,0.000000,7.833718,2.468176,-0.527466
1649344649.035448,6167.000000,1649344649.034495,0.000000,0.000000,1.000000,0.000000,0.000000,0.000000,0.000000,7.831877,2.468204,-0.525548
1649344649.133928,6168.000000,1649344649.133116,0.000000,0.000000,1.000000,0.000000,0.000000,0.000000,0.000000,7.830162,2.468177,-0.537374
1649344649.232563,6169.000000,1649344649.232278,0.000000,0.000000,1.000000,0.000000,0.000000,0.000000,0.000000,7.829661,2.468102,-0.544630
1649344649.334788,6170.000000,1649344649.334398,0.000000,0.000000,1.000000,0.000000,0.000000,0.000000,0.000000,7.829216,2.467984,-0.545877
1649344649.435606,6171.000000,1649344649.435146,0.000000,0.000000,1.000000,0.000000,0.000000,0.000000,0.000000,7.828825,2.468919,-0.541358
1649344649.534098,6172.000000,1649344649.533472,0.000000,0.000000,1.000000,0.000000,0.000000,0.000000,0.000000,7.828484,2.469759,-0.551478
1649344649.632697,6173.000000,1649344649.632499,0.000000,0.000000,1.000000,0.000000,0.000000,0.000000,0.000000,7.829280,2.469419,-0.570793
1649344649.734748,6174.000000,1649344649.734177,0.000000,0.000000,1.000000,0.000000,0.000000,0.000000,0.000000,7.828966,2.469056,-0.582775
1649344649.835321,6175.000000,1649344649.834541,0.000000,0.000000,1.000000,0.000000,0.000000,0.000000,0.000000,7.829783,2.468676,-0.603831
1649344649.935543,6176.000000,1649344649.934368,0.000000,0.000000,1.000000,0.000000,0.000000,0.000000,0.000000,7.830576,2.469373,-0.612597
1649344650.032800,6177.000000,1649344650.032498,0.000000,0.000000,1.000000,0.000000,0.000000,0.000000,0.000000,7.830251,2.468908,-0.610367
1649344650.133873,6178.000000,1649344650.133208,0.000000,0.000000,1.000000,0.000000,0.000000,0.000000,0.000000,7.829959,2.468437,-0.605659
1649344650.233394,6179.000000,1649344650.233057,0.000000,0.000000,1.000000,0.000000,0.000000,0.000000,0.000000,7.828610,2.469055,-0.592942
1649344650.335206,6180.000000,1649344650.334153,0.000000,0.000000,1.000000,0.000000,0.000000,0.000000,0.000000,7.828444,2.468521,-0.596760
1649344650.433668,6181.000000,1649344650.433214,0.000000,0.000000,1.000000,0.000000,0.000000,0.000000,0.000000,7.827215,2.467992,-0.595475
1649344650.535722,6182.000000,1649344650.535339,0.000000,0.000000,1.000000,0.000000,0.000000,0.000000,0.000000,7.826075,2.466380,-0.603818
1649344650.634100,6183.000000,1649344650.633358,0.000000,0.000000,1.000000,0.000000,0.000000,0.000000,0.000000,7.832654,2.457207,-0.584293
1649344650.733664,6184.000000,1649344650.733150,0.000000,0.000000,1.000000,0.000000,0.000000,0.000000,0.000000,7.837786,2.448549,-0.581609
1649344650.833725,6185.000000,1649344650.833130,0.000000,0.000000,1.000000,0.000000,0.000000,0.000000,0.000000,7.841533,2.442585,-0.570902
1649344650.934035,6186.000000,1649344650.933508,0.000000,0.000000,1.000000,0.000000,0.000000,0.000000,0.000000,7.842870,2.439184,-0.553323
1649344651.032458,6187.000000,1649344651.032213,0.000000,0.000000,1.000000,0.000000,0.000000,0.000000,0.000000,7.844107,2.436032,-0.538858
1649344651.132527,6188.000000,1649344651.132304,0.000000,0.000000,1.000000,0.000000,0.000000,0.000000,0.000000,7.844155,2.435305,-0.526600
1649344651.233016,6189.000000,1649344651.232660,0.000000,0.000000,1.000000,0.000000,0.000000,0.000000,0.000000,7.843081,2.434686,-0.510029
1649344651.332866,6190.000000,1649344651.332598,0.000000,0.000000,1.000000,0.000000,0.000000,0.000000,0.000000,7.842043,2.434168,-0.511119
1649344651.432808,6191.000000,1649344651.432565,0.000000,0.000000,1.000000,0.000000,0.000000,0.000000,0.000000,7.841041,2.432653,-0.525123
1649344651.535718,6192.000000,1649344651.534292,0.000000,0.000000,1.000000,0.000000,0.000000,0.000000,0.000000,7.840080,2.431286,-0.534557
1649344651.633312,6193.000000,1649344651.632998,0.000000,0.000000,1.000000,0.000000,0.000000,0.000000,0.000000,7.839159,2.430061,-0.554913
1649344651.733663,6194.000000,1649344651.733120,0.000000,0.000000,1.000000,0.000000,0.000000,0.000000,0.000000,7.838282,2.430059,-0.561521
1649344651.833283,6195.000000,1649344651.832989,0.000000,0.000000,1.000000,0.000000,0.000000,0.000000,0.000000,7.836358,2.430119,-0.561376
1649344651.933323,6196.000000,1649344651.932959,0.000000,0.000000,1.000000,0.000000,0.000000,0.000000,0.000000,7.834540,2.430236,-0.564430
1649344652.034549,6197.000000,1649344652.034097,0.000000,0.000000,1.000000,0.000000,0.000000,0.000000,0.000000,7.832829,2.430401,-0.566519
1649344652.134575,6198.000000,1649344652.133682,0.000000,0.000000,1.000000,0.000000,0.000000,0.000000,0.000000,7.831224,2.430608,-0.564452
1649344652.232705,6199.000000,1649344652.232443,0.000000,0.000000,1.000000,0.000000,0.000000,0.000000,0.000000,7.828633,2.431943,-0.561628
1649344652.337220,6200.000000,1649344652.336472,0.000000,0.000000,1.000000,0.000000,0.000000,0.000000,0.000000,7.827298,2.433245,-0.557279
1649344652.433048,6201.000000,1649344652.432554,0.000000,0.000000,1.000000,0.000000,0.000000,0.000000,0.000000,7.827153,2.434511,-0.566795
1649344652.536319,6202.000000,1649344652.534763,0.000000,0.000000,1.000000,0.000000,0.000000,0.000000,0.000000,7.825951,2.435736,-0.585572
1649344652.635050,6203.000000,1649344652.634202,0.000000,0.000000,1.000000,0.000000,0.000000,0.000000,0.000000,7.825933,2.436918,-0.601914
1649344652.734412,6204.000000,1649344652.733380,0.000000,0.000000,1.000000,0.000000,0.000000,0.000000,0.000000,7.832485,2.430420,-0.582024
1649344652.834116,6205.000000,1649344652.833620,0.000000,0.000000,1.000000,0.000000,0.000000,0.000000,0.000000,7.837594,2.425404,-0.572562
1649344652.934343,6206.000000,1649344652.933582,0.000000,0.000000,1.000000,0.000000,0.000000,0.000000,0.000000,7.840232,2.423983,-0.557801
1649344653.034059,6207.000000,1649344653.033446,0.000000,0.000000,1.000000,0.000000,0.000000,0.000000,0.000000,7.841617,2.422692,-0.544435
1649344653.132509,6208.000000,1649344653.132282,0.000000,0.000000,1.000000,0.000000,0.000000,0.000000,0.000000,7.841812,2.423706,-0.532430
1649344653.233310,6209.000000,1649344653.233034,0.000000,0.000000,1.000000,0.000000,0.000000,0.000000,0.000000,7.841976,2.423621,-0.535460
1649344653.332519,6210.000000,1649344653.332340,0.000000,0.000000,1.000000,0.000000,0.000000,0.000000,0.000000,7.842108,2.423586,-0.548881
1649344653.435646,6211.000000,1649344653.434507,0.000000,0.000000,1.000000,0.000000,0.000000,0.000000,0.000000,7.841123,2.423595,-0.554507
1649344653.533942,6212.000000,1649344653.533602,0.000000,0.000000,1.000000,0.000000,0.000000,0.000000,0.000000,7.839085,2.424733,-0.555870
1649344653.633141,6213.000000,1649344653.632778,0.000000,0.000000,1.000000,0.000000,0.000000,0.000000,0.000000,7.838239,2.425844,-0.553138
1649344653.738141,6214.000000,1649344653.736672,0.000000,0.000000,1.000000,0.000000,0.000000,0.000000,0.000000,7.836344,2.428013,-0.552127
1649344653.836112,6215.000000,1649344653.835289,0.000000,0.000000,1.000000,0.000000,0.000000,0.000000,0.000000,7.834552,2.431174,-0.544705
1649344653.935447,6216.000000,1649344653.934509,0.000000,0.000000,1.000000,0.000000,0.000000,0.000000,0.000000,7.833954,2.435262,-0.533562
1649344654.033687,6217.000000,1649344654.033376,0.000000,0.000000,1.000000,0.000000,0.000000,0.000000,0.000000,7.832306,2.439123,-0.515640
1649344654.134662,6218.000000,1649344654.133679,0.000000,0.000000,1.000000,0.000000,0.000000,0.000000,0.000000,7.830761,2.442757,-0.499307
1649344654.235597,6219.000000,1649344654.234890,0.000000,0.000000,1.000000,0.000000,0.000000,0.000000,0.000000,7.830406,2.443986,-0.500653
1649344654.338471,6220.000000,1649344654.337409,0.000000,0.000000,1.000000,0.000000,0.000000,0.000000,0.000000,7.830088,2.446209,-0.502024
1649344654.436583,6221.000000,1649344654.435975,0.000000,0.000000,1.000000,0.000000,0.000000,0.000000,0.000000,7.829804,2.448277,-0.501800
1649344654.536121,6222.000000,1649344654.534800,0.000000,0.000000,1.000000,0.000000,0.000000,0.000000,0.000000,7.830643,2.449102,-0.503269
1649344654.634161,6223.000000,1649344654.633480,0.000000,0.000000,1.000000,0.000000,0.000000,0.000000,0.000000,7.831449,2.449843,-0.506357
1649344654.735405,6224.000000,1649344654.734501,0.000000,0.000000,1.000000,0.000000,0.000000,0.000000,0.000000,7.832220,2.450504,-0.501313
1649344654.834675,6225.000000,1649344654.833371,0.000000,0.000000,1.000000,0.000000,0.000000,0.000000,0.000000,7.831867,2.450000,-0.494923
1649344654.934995,6226.000000,1649344654.934534,0.000000,0.000000,1.000000,0.000000,0.000000,0.000000,0.000000,7.831540,2.450578,-0.492894
1649344655.033015,6227.000000,1649344655.032636,0.000000,0.000000,1.000000,0.000000,0.000000,0.000000,0.000000,7.830148,2.451089,-0.503116
1649344655.137569,6228.000000,1649344655.137062,0.000000,0.000000,1.000000,0.000000,0.000000,0.000000,0.000000,7.829935,2.451538,-0.523461
1649344655.232513,6229.000000,1649344655.232316,0.000000,0.000000,1.000000,0.000000,0.000000,0.000000,0.000000,7.830836,2.450837,-0.551873
1649344655.333760,6230.000000,1649344655.333157,0.000000,0.000000,1.000000,0.000000,0.000000,0.000000,0.000000,7.831697,2.450145,-0.567815
1649344655.435386,6231.000000,1649344655.434602,0.000000,0.000000,1.000000,0.000000,0.000000,0.000000,0.000000,7.832515,2.448374,-0.589507
1649344655.532546,6232.000000,1649344655.532278,0.000000,0.000000,1.000000,0.000000,0.000000,0.000000,0.000000,7.838744,2.441229,-0.576359
1649344655.632980,6233.000000,1649344655.632613,0.000000,0.000000,1.000000,0.000000,0.000000,0.000000,0.000000,7.842435,2.436658,-0.562868
1649344655.734349,6234.000000,1649344655.733632,0.000000,0.000000,1.000000,0.000000,0.000000,0.000000,0.000000,7.845897,2.431265,-0.565201
1649344655.835524,6235.000000,1649344655.834598,0.000000,0.000000,1.000000,0.000000,0.000000,0.000000,0.000000,7.849134,2.427290,-0.566590
1649344655.936214,6236.000000,1649344655.935573,0.000000,0.000000,1.000000,0.000000,0.000000,0.000000,0.000000,7.851058,2.424668,-0.562234
1649344656.034532,6237.000000,1649344656.033919,0.000000,0.000000,1.000000,0.000000,0.000000,0.000000,0.000000,7.852829,2.421149,-0.570921
1649344656.136514,6238.000000,1649344656.135497,0.000000,0.000000,1.000000,0.000000,0.000000,0.000000,0.000000,7.854452,2.420061,-0.571144
1649344656.235220,6239.000000,1649344656.234525,0.000000,0.000000,1.000000,0.000000,0.000000,0.000000,0.000000,7.861384,2.413639,-0.543893
1649344656.339451,6240.000000,1649344656.336391,0.000000,0.000000,1.000000,0.000000,0.000000,0.000000,0.000000,7.867867,2.408734,-0.537096
1649344656.432751,6241.000000,1649344656.432405,0.000000,0.000000,1.000000,0.000000,0.000000,0.000000,0.000000,7.878270,2.399820,-0.502360
1649344656.534529,6242.000000,1649344656.534044,0.000000,0.000000,1.000000,0.000000,0.000000,0.000000,0.000000,7.885808,2.393684,-0.489257
1649344656.634426,6243.000000,1649344656.633619,0.000000,0.000000,1.000000,0.000000,0.000000,0.000000,0.000000,7.889532,2.390185,-0.472739
1649344656.732857,6244.000000,1649344656.732540,0.000000,0.000000,1.000000,0.000000,0.000000,0.000000,0.000000,7.891825,2.388094,-0.457809
1649344656.834110,6245.000000,1649344656.833412,0.000000,0.000000,1.000000,0.000000,0.000000,0.000000,0.000000,7.892767,2.387333,-0.446841
1649344656.934331,6246.000000,1649344656.933690,0.000000,0.000000,1.000000,0.000000,0.000000,0.000000,0.000000,7.892435,2.386735,-0.442109
1649344657.033787,6247.000000,1649344657.033244,0.000000,0.000000,1.000000,0.000000,0.000000,0.000000,0.000000,7.890907,2.388466,-0.434492
1649344657.134811,6248.000000,1649344657.133831,0.000000,0.000000,1.000000,0.000000,0.000000,0.000000,0.000000,7.889352,2.391298,-0.442660
1649344657.232547,6249.000000,1649344657.232337,0.000000,0.000000,1.000000,0.000000,0.000000,0.000000,0.000000,7.886691,2.395155,-0.449023
1649344657.337762,6250.000000,1649344657.336719,0.000000,0.000000,1.000000,0.000000,0.000000,0.000000,0.000000,7.884089,2.398873,-0.452022
1649344657.436320,6251.000000,1649344657.435888,0.000000,0.000000,1.000000,0.000000,0.000000,0.000000,0.000000,7.880466,2.403535,-0.449366
1649344657.533268,6252.000000,1649344657.533061,0.000000,0.000000,1.000000,0.000000,0.000000,0.000000,0.000000,7.875894,2.409071,-0.439667
1649344657.634644,6253.000000,1649344657.634094,0.000000,0.000000,1.000000,0.000000,0.000000,0.000000,0.000000,7.872621,2.415415,-0.432093
1649344657.736803,6254.000000,1649344657.735498,0.000000,0.000000,1.000000,0.000000,0.000000,0.000000,0.000000,7.869500,2.422501,-0.431406
1649344657.836409,6255.000000,1649344657.835786,0.000000,0.000000,1.000000,0.000000,0.000000,0.000000,0.000000,7.866534,2.429176,-0.428451
1649344657.934207,6256.000000,1649344657.933557,0.000000,0.000000,1.000000,0.000000,0.000000,0.000000,0.000000,7.862633,2.435443,-0.420901
1649344658.033283,6257.000000,1649344658.032933,0.000000,0.000000,1.000000,0.000000,0.000000,0.000000,0.000000,7.858953,2.442397,-0.412981
1649344658.138303,6258.000000,1649344658.136677,0.000000,0.000000,1.000000,0.000000,0.000000,0.000000,0.000000,7.855492,2.447803,-0.410359
1649344658.234390,6259.000000,1649344658.233589,0.000000,0.000000,1.000000,0.000000,0.000000,0.000000,0.000000,7.852247,2.451731,-0.403142
1649344658.338726,6260.000000,1649344658.337431,0.000000,0.000000,1.000000,0.000000,0.000000,0.000000,0.000000,7.848127,2.454255,-0.399587
1649344658.437938,6261.000000,1649344658.437242,0.000000,0.000000,1.000000,0.000000,0.000000,0.000000,0.000000,7.845368,2.456541,-0.410836
1649344658.532661,6262.000000,1649344658.532407,0.000000,0.000000,1.000000,0.000000,0.000000,0.000000,0.000000,7.851537,2.449875,-0.386267
1649344658.634401,6263.000000,1649344658.633935,0.000000,0.000000,1.000000,0.000000,0.000000,0.000000,0.000000,7.855221,2.445678,-0.361232
1649344658.734548,6264.000000,1649344658.734034,0.000000,0.000000,1.000000,0.000000,0.000000,0.000000,0.000000,7.856541,2.436199,-0.357560
1649344658.833451,6265.000000,1649344658.833168,0.000000,0.000000,1.000000,0.000000,0.000000,0.000000,0.000000,7.857801,2.429392,-0.368742
1649344658.938570,6266.000000,1649344658.937290,0.000000,0.000000,1.000000,0.000000,0.000000,0.000000,0.000000,7.859001,2.424044,-0.392540
1649344659.032748,6267.000000,1649344659.032341,0.000000,0.000000,1.000000,0.000000,0.000000,0.000000,0.000000,7.866682,2.412459,-0.375172
1649344659.135676,6268.000000,1649344659.135120,0.000000,0.000000,1.000000,0.000000,0.000000,0.000000,0.000000,7.871743,2.404827,-0.378806
1649344659.234049,6269.000000,1649344659.233341,0.000000,0.000000,1.000000,0.000000,0.000000,0.000000,0.000000,7.873221,2.400953,-0.378390
1649344659.333924,6270.000000,1649344659.333231,0.000000,0.000000,1.000000,0.000000,0.000000,0.000000,0.000000,7.873491,2.399551,-0.381341
1649344659.434826,6271.000000,1649344659.434035,0.000000,0.000000,1.000000,0.000000,0.000000,0.000000,0.000000,7.872619,2.401575,-0.386706
1649344659.533223,6272.000000,1649344659.533011,0.000000,0.000000,1.000000,0.000000,0.000000,0.000000,0.000000,7.871762,2.402468,-0.404858
1649344659.635355,6273.000000,1649344659.632791,0.000000,0.000000,1.000000,0.000000,0.000000,0.000000,0.000000,7.869835,2.403373,-0.433633
1649344659.733927,6274.000000,1649344659.733289,0.000000,0.000000,1.000000,0.000000,0.000000,0.000000,0.000000,7.866902,2.404284,-0.455617
1649344659.833987,6275.000000,1649344659.833683,0.000000,0.000000,1.000000,0.000000,0.000000,0.000000,0.000000,7.863030,2.408466,-0.473464
1649344659.936994,6276.000000,1649344659.936377,0.000000,0.000000,1.000000,0.000000,0.000000,0.000000,0.000000,7.859372,2.413543,-0.487313
1649344660.033128,6277.000000,1649344660.032857,0.000000,0.000000,1.000000,0.000000,0.000000,0.000000,0.000000,7.857018,2.418360,-0.505367
1649344660.135018,6278.000000,1649344660.134421,0.000000,0.000000,1.000000,0.000000,0.000000,0.000000,0.000000,7.853724,2.422913,-0.525010
1649344660.233722,6279.000000,1649344660.233455,0.000000,0.000000,1.000000,0.000000,0.000000,0.000000,0.000000,7.850640,2.426113,-0.553408
1649344660.336107,6280.000000,1649344660.335442,0.000000,0.000000,1.000000,0.000000,0.000000,0.000000,0.000000,7.846671,2.428023,-0.577261
1649344660.433556,6281.000000,1649344660.433181,0.000000,0.000000,1.000000,0.000000,0.000000,0.000000,0.000000,7.844058,2.428711,-0.607204
1649344660.533078,6282.000000,1649344660.532870,0.000000,0.000000,1.000000,0.000000,0.000000,0.000000,0.000000,7.842732,2.430422,-0.628433
1649344660.633608,6283.000000,1649344660.633174,0.000000,0.000000,1.000000,0.000000,0.000000,0.000000,0.000000,7.841533,2.433097,-0.656596
1649344660.733035,6284.000000,1649344660.732661,0.000000,0.000000,1.000000,0.000000,0.000000,0.000000,0.000000,7.840455,2.434496,-0.688958
1649344660.835174,6285.000000,1649344660.834624,0.000000,0.000000,1.000000,0.000000,0.000000,0.000000,0.000000,7.838401,2.434687,-0.706759
1649344660.935193,6286.000000,1649344660.933767,0.000000,0.000000,1.000000,0.000000,0.000000,0.000000,0.000000,7.836519,2.435918,-0.711378
1649344661.034769,6287.000000,1649344661.034149,0.000000,0.000000,1.000000,0.000000,0.000000,0.000000,0.000000,7.834801,2.437041,-0.706580
1649344661.132799,6288.000000,1649344661.132588,0.000000,0.000000,1.000000,0.000000,0.000000,0.000000,0.000000,7.833240,2.438059,-0.705669
1649344661.234334,6289.000000,1649344661.233924,0.000000,0.000000,1.000000,0.000000,0.000000,0.000000,0.000000,7.831828,2.441160,-0.695603
1649344661.334968,6290.000000,1649344661.334225,0.000000,0.000000,1.000000,0.000000,0.000000,0.000000,0.000000,7.830559,2.444041,-0.684039
1649344661.434591,6291.000000,1649344661.433688,0.000000,0.000000,1.000000,0.000000,0.000000,0.000000,0.000000,7.829425,2.448889,-0.676715
1649344661.536724,6292.000000,1649344661.535527,0.000000,0.000000,1.000000,0.000000,0.000000,0.000000,0.000000,7.827328,2.452314,-0.682352
1649344661.634902,6293.000000,1649344661.634457,0.000000,0.000000,1.000000,0.000000,0.000000,0.000000,0.000000,7.825414,2.454387,-0.690754
1649344661.733611,6294.000000,1649344661.733155,0.000000,0.000000,1.000000,0.000000,0.000000,0.000000,0.000000,7.823674,2.456268,-0.698576
1649344661.833503,6295.000000,1649344661.832935,0.000000,0.000000,1.000000,0.000000,0.000000,0.000000,0.000000,7.821010,2.459059,-0.700196
1649344661.933766,6296.000000,1649344661.933324,0.000000,0.000000,1.000000,0.000000,0.000000,0.000000,0.000000,7.819658,2.461614,-0.698288
1649344662.032626,6297.000000,1649344662.032376,0.000000,0.000000,1.000000,0.000000,0.000000,0.000000,0.000000,7.818455,2.463943,-0.689784
1649344662.135310,6298.000000,1649344662.134938,0.000000,0.000000,1.000000,0.000000,0.000000,0.000000,0.000000,7.818484,2.463875,-0.695133
1649344662.233657,6299.000000,1649344662.233293,0.000000,0.000000,1.000000,0.000000,0.000000,0.000000,0.000000,7.817492,2.464818,-0.695229
1649344662.333166,6300.000000,1649344662.332904,0.000000,0.000000,1.000000,0.000000,0.000000,0.000000,0.000000,7.816623,2.464538,-0.693517
1649344662.433472,6301.000000,1649344662.433062,0.000000,0.000000,1.000000,0.000000,0.000000,0.000000,0.000000,7.815871,2.465287,-0.688468
1649344662.533273,6302.000000,1649344662.532908,0.000000,0.000000,1.000000,0.000000,0.000000,0.000000,0.000000,7.815226,2.467011,-0.686685
1649344662.633413,6303.000000,1649344662.633102,0.000000,0.000000,1.000000,0.000000,0.000000,0.000000,0.000000,7.813592,2.468566,-0.682399
1649344662.734102,6304.000000,1649344662.733711,0.000000,0.000000,1.000000,0.000000,0.000000,0.000000,0.000000,7.812113,2.469961,-0.678953
1649344662.836293,6305.000000,1649344662.835858,0.000000,0.000000,1.000000,0.000000,0.000000,0.000000,0.000000,7.811872,2.471204,-0.667452
1649344662.933105,6306.000000,1649344662.932752,0.000000,0.000000,1.000000,0.000000,0.000000,0.000000,0.000000,7.810619,2.472304,-0.656311
1649344663.038271,6307.000000,1649344663.037094,0.000000,0.000000,1.000000,0.000000,0.000000,0.000000,0.000000,7.811679,2.473269,-0.647958
1649344663.132389,6308.000000,1649344663.132212,0.000000,0.000000,1.000000,0.000000,0.000000,0.000000,0.000000,7.812739,2.473018,-0.636653
1649344663.233346,6309.000000,1649344663.232898,0.000000,0.000000,1.000000,0.000000,0.000000,0.000000,0.000000,7.813791,2.470532,-0.640279
1649344663.333939,6310.000000,1649344663.333306,0.000000,0.000000,1.000000,0.000000,0.000000,0.000000,0.000000,7.814831,2.468124,-0.651778
1649344663.433187,6311.000000,1649344663.432868,0.000000,0.000000,1.000000,0.000000,0.000000,0.000000,0.000000,7.815853,2.466893,-0.653879
1649344663.534029,6312.000000,1649344663.533489,0.000000,0.000000,1.000000,0.000000,0.000000,0.000000,0.000000,7.823395,2.459147,-0.619541
1649344663.634000,6313.000000,1649344663.633595,0.000000,0.000000,1.000000,0.000000,0.000000,0.000000,0.000000,7.829444,2.452901,-0.605938
1649344663.735688,6314.000000,1649344663.734874,0.000000,0.000000,1.000000,0.000000,0.000000,0.000000,0.000000,7.835151,2.449184,-0.600163
1649344663.832745,6315.000000,1649344663.832463,0.000000,0.000000,1.000000,0.000000,0.000000,0.000000,0.000000,7.839427,2.444599,-0.607552
1649344663.935145,6316.000000,1649344663.934541,0.000000,0.000000,1.000000,0.000000,0.000000,0.000000,0.000000,7.841249,2.441386,-0.608207
1649344664.035688,6317.000000,1649344664.035030,0.000000,0.000000,1.000000,0.000000,0.000000,0.000000,0.000000,7.841837,2.437298,-0.602398
1649344664.133215,6318.000000,1649344664.132821,0.000000,0.000000,1.000000,0.000000,0.000000,0.000000,0.000000,7.842349,2.435665,-0.600071
1649344664.236330,6319.000000,1649344664.235883,0.000000,0.000000,1.000000,0.000000,0.000000,0.000000,0.000000,7.842791,2.435265,-0.599477
1649344664.336394,6320.000000,1649344664.335523,0.000000,0.000000,1.000000,0.000000,0.000000,0.000000,0.000000,7.843166,2.434938,-0.598126
1649344664.436293,6321.000000,1649344664.435077,0.000000,0.000000,1.000000,0.000000,0.000000,0.000000,0.000000,7.842391,2.435769,-0.589599
1649344664.533022,6322.000000,1649344664.532702,0.000000,0.000000,1.000000,0.000000,0.000000,0.000000,0.000000,7.842713,2.434419,-0.586294
1649344664.635432,6323.000000,1649344664.634645,0.000000,0.000000,1.000000,0.000000,0.000000,0.000000,0.000000,7.844072,2.435368,-0.585586
1649344664.735454,6324.000000,1649344664.734536,0.000000,0.000000,1.000000,0.000000,0.000000,0.000000,0.000000,7.845321,2.435216,-0.596240
1649344664.835025,6325.000000,1649344664.834472,0.000000,0.000000,1.000000,0.000000,0.000000,0.000000,0.000000,7.850825,2.429658,-0.569392
1649344664.933938,6326.000000,1649344664.933167,0.000000,0.000000,1.000000,0.000000,0.000000,0.000000,0.000000,7.855975,2.427729,-0.550951
1649344665.035036,6327.000000,1649344665.034328,0.000000,0.000000,1.000000,0.000000,0.000000,0.000000,0.000000,7.860777,2.427051,-0.535771
1649344665.132860,6328.000000,1649344665.132542,0.000000,0.000000,1.000000,0.000000,0.000000,0.000000,0.000000,7.872873,2.428646,-0.495513
1649344665.236365,6329.000000,1649344665.235511,0.000000,0.000000,1.000000,0.000000,0.000000,0.000000,0.000000,7.891831,2.435654,-0.478834
1649344665.334618,6330.000000,1649344665.334220,0.000000,0.000000,1.000000,0.000000,0.000000,0.000000,0.000000,7.906319,2.440122,-0.476740
1649344665.435876,6331.000000,1649344665.434781,0.000000,0.000000,1.000000,0.000000,0.000000,0.000000,0.000000,7.916547,2.444353,-0.472507
1649344665.536526,6332.000000,1649344665.535777,0.000000,0.000000,1.000000,0.000000,0.000000,0.000000,0.000000,7.922724,2.445077,-0.482351
1649344665.635149,6333.000000,1649344665.634501,0.000000,0.000000,1.000000,0.000000,0.000000,0.000000,0.000000,7.926156,2.446843,-0.494389
1649344665.734379,6334.000000,1649344665.733955,0.000000,0.000000,1.000000,0.000000,0.000000,0.000000,0.000000,7.928084,2.448499,-0.500440
1649344665.836068,6335.000000,1649344665.835568,0.000000,0.000000,1.000000,0.000000,0.000000,0.000000,0.000000,7.926417,2.450047,-0.498310
1649344665.934110,6336.000000,1649344665.933674,0.000000,0.000000,1.000000,0.000000,0.000000,0.000000,0.000000,7.924640,2.451488,-0.509295
1649344666.032869,6337.000000,1649344666.032568,0.000000,0.000000,1.000000,0.000000,0.000000,0.000000,0.000000,7.923866,2.447375,-0.486067
1649344666.133443,6338.000000,1649344666.133111,0.000000,0.000000,1.000000,0.000000,0.000000,0.000000,0.000000,7.921873,2.444565,-0.461493
1649344666.234176,6339.000000,1649344666.233626,0.000000,0.000000,1.000000,0.000000,0.000000,0.000000,0.000000,7.918744,2.444087,-0.446953
1649344666.334907,6340.000000,1649344666.333792,0.000000,0.000000,1.000000,0.000000,0.000000,0.000000,0.000000,7.915649,2.442546,-0.443673
1649344666.433956,6341.000000,1649344666.433444,0.000000,0.000000,1.000000,0.000000,0.000000,0.000000,0.000000,7.911513,2.442184,-0.443133
1649344666.538048,6342.000000,1649344666.534942,0.000000,0.000000,1.000000,0.000000,0.000000,0.000000,0.000000,7.909686,2.442938,-0.450859
1649344666.634291,6343.000000,1649344666.633413,0.000000,0.000000,1.000000,0.000000,0.000000,0.000000,0.000000,7.912232,2.439292,-0.428595
1649344666.735493,6344.000000,1649344666.734320,0.000000,0.000000,1.000000,0.000000,0.000000,0.000000,0.000000,7.912369,2.436951,-0.419517
1649344666.833196,6345.000000,1649344666.832752,0.000000,0.000000,1.000000,0.000000,0.000000,0.000000,0.000000,7.912413,2.434758,-0.415035
1649344666.933620,6346.000000,1649344666.933364,0.000000,0.000000,1.000000,0.000000,0.000000,0.000000,0.000000,7.910193,2.433801,-0.417382
1649344667.032941,6347.000000,1649344667.032635,0.000000,0.000000,1.000000,0.000000,0.000000,0.000000,0.000000,7.913478,2.426383,-0.384337
1649344667.133209,6348.000000,1649344667.132670,0.000000,0.000000,1.000000,0.000000,0.000000,0.000000,0.000000,7.912146,2.421600,-0.367373
1649344667.233580,6349.000000,1649344667.232813,0.000000,0.000000,1.000000,0.000000,0.000000,0.000000,0.000000,7.916272,2.411687,-0.320700
1649344667.333730,6350.000000,1649344667.333227,0.000000,0.000000,1.000000,0.000000,0.000000,0.000000,0.000000,7.917917,2.405675,-0.292359
1649344667.435064,6351.000000,1649344667.434372,0.000000,0.000000,1.000000,0.000000,0.000000,0.000000,0.000000,7.918306,2.402275,-0.275999
1649344667.535637,6352.000000,1649344667.534250,0.000000,0.000000,1.000000,0.000000,0.000000,0.000000,0.000000,7.922961,2.394807,-0.232441
1649344667.638229,6353.000000,1649344667.636392,0.000000,0.000000,1.000000,0.000000,0.000000,0.000000,0.000000,7.922917,2.388962,-0.206388
1649344667.732753,6354.000000,1649344667.732492,0.000000,0.000000,1.000000,0.000000,0.000000,0.000000,0.000000,7.920616,2.387933,-0.185065
1649344667.834803,6355.000000,1649344667.833948,0.000000,0.000000,1.000000,0.000000,0.000000,0.000000,0.000000,7.917283,2.388183,-0.187651
1649344667.932570,6356.000000,1649344667.932379,0.000000,0.000000,1.000000,0.000000,0.000000,0.000000,0.000000,7.912988,2.388543,-0.206708
1649344668.034917,6357.000000,1649344668.034378,0.000000,0.000000,1.000000,0.000000,0.000000,0.000000,0.000000,7.914343,2.383547,-0.189909
1649344668.132812,6358.000000,1649344668.132527,0.000000,0.000000,1.000000,0.000000,0.000000,0.000000,0.000000,7.913405,2.381128,-0.180644
1649344668.232720,6359.000000,1649344668.232491,0.000000,0.000000,1.000000,0.000000,0.000000,0.000000,0.000000,7.910305,2.380056,-0.181030
1649344668.333514,6360.000000,1649344668.333101,0.000000,0.000000,1.000000,0.000000,0.000000,0.000000,0.000000,7.906261,2.382435,-0.181788
1649344668.433956,6361.000000,1649344668.433280,0.000000,0.000000,1.000000,0.000000,0.000000,0.000000,0.000000,7.902430,2.385881,-0.190143
1649344668.536781,6362.000000,1649344668.534373,0.000000,0.000000,1.000000,0.000000,0.000000,0.000000,0.000000,7.897722,2.390319,-0.197696
1649344668.635521,6363.000000,1649344668.634994,0.000000,0.000000,1.000000,0.000000,0.000000,0.000000,0.000000,7.892200,2.394586,-0.219774
1649344668.732730,6364.000000,1649344668.732515,0.000000,0.000000,1.000000,0.000000,0.000000,0.000000,0.000000,7.885924,2.398674,-0.241224
1649344668.837745,6365.000000,1649344668.836984,0.000000,0.000000,1.000000,0.000000,0.000000,0.000000,0.000000,7.880043,2.402576,-0.273316
1649344668.934309,6366.000000,1649344668.933300,0.000000,0.000000,1.000000,0.000000,0.000000,0.000000,0.000000,7.874552,2.405198,-0.301041
1649344669.032552,6367.000000,1649344669.032268,0.000000,0.000000,1.000000,0.000000,0.000000,0.000000,0.000000,7.869442,2.407689,-0.335004
1649344669.133383,6368.000000,1649344669.132962,0.000000,0.000000,1.000000,0.000000,0.000000,0.000000,0.000000,7.864704,2.410050,-0.361990
1649344669.233845,6369.000000,1649344669.233443,0.000000,0.000000,1.000000,0.000000,0.000000,0.000000,0.000000,7.858146,2.412278,-0.395943
1649344669.334009,6370.000000,1649344669.333455,0.000000,0.000000,1.000000,0.000000,0.000000,0.000000,0.000000,7.857515,2.410014,-0.405878
1649344669.434774,6371.000000,1649344669.434279,0.000000,0.000000,1.000000,0.000000,0.000000,0.000000,0.000000,7.855941,2.410051,-0.427428
1649344669.535484,6372.000000,1649344669.534745,0.000000,0.000000,1.000000,0.000000,0.000000,0.000000,0.000000,7.860017,2.406813,-0.427834
1649344669.634250,6373.000000,1649344669.633778,0.000000,0.000000,1.000000,0.000000,0.000000,0.000000,0.000000,7.860691,2.403759,-0.444241
1649344669.733224,6374.000000,1649344669.732910,0.000000,0.000000,1.000000,0.000000,0.000000,0.000000,0.000000,7.860323,2.401979,-0.471144
1649344669.833426,6375.000000,1649344669.832971,0.000000,0.000000,1.000000,0.000000,0.000000,0.000000,0.000000,7.860056,2.403589,-0.491143
1649344669.933916,6376.000000,1649344669.933433,0.000000,0.000000,1.000000,0.000000,0.000000,0.000000,0.000000,7.866422,2.407308,-0.473845
1649344670.032797,6377.000000,1649344670.032504,0.000000,0.000000,1.000000,0.000000,0.000000,0.000000,0.000000,7.869224,2.410826,-0.457889
1649344670.137698,6378.000000,1649344670.137227,0.000000,0.000000,1.000000,0.000000,0.000000,0.000000,0.000000,7.868643,2.414145,-0.446478
1649344670.235701,6379.000000,1649344670.234702,0.000000,0.000000,1.000000,0.000000,0.000000,0.000000,0.000000,7.873585,2.410722,-0.414456
1649344670.339036,6380.000000,1649344670.337204,0.000000,0.000000,1.000000,0.000000,0.000000,0.000000,0.000000,7.875010,2.409660,-0.394163
1649344670.432685,6381.000000,1649344670.432356,0.000000,0.000000,1.000000,0.000000,0.000000,0.000000,0.000000,7.875283,2.409743,-0.381937
1649344670.533779,6382.000000,1649344670.533517,0.000000,0.000000,1.000000,0.000000,0.000000,0.000000,0.000000,7.874465,2.409819,-0.388764
1649344670.634000,6383.000000,1649344670.633650,0.000000,0.000000,1.000000,0.000000,0.000000,0.000000,0.000000,7.873709,2.412068,-0.396929
1649344670.736555,6384.000000,1649344670.735149,0.000000,0.000000,1.000000,0.000000,0.000000,0.000000,0.000000,7.871921,2.414185,-0.419267
1649344670.833537,6385.000000,1649344670.833118,0.000000,0.000000,1.000000,0.000000,0.000000,0.000000,0.000000,7.870254,2.416171,-0.451138
1649344670.934473,6386.000000,1649344670.933896,0.000000,0.000000,1.000000,0.000000,0.000000,0.000000,0.000000,7.867613,2.419117,-0.488879
1649344671.032456,6387.000000,1649344671.032244,0.000000,0.000000,1.000000,0.000000,0.000000,0.000000,0.000000,7.865149,2.424055,-0.512033
1649344671.137121,6388.000000,1649344671.136198,0.000000,0.000000,1.000000,0.000000,0.000000,0.000000,0.000000,7.861769,2.426499,-0.542123
1649344671.232524,6389.000000,1649344671.232254,0.000000,0.000000,1.000000,0.000000,0.000000,0.000000,0.000000,7.858619,2.428762,-0.563504
1649344671.333912,6390.000000,1649344671.333230,0.000000,0.000000,1.000000,0.000000,0.000000,0.000000,0.000000,7.856787,2.429759,-0.591824
1649344671.434961,6391.000000,1649344671.434236,0.000000,0.000000,1.000000,0.000000,0.000000,0.000000,0.000000,7.854021,2.431738,-0.620314
1649344671.533014,6392.000000,1649344671.532552,0.000000,0.000000,1.000000,0.000000,0.000000,0.000000,0.000000,7.852559,2.433554,-0.640867
1649344671.633462,6393.000000,1649344671.633101,0.000000,0.000000,1.000000,0.000000,0.000000,0.000000,0.000000,7.850150,2.435213,-0.653783
1649344671.733287,6394.000000,1649344671.733007,0.000000,0.000000,1.000000,0.000000,0.000000,0.000000,0.000000,7.849030,2.437811,-0.660976
1649344671.834727,6395.000000,1649344671.833938,0.000000,0.000000,1.000000,0.000000,0.000000,0.000000,0.000000,7.853490,2.432570,-0.632839
1649344671.934438,6396.000000,1649344671.933922,0.000000,0.000000,1.000000,0.000000,0.000000,0.000000,0.000000,7.856666,2.428659,-0.625700
1649344672.032709,6397.000000,1649344672.032391,0.000000,0.000000,1.000000,0.000000,0.000000,0.000000,0.000000,7.857525,2.424932,-0.620188
1649344672.135235,6398.000000,1649344672.134640,0.000000,0.000000,1.000000,0.000000,0.000000,0.000000,0.000000,7.857279,2.422482,-0.618677
1649344672.233060,6399.000000,1649344672.232733,0.000000,0.000000,1.000000,0.000000,0.000000,0.000000,0.000000,7.855986,2.421248,-0.618600
1649344672.336035,6400.000000,1649344672.334158,0.000000,0.000000,1.000000,0.000000,0.000000,0.000000,0.000000,7.853705,2.421168,-0.618297
1649344672.433809,6401.000000,1649344672.432895,0.000000,0.000000,1.000000,0.000000,0.000000,0.000000,0.000000,7.852678,2.420000,-0.620206
1649344672.536791,6402.000000,1649344672.535993,0.000000,0.000000,1.000000,0.000000,0.000000,0.000000,0.000000,7.850656,2.421076,-0.619406
1649344672.636643,6403.000000,1649344672.635878,0.000000,0.000000,1.000000,0.000000,0.000000,0.000000,0.000000,7.849877,2.423182,-0.631338
1649344672.736035,6404.000000,1649344672.735451,0.000000,0.000000,1.000000,0.000000,0.000000,0.000000,0.000000,7.849184,2.426254,-0.632090
1649344672.832457,6405.000000,1649344672.832201,0.000000,0.000000,1.000000,0.000000,0.000000,0.000000,0.000000,7.848571,2.429140,-0.631799
1649344672.933523,6406.000000,1649344672.933124,0.000000,0.000000,1.000000,0.000000,0.000000,0.000000,0.000000,7.846945,2.431844,-0.624871
1649344673.032316,6407.000000,1649344673.032152,0.000000,0.000000,1.000000,0.000000,0.000000,0.000000,0.000000,7.844361,2.435457,-0.617237
1649344673.135219,6408.000000,1649344673.134589,0.000000,0.000000,1.000000,0.000000,0.000000,0.000000,0.000000,7.841969,2.437740,-0.624270
1649344673.233232,6409.000000,1649344673.232769,0.000000,0.000000,1.000000,0.000000,0.000000,0.000000,0.000000,7.840852,2.438761,-0.630857
1649344673.336822,6410.000000,1649344673.335950,0.000000,0.000000,1.000000,0.000000,0.000000,0.000000,0.000000,7.839852,2.440769,-0.632979
1649344673.433051,6411.000000,1649344673.432758,0.000000,0.000000,1.000000,0.000000,0.000000,0.000000,0.000000,7.838962,2.442616,-0.625175
1649344673.535702,6412.000000,1649344673.534888,0.000000,0.000000,1.000000,0.000000,0.000000,0.000000,0.000000,7.844718,2.437765,-0.596574
1649344673.634310,6413.000000,1649344673.633613,0.000000,0.000000,1.000000,0.000000,0.000000,0.000000,0.000000,7.848013,2.434234,-0.585972
1649344673.734284,6414.000000,1649344673.733650,0.000000,0.000000,1.000000,0.000000,0.000000,0.000000,0.000000,7.850060,2.431962,-0.591860
1649344673.832877,6415.000000,1649344673.832595,0.000000,0.000000,1.000000,0.000000,0.000000,0.000000,0.000000,7.852010,2.431981,-0.591790
1649344673.932531,6416.000000,1649344673.932318,0.000000,0.000000,1.000000,0.000000,0.000000,0.000000,0.000000,7.852769,2.431985,-0.588427
1649344674.033321,6417.000000,1649344674.032884,0.000000,0.000000,1.000000,0.000000,0.000000,0.000000,0.000000,7.852401,2.431976,-0.579492
1649344674.137768,6418.000000,1649344674.136981,0.000000,0.000000,1.000000,0.000000,0.000000,0.000000,0.000000,7.853148,2.433047,-0.583775
1649344674.237062,6419.000000,1649344674.235849,0.000000,0.000000,1.000000,0.000000,0.000000,0.000000,0.000000,7.852767,2.434044,-0.588643
1649344674.334709,6420.000000,1649344674.334163,0.000000,0.000000,1.000000,0.000000,0.000000,0.000000,0.000000,7.851319,2.436060,-0.591645
1649344674.435143,6421.000000,1649344674.434603,0.000000,0.000000,1.000000,0.000000,0.000000,0.000000,0.000000,7.849958,2.436854,-0.606564
1649344674.535318,6422.000000,1649344674.534876,0.000000,0.000000,1.000000,0.000000,0.000000,0.000000,0.000000,7.855225,2.431039,-0.581284
1649344674.634687,6423.000000,1649344674.633929,0.000000,0.000000,1.000000,0.000000,0.000000,0.000000,0.000000,7.858018,2.426627,-0.565051
1649344674.732582,6424.000000,1649344674.732373,0.000000,0.000000,1.000000,0.000000,0.000000,0.000000,0.000000,7.859555,2.423556,-0.565596
1649344674.833227,6425.000000,1649344674.832890,0.000000,0.000000,1.000000,0.000000,0.000000,0.000000,0.000000,7.860991,2.422852,-0.565305
1649344674.935282,6426.000000,1649344674.934591,0.000000,0.000000,1.000000,0.000000,0.000000,0.000000,0.000000,7.861235,2.424388,-0.565020
1649344675.032840,6427.000000,1649344675.032560,0.000000,0.000000,1.000000,0.000000,0.000000,0.000000,0.000000,7.861446,2.424765,-0.577644
1649344675.132986,6428.000000,1649344675.132514,0.000000,0.000000,1.000000,0.000000,0.000000,0.000000,0.000000,7.867076,2.417500,-0.555055
1649344675.232998,6429.000000,1649344675.232702,0.000000,0.000000,1.000000,0.000000,0.000000,0.000000,0.000000,7.869092,2.413937,-0.537421
1649344675.336066,6430.000000,1649344675.335200,0.000000,0.000000,1.000000,0.000000,0.000000,0.000000,0.000000,7.869865,2.412793,-0.529411
1649344675.432732,6431.000000,1649344675.432441,0.000000,0.000000,1.000000,0.000000,0.000000,0.000000,0.000000,7.868375,2.411756,-0.522585
1649344675.534516,6432.000000,1649344675.533592,0.000000,0.000000,1.000000,0.000000,0.000000,0.000000,0.000000,7.866932,2.413001,-0.514484
1649344675.632520,6433.000000,1649344675.632311,0.000000,0.000000,1.000000,0.000000,0.000000,0.000000,0.000000,7.865539,2.415308,-0.522106
1649344675.735334,6434.000000,1649344675.734502,0.000000,0.000000,1.000000,0.000000,0.000000,0.000000,0.000000,7.863110,2.416429,-0.539157
1649344675.835475,6435.000000,1649344675.834434,0.000000,0.000000,1.000000,0.000000,0.000000,0.000000,0.000000,7.859710,2.419694,-0.546676
1649344675.934407,6436.000000,1649344675.933609,0.000000,0.000000,1.000000,0.000000,0.000000,0.000000,0.000000,7.856494,2.423883,-0.550680
1649344676.035096,6437.000000,1649344676.034673,0.000000,0.000000,1.000000,0.000000,0.000000,0.000000,0.000000,7.853461,2.426753,-0.553722
1649344676.133646,6438.000000,1649344676.133107,0.000000,0.000000,1.000000,0.000000,0.000000,0.000000,0.000000,7.851703,2.429456,-0.555028
1649344676.234439,6439.000000,1649344676.233263,0.000000,0.000000,1.000000,0.000000,0.000000,0.000000,0.000000,7.850062,2.434175,-0.550634
1649344676.334856,6440.000000,1649344676.334336,0.000000,0.000000,1.000000,0.000000,0.000000,0.000000,0.000000,7.847446,2.438604,-0.539166
1649344676.437035,6441.000000,1649344676.436304,0.000000,0.000000,1.000000,0.000000,0.000000,0.000000,0.000000,7.851549,2.436206,-0.496732
1649344676.540212,6442.000000,1649344676.539666,0.000000,0.000000,1.000000,0.000000,0.000000,0.000000,0.000000,7.853265,2.434994,-0.479492
1649344676.637449,6443.000000,1649344676.636873,0.000000,0.000000,1.000000,0.000000,0.000000,0.000000,0.000000,7.853809,2.433821,-0.469519
1649344676.734976,6444.000000,1649344676.734249,0.000000,0.000000,1.000000,0.000000,0.000000,0.000000,0.000000,7.854332,2.432688,-0.474596
1649344676.832680,6445.000000,1649344676.832468,0.000000,0.000000,1.000000,0.000000,0.000000,0.000000,0.000000,7.852654,2.431599,-0.477975
1649344676.936051,6446.000000,1649344676.935455,0.000000,0.000000,1.000000,0.000000,0.000000,0.000000,0.000000,7.851078,2.430556,-0.480519
1649344677.035512,6447.000000,1649344677.034623,0.000000,0.000000,1.000000,0.000000,0.000000,0.000000,0.000000,7.850696,2.430650,-0.483866
1649344677.134529,6448.000000,1649344677.134291,0.000000,0.000000,1.000000,0.000000,0.000000,0.000000,0.000000,7.849260,2.431821,-0.485555
1649344677.233621,6449.000000,1649344677.233302,0.000000,0.000000,1.000000,0.000000,0.000000,0.000000,0.000000,7.846832,2.432915,-0.484838
1649344677.332792,6450.000000,1649344677.332499,0.000000,0.000000,1.000000,0.000000,0.000000,0.000000,0.000000,7.845653,2.433935,-0.498747
1649344677.433851,6451.000000,1649344677.433275,0.000000,0.000000,1.000000,0.000000,0.000000,0.000000,0.000000,7.843477,2.435972,-0.501665
