__time,/dwm1001/id_458E/pose_kf/header/seq,/dwm1001/id_458E/pose_kf/header/stamp,/dwm1001/id_458E/pose_kf/pose/orientation/pitch_deg,/dwm1001/id_458E/pose_kf/pose/orientation/roll_deg,/dwm1001/id_458E/pose_kf/pose/orientation/w,/dwm1001/id_458E/pose_kf/pose/orientation/x,/dwm1001/id_458E/pose_kf/pose/orientation/y,/dwm1001/id_458E/pose_kf/pose/orientation/yaw_deg,/dwm1001/id_458E/pose_kf/pose/orientation/z,/dwm1001/id_458E/pose_kf/pose/position/x,/dwm1001/id_458E/pose_kf/pose/position/y,/dwm1001/id_458E/pose_kf/pose/position/z
1649344347.132977,3148.000000,1649344347.132667,0.000000,0.000000,1.000000,0.000000,0.000000,0.000000,0.000000,7.832297,2.452456,-0.441692
1649344347.233096,3149.000000,1649344347.232817,0.000000,0.000000,1.000000,0.000000,0.000000,0.000000,0.000000,7.832830,2.453990,-0.468033
1649344347.332293,3150.000000,1649344347.332178,0.000000,0.000000,1.000000,0.000000,0.000000,0.000000,0.000000,7.832260,2.454305,-0.481949
1649344347.433484,3151.000000,1649344347.432970,0.000000,0.000000,1.000000,0.000000,0.000000,0.000000,0.000000,7.831737,2.455648,-0.490372
1649344347.533500,3152.000000,1649344347.533123,0.000000,0.000000,1.000000,0.000000,0.000000,0.000000,0.000000,7.831260,2.457963,-0.498352
1649344347.632519,3153.000000,1649344347.632283,0.000000,0.000000,1.000000,0.000000,0.000000,0.000000,0.000000,7.830828,2.460101,-0.502671
1649344347.733236,3154.000000,1649344347.732911,0.000000,0.000000,1.000000,0.000000,0.000000,0.000000,0.000000,7.831528,2.462068,-0.504282
1649344347.832725,3155.000000,1649344347.832503,0.000000,0.000000,1.000000,0.000000,0.000000,0.000000,0.000000,7.830024,2.462781,-0.497649
1649344347.934433,3156.000000,1649344347.933774,0.000000,0.000000,1.000000,0.000000,0.000000,0.000000,0.000000,7.829711,2.463398,-0.496026
1649344348.034245,3157.000000,1649344348.033757,0.000000,0.000000,1.000000,0.000000,0.000000,0.000000,0.000000,7.829434,2.463926,-0.507280
1649344348.132694,3158.000000,1649344348.132491,0.000000,0.000000,1.000000,0.000000,0.000000,0.000000,0.000000,7.829191,2.465463,-0.512330
1649344348.238420,3159.000000,1649344348.237303,0.000000,0.000000,1.000000,0.000000,0.000000,0.000000,0.000000,7.828980,2.465770,-0.529970
1649344348.340461,3160.000000,1649344348.335123,0.000000,0.000000,1.000000,0.000000,0.000000,0.000000,0.000000,7.828798,2.466007,-0.555634
1649344348.432948,3161.000000,1649344348.432590,0.000000,0.000000,1.000000,0.000000,0.000000,0.000000,0.000000,7.828643,2.466181,-0.571220
1649344348.535208,3162.000000,1649344348.534750,0.000000,0.000000,1.000000,0.000000,0.000000,0.000000,0.000000,7.827424,2.467387,-0.575502
1649344348.637794,3163.000000,1649344348.636710,0.000000,0.000000,1.000000,0.000000,0.000000,0.000000,0.000000,7.826291,2.468478,-0.571355
1649344348.733699,3164.000000,1649344348.733210,0.000000,0.000000,1.000000,0.000000,0.000000,0.000000,0.000000,7.825241,2.469460,-0.565587
1649344348.833177,3165.000000,1649344348.832924,0.000000,0.000000,1.000000,0.000000,0.000000,0.000000,0.000000,7.824273,2.469248,-0.560698
1649344348.934793,3166.000000,1649344348.933686,0.000000,0.000000,1.000000,0.000000,0.000000,0.000000,0.000000,7.823384,2.470091,-0.570378
1649344349.034452,3167.000000,1649344349.033261,0.000000,0.000000,1.000000,0.000000,0.000000,0.000000,0.000000,7.829113,2.463209,-0.544029
1649344349.134768,3168.000000,1649344349.133898,0.000000,0.000000,1.000000,0.000000,0.000000,0.000000,0.000000,7.832356,2.459950,-0.518640
1649344349.233009,3169.000000,1649344349.232798,0.000000,0.000000,1.000000,0.000000,0.000000,0.000000,0.000000,7.834330,2.459040,-0.493411
1649344349.335137,3170.000000,1649344349.334825,0.000000,0.000000,1.000000,0.000000,0.000000,0.000000,0.000000,7.835096,2.459262,-0.468381
1649344349.432986,3171.000000,1649344349.432711,0.000000,0.000000,1.000000,0.000000,0.000000,0.000000,0.000000,7.836901,2.460555,-0.448425
1649344349.533938,3172.000000,1649344349.533533,0.000000,0.000000,1.000000,0.000000,0.000000,0.000000,0.000000,7.838590,2.460676,-0.439822
1649344349.632861,3173.000000,1649344349.632599,0.000000,0.000000,1.000000,0.000000,0.000000,0.000000,0.000000,7.840168,2.460779,-0.447771
1649344349.733377,3174.000000,1649344349.733107,0.000000,0.000000,1.000000,0.000000,0.000000,0.000000,0.000000,7.841635,2.459776,-0.468362
1649344349.834641,3175.000000,1649344349.834044,0.000000,0.000000,1.000000,0.000000,0.000000,0.000000,0.000000,7.842995,2.459911,-0.487340
1649344349.933780,3176.000000,1649344349.933439,0.000000,0.000000,1.000000,0.000000,0.000000,0.000000,0.000000,7.844251,2.458942,-0.514413
1649344350.032954,3177.000000,1649344350.032712,0.000000,0.000000,1.000000,0.000000,0.000000,0.000000,0.000000,7.845406,2.456932,-0.548403
1649344350.133184,3178.000000,1649344350.132836,0.000000,0.000000,1.000000,0.000000,0.000000,0.000000,0.000000,7.845373,2.457215,-0.567202
1649344350.234790,3179.000000,1649344350.234257,0.000000,0.000000,1.000000,0.000000,0.000000,0.000000,0.000000,7.845311,2.457484,-0.580266
1649344350.335345,3180.000000,1649344350.334326,0.000000,0.000000,1.000000,0.000000,0.000000,0.000000,0.000000,7.851764,2.451198,-0.556358
1649344350.433974,3181.000000,1649344350.433421,0.000000,0.000000,1.000000,0.000000,0.000000,0.000000,0.000000,7.856726,2.447456,-0.550241
1649344350.533303,3182.000000,1649344350.532995,0.000000,0.000000,1.000000,0.000000,0.000000,0.000000,0.000000,7.867899,2.436317,-0.509600
1649344350.633624,3183.000000,1649344350.633014,0.000000,0.000000,1.000000,0.000000,0.000000,0.000000,0.000000,7.875100,2.426939,-0.494770
1649344350.736219,3184.000000,1649344350.733816,0.000000,0.000000,1.000000,0.000000,0.000000,0.000000,0.000000,7.878526,2.421434,-0.486996
1649344350.832658,3185.000000,1649344350.832379,0.000000,0.000000,1.000000,0.000000,0.000000,0.000000,0.000000,7.879471,2.419602,-0.477134
1649344350.934831,3186.000000,1649344350.934201,0.000000,0.000000,1.000000,0.000000,0.000000,0.000000,0.000000,7.879162,2.417973,-0.464479
1649344351.032549,3187.000000,1649344351.032323,0.000000,0.000000,1.000000,0.000000,0.000000,0.000000,0.000000,7.876586,2.417624,-0.452388
1649344351.133708,3188.000000,1649344351.133281,0.000000,0.000000,1.000000,0.000000,0.000000,0.000000,0.000000,7.874060,2.418482,-0.445696
1649344351.232608,3189.000000,1649344351.232386,0.000000,0.000000,1.000000,0.000000,0.000000,0.000000,0.000000,7.871596,2.420472,-0.453871
1649344351.332947,3190.000000,1649344351.332699,0.000000,0.000000,1.000000,0.000000,0.000000,0.000000,0.000000,7.869201,2.421340,-0.464200
1649344351.432933,3191.000000,1649344351.432646,0.000000,0.000000,1.000000,0.000000,0.000000,0.000000,0.000000,7.865793,2.423322,-0.469318
1649344351.533245,3192.000000,1649344351.532945,0.000000,0.000000,1.000000,0.000000,0.000000,0.000000,0.000000,7.862532,2.424165,-0.487166
1649344351.632819,3193.000000,1649344351.632500,0.000000,0.000000,1.000000,0.000000,0.000000,0.000000,0.000000,7.858331,2.423925,-0.510747
1649344351.733143,3194.000000,1649344351.732687,0.000000,0.000000,1.000000,0.000000,0.000000,0.000000,0.000000,7.855438,2.424840,-0.541404
1649344351.833130,3195.000000,1649344351.832909,0.000000,0.000000,1.000000,0.000000,0.000000,0.000000,0.000000,7.851609,2.425751,-0.559447
1649344351.933092,3196.000000,1649344351.932822,0.000000,0.000000,1.000000,0.000000,0.000000,0.000000,0.000000,7.856722,2.417929,-0.536323
1649344352.032880,3197.000000,1649344352.032607,0.000000,0.000000,1.000000,0.000000,0.000000,0.000000,0.000000,7.859369,2.411685,-0.533415
1649344352.132968,3198.000000,1649344352.132629,0.000000,0.000000,1.000000,0.000000,0.000000,0.000000,0.000000,7.859677,2.409132,-0.542657
1649344352.234884,3199.000000,1649344352.234257,0.000000,0.000000,1.000000,0.000000,0.000000,0.000000,0.000000,7.858863,2.408980,-0.546611
1649344352.332518,3200.000000,1649344352.332326,0.000000,0.000000,1.000000,0.000000,0.000000,0.000000,0.000000,7.858081,2.407823,-0.562422
1649344352.432423,3201.000000,1649344352.432273,0.000000,0.000000,1.000000,0.000000,0.000000,0.000000,0.000000,7.856244,2.408988,-0.587170
1649344352.536908,3202.000000,1649344352.535522,0.000000,0.000000,1.000000,0.000000,0.000000,0.000000,0.000000,7.855595,2.410157,-0.606747
1649344352.634133,3203.000000,1649344352.633396,0.000000,0.000000,1.000000,0.000000,0.000000,0.000000,0.000000,7.853891,2.411324,-0.632624
1649344352.733838,3204.000000,1649344352.733259,0.000000,0.000000,1.000000,0.000000,0.000000,0.000000,0.000000,7.853376,2.412481,-0.655640
1649344352.834378,3205.000000,1649344352.834060,0.000000,0.000000,1.000000,0.000000,0.000000,0.000000,0.000000,7.851806,2.413622,-0.674267
1649344352.932663,3206.000000,1649344352.932464,0.000000,0.000000,1.000000,0.000000,0.000000,0.000000,0.000000,7.849242,2.415832,-0.683015
1649344353.034456,3207.000000,1649344353.033857,0.000000,0.000000,1.000000,0.000000,0.000000,0.000000,0.000000,7.846837,2.417954,-0.683891
1649344353.132357,3208.000000,1649344353.132219,0.000000,0.000000,1.000000,0.000000,0.000000,0.000000,0.000000,7.844588,2.421073,-0.678028
1649344353.233073,3209.000000,1649344353.232800,0.000000,0.000000,1.000000,0.000000,0.000000,0.000000,0.000000,7.851215,2.415311,-0.635879
1649344353.332311,3210.000000,1649344353.332179,0.000000,0.000000,1.000000,0.000000,0.000000,0.000000,0.000000,7.855309,2.412072,-0.603344
1649344353.432484,3211.000000,1649344353.432282,0.000000,0.000000,1.000000,0.000000,0.000000,0.000000,0.000000,7.861356,2.405777,-0.550256
1649344353.533457,3212.000000,1649344353.533088,0.000000,0.000000,1.000000,0.000000,0.000000,0.000000,0.000000,7.864868,2.402061,-0.514636
1649344353.634459,3213.000000,1649344353.633973,0.000000,0.000000,1.000000,0.000000,0.000000,0.000000,0.000000,7.867066,2.400793,-0.488582
1649344353.732552,3214.000000,1649344353.732385,0.000000,0.000000,1.000000,0.000000,0.000000,0.000000,0.000000,7.868014,2.401838,-0.466104
1649344353.834216,3215.000000,1649344353.833659,0.000000,0.000000,1.000000,0.000000,0.000000,0.000000,0.000000,7.866692,2.403974,-0.462414
1649344353.932806,3216.000000,1649344353.932622,0.000000,0.000000,1.000000,0.000000,0.000000,0.000000,0.000000,7.864317,2.406041,-0.471916
1649344354.035504,3217.000000,1649344354.034762,0.000000,0.000000,1.000000,0.000000,0.000000,0.000000,0.000000,7.863140,2.408033,-0.481155
1649344354.132646,3218.000000,1649344354.132267,0.000000,0.000000,1.000000,0.000000,0.000000,0.000000,0.000000,7.860917,2.409946,-0.488506
1649344354.232901,3219.000000,1649344354.232429,0.000000,0.000000,1.000000,0.000000,0.000000,0.000000,0.000000,7.858805,2.412867,-0.498868
1649344354.332984,3220.000000,1649344354.332769,0.000000,0.000000,1.000000,0.000000,0.000000,0.000000,0.000000,7.856805,2.416731,-0.506453
1649344354.434299,3221.000000,1649344354.433944,0.000000,0.000000,1.000000,0.000000,0.000000,0.000000,0.000000,7.853827,2.420383,-0.506520
1649344354.533488,3222.000000,1649344354.532915,0.000000,0.000000,1.000000,0.000000,0.000000,0.000000,0.000000,7.851024,2.422733,-0.506627
1649344354.633821,3223.000000,1649344354.633356,0.000000,0.000000,1.000000,0.000000,0.000000,0.000000,0.000000,7.847304,2.426025,-0.501932
1649344354.733826,3224.000000,1649344354.733540,0.000000,0.000000,1.000000,0.000000,0.000000,0.000000,0.000000,7.843818,2.429110,-0.495860
1649344354.832858,3225.000000,1649344354.832443,0.000000,0.000000,1.000000,0.000000,0.000000,0.000000,0.000000,7.841652,2.433079,-0.491702
1649344354.933634,3226.000000,1649344354.933285,0.000000,0.000000,1.000000,0.000000,0.000000,0.000000,0.000000,7.846191,2.428063,-0.454707
1649344355.038058,3227.000000,1649344355.037117,0.000000,0.000000,1.000000,0.000000,0.000000,0.000000,0.000000,7.857054,2.416748,-0.394323
1649344355.133352,3228.000000,1649344355.132884,0.000000,0.000000,1.000000,0.000000,0.000000,0.000000,0.000000,7.864046,2.409330,-0.351914
1649344355.233238,3229.000000,1649344355.232913,0.000000,0.000000,1.000000,0.000000,0.000000,0.000000,0.000000,7.867356,2.404528,-0.336494
1649344355.333029,3230.000000,1649344355.332718,0.000000,0.000000,1.000000,0.000000,0.000000,0.000000,0.000000,7.868267,2.401123,-0.330056
1649344355.433075,3231.000000,1649344355.432801,0.000000,0.000000,1.000000,0.000000,0.000000,0.000000,0.000000,7.867999,2.401227,-0.330622
1649344355.540544,3232.000000,1649344355.535202,0.000000,0.000000,1.000000,0.000000,0.000000,0.000000,0.000000,7.867710,2.402465,-0.346768
1649344355.632789,3233.000000,1649344355.632529,0.000000,0.000000,1.000000,0.000000,0.000000,0.000000,0.000000,7.866314,2.404769,-0.374601
1649344355.737663,3234.000000,1649344355.734633,0.000000,0.000000,1.000000,0.000000,0.000000,0.000000,0.000000,7.864967,2.405891,-0.410367
1649344355.832656,3235.000000,1649344355.832198,0.000000,0.000000,1.000000,0.000000,0.000000,0.000000,0.000000,7.863673,2.409159,-0.435936
1649344355.933020,3236.000000,1649344355.932684,0.000000,0.000000,1.000000,0.000000,0.000000,0.000000,0.000000,7.862434,2.411175,-0.469412
1649344356.034126,3237.000000,1649344356.033585,0.000000,0.000000,1.000000,0.000000,0.000000,0.000000,0.000000,7.860162,2.413090,-0.487837
1649344356.133621,3238.000000,1649344356.133184,0.000000,0.000000,1.000000,0.000000,0.000000,0.000000,0.000000,7.858010,2.414902,-0.514366
1649344356.238298,3239.000000,1649344356.237587,0.000000,0.000000,1.000000,0.000000,0.000000,0.000000,0.000000,7.861432,2.411159,-0.501048
1649344356.336059,3240.000000,1649344356.334610,0.000000,0.000000,1.000000,0.000000,0.000000,0.000000,0.000000,7.863570,2.408719,-0.484192
1649344356.432814,3241.000000,1649344356.432503,0.000000,0.000000,1.000000,0.000000,0.000000,0.000000,0.000000,7.864488,2.407518,-0.475261
1649344356.535161,3242.000000,1649344356.534559,0.000000,0.000000,1.000000,0.000000,0.000000,0.000000,0.000000,7.864250,2.408581,-0.465888
1649344356.632459,3243.000000,1649344356.632208,0.000000,0.000000,1.000000,0.000000,0.000000,0.000000,0.000000,7.862920,2.410691,-0.460943
1649344356.733946,3244.000000,1649344356.733473,0.000000,0.000000,1.000000,0.000000,0.000000,0.000000,0.000000,7.860565,2.413782,-0.454612
1649344356.833174,3245.000000,1649344356.832778,0.000000,0.000000,1.000000,0.000000,0.000000,0.000000,0.000000,7.857246,2.416701,-0.451798
1649344356.933155,3246.000000,1649344356.932662,0.000000,0.000000,1.000000,0.000000,0.000000,0.000000,0.000000,7.854117,2.419449,-0.450750
1649344357.033835,3247.000000,1649344357.033283,0.000000,0.000000,1.000000,0.000000,0.000000,0.000000,0.000000,7.851178,2.420936,-0.464300
1649344357.134212,3248.000000,1649344357.133788,0.000000,0.000000,1.000000,0.000000,0.000000,0.000000,0.000000,7.848426,2.423408,-0.475706
1649344357.232538,3249.000000,1649344357.232311,0.000000,0.000000,1.000000,0.000000,0.000000,0.000000,0.000000,7.845859,2.425715,-0.484228
1649344357.334195,3250.000000,1649344357.333417,0.000000,0.000000,1.000000,0.000000,0.000000,0.000000,0.000000,7.843471,2.427860,-0.503678
1649344357.434295,3251.000000,1649344357.433702,0.000000,0.000000,1.000000,0.000000,0.000000,0.000000,0.000000,7.840169,2.429848,-0.515035
1649344357.533873,3252.000000,1649344357.533566,0.000000,0.000000,1.000000,0.000000,0.000000,0.000000,0.000000,7.838190,2.431683,-0.524252
1649344357.632883,3253.000000,1649344357.632688,0.000000,0.000000,1.000000,0.000000,0.000000,0.000000,0.000000,7.835285,2.433370,-0.532211
1649344357.734689,3254.000000,1649344357.734231,0.000000,0.000000,1.000000,0.000000,0.000000,0.000000,0.000000,7.833691,2.434915,-0.551854
1649344357.833793,3255.000000,1649344357.833354,0.000000,0.000000,1.000000,0.000000,0.000000,0.000000,0.000000,7.832248,2.436324,-0.564133
1649344357.934758,3256.000000,1649344357.934231,0.000000,0.000000,1.000000,0.000000,0.000000,0.000000,0.000000,7.830947,2.439783,-0.574975
1649344358.032573,3257.000000,1649344358.032353,0.000000,0.000000,1.000000,0.000000,0.000000,0.000000,0.000000,7.837416,2.433178,-0.547327
1649344358.134944,3258.000000,1649344358.134012,0.000000,0.000000,1.000000,0.000000,0.000000,0.000000,0.000000,7.841392,2.429077,-0.519890
1649344358.233419,3259.000000,1649344358.233116,0.000000,0.000000,1.000000,0.000000,0.000000,0.000000,0.000000,7.844087,2.427358,-0.512870
1649344358.334512,3260.000000,1649344358.334121,0.000000,0.000000,1.000000,0.000000,0.000000,0.000000,0.000000,7.844470,2.425717,-0.506100
1649344358.438030,3261.000000,1649344358.436854,0.000000,0.000000,1.000000,0.000000,0.000000,0.000000,0.000000,7.843756,2.425246,-0.497165
1649344358.533111,3262.000000,1649344358.532789,0.000000,0.000000,1.000000,0.000000,0.000000,0.000000,0.000000,7.840916,2.425884,-0.488588
1649344358.636391,3263.000000,1649344358.635375,0.000000,0.000000,1.000000,0.000000,0.000000,0.000000,0.000000,7.839344,2.427569,-0.481981
1649344358.732941,3264.000000,1649344358.732713,0.000000,0.000000,1.000000,0.000000,0.000000,0.000000,0.000000,7.837885,2.429149,-0.491791
1649344358.835966,3265.000000,1649344358.835510,0.000000,0.000000,1.000000,0.000000,0.000000,0.000000,0.000000,7.836535,2.426263,-0.495567
1649344358.933340,3266.000000,1649344358.932870,0.000000,0.000000,1.000000,0.000000,0.000000,0.000000,0.000000,7.834201,2.425707,-0.495962
1649344359.034122,3267.000000,1649344359.033591,0.000000,0.000000,1.000000,0.000000,0.000000,0.000000,0.000000,7.832032,2.425175,-0.507630
1649344359.133367,3268.000000,1649344359.132942,0.000000,0.000000,1.000000,0.000000,0.000000,0.000000,0.000000,7.830023,2.425760,-0.511547
1649344359.233446,3269.000000,1649344359.233050,0.000000,0.000000,1.000000,0.000000,0.000000,0.000000,0.000000,7.828171,2.427398,-0.506408
1649344359.332731,3270.000000,1649344359.332549,0.000000,0.000000,1.000000,0.000000,0.000000,0.000000,0.000000,7.827560,2.430027,-0.505490
1649344359.433621,3271.000000,1649344359.433120,0.000000,0.000000,1.000000,0.000000,0.000000,0.000000,0.000000,7.828121,2.431404,-0.518304
1649344359.534067,3272.000000,1649344359.533623,0.000000,0.000000,1.000000,0.000000,0.000000,0.000000,0.000000,7.829786,2.432686,-0.541049
1649344359.632231,3273.000000,1649344359.632061,0.000000,0.000000,1.000000,0.000000,0.000000,0.000000,0.000000,7.830306,2.434964,-0.553932
1649344359.734587,3274.000000,1649344359.733948,0.000000,0.000000,1.000000,0.000000,0.000000,0.000000,0.000000,7.829740,2.437088,-0.562171
1649344359.833483,3275.000000,1649344359.832901,0.000000,0.000000,1.000000,0.000000,0.000000,0.000000,0.000000,7.829238,2.439062,-0.571589
1649344359.933123,3276.000000,1649344359.932494,0.000000,0.000000,1.000000,0.000000,0.000000,0.000000,0.000000,7.829885,2.441980,-0.581319
1649344360.034328,3277.000000,1649344360.033345,0.000000,0.000000,1.000000,0.000000,0.000000,0.000000,0.000000,7.829435,2.444694,-0.580854
1649344360.135835,3278.000000,1649344360.134556,0.000000,0.000000,1.000000,0.000000,0.000000,0.000000,0.000000,7.829038,2.446117,-0.582708
1649344360.233377,3279.000000,1649344360.233082,0.000000,0.000000,1.000000,0.000000,0.000000,0.000000,0.000000,7.827600,2.449590,-0.581143
1649344360.332749,3280.000000,1649344360.332536,0.000000,0.000000,1.000000,0.000000,0.000000,0.000000,0.000000,7.826270,2.452813,-0.592434
1649344360.432970,3281.000000,1649344360.432773,0.000000,0.000000,1.000000,0.000000,0.000000,0.000000,0.000000,7.826137,2.454702,-0.598307
1649344360.536035,3282.000000,1649344360.534401,0.000000,0.000000,1.000000,0.000000,0.000000,0.000000,0.000000,7.824952,2.455329,-0.598974
1649344360.636847,3283.000000,1649344360.635464,0.000000,0.000000,1.000000,0.000000,0.000000,0.000000,0.000000,7.823865,2.455853,-0.595458
1649344360.732689,3284.000000,1649344360.732261,0.000000,0.000000,1.000000,0.000000,0.000000,0.000000,0.000000,7.829415,2.450832,-0.556485
1649344360.833849,3285.000000,1649344360.833449,0.000000,0.000000,1.000000,0.000000,0.000000,0.000000,0.000000,7.839039,2.439496,-0.493233
1649344360.934879,3286.000000,1649344360.934057,0.000000,0.000000,1.000000,0.000000,0.000000,0.000000,0.000000,7.845943,2.432041,-0.445500
1649344361.032725,3287.000000,1649344361.032462,0.000000,0.000000,1.000000,0.000000,0.000000,0.000000,0.000000,7.850253,2.429370,-0.402254
1649344361.133037,3288.000000,1649344361.132614,0.000000,0.000000,1.000000,0.000000,0.000000,0.000000,0.000000,7.861913,2.419235,-0.338382
1649344361.233297,3289.000000,1649344361.232890,0.000000,0.000000,1.000000,0.000000,0.000000,0.000000,0.000000,7.869585,2.412979,-0.291912
1649344361.334394,3290.000000,1649344361.333207,0.000000,0.000000,1.000000,0.000000,0.000000,0.000000,0.000000,7.873466,2.408224,-0.258981
1649344361.434315,3291.000000,1649344361.433797,0.000000,0.000000,1.000000,0.000000,0.000000,0.000000,0.000000,7.875938,2.405991,-0.239085
1649344361.534318,3292.000000,1649344361.534024,0.000000,0.000000,1.000000,0.000000,0.000000,0.000000,0.000000,7.875985,2.406145,-0.223649
1649344361.634115,3293.000000,1649344361.633657,0.000000,0.000000,1.000000,0.000000,0.000000,0.000000,0.000000,7.874837,2.407459,-0.213308
1649344361.732874,3294.000000,1649344361.732598,0.000000,0.000000,1.000000,0.000000,0.000000,0.000000,0.000000,7.872566,2.409862,-0.211889
1649344361.833813,3295.000000,1649344361.833374,0.000000,0.000000,1.000000,0.000000,0.000000,0.000000,0.000000,7.875790,2.404560,-0.192402
1649344361.933311,3296.000000,1649344361.932893,0.000000,0.000000,1.000000,0.000000,0.000000,0.000000,0.000000,7.877662,2.400710,-0.196720
1649344362.033729,3297.000000,1649344362.033148,0.000000,0.000000,1.000000,0.000000,0.000000,0.000000,0.000000,7.878254,2.399329,-0.208535
1649344362.134850,3298.000000,1649344362.134181,0.000000,0.000000,1.000000,0.000000,0.000000,0.000000,0.000000,7.877639,2.399194,-0.221057
1649344362.235565,3299.000000,1649344362.234710,0.000000,0.000000,1.000000,0.000000,0.000000,0.000000,0.000000,7.875890,2.401322,-0.226961
1649344362.336749,3300.000000,1649344362.336114,0.000000,0.000000,1.000000,0.000000,0.000000,0.000000,0.000000,7.873078,2.403399,-0.235361
1649344362.434202,3301.000000,1649344362.433659,0.000000,0.000000,1.000000,0.000000,0.000000,0.000000,0.000000,7.870364,2.405416,-0.259838
1649344362.533802,3302.000000,1649344362.533306,0.000000,0.000000,1.000000,0.000000,0.000000,0.000000,0.000000,7.873208,2.399736,-0.249691
1649344362.632361,3303.000000,1649344362.632056,0.000000,0.000000,1.000000,0.000000,0.000000,0.000000,0.000000,7.885660,2.386792,-0.223259
1649344362.734331,3304.000000,1649344362.733658,0.000000,0.000000,1.000000,0.000000,0.000000,0.000000,0.000000,7.899529,2.371379,-0.173974
1649344362.832476,3305.000000,1649344362.832324,0.000000,0.000000,1.000000,0.000000,0.000000,0.000000,0.000000,7.908157,2.362398,-0.141539
1649344362.933883,3306.000000,1649344362.933281,0.000000,0.000000,1.000000,0.000000,0.000000,0.000000,0.000000,7.912899,2.357338,-0.134993
1649344363.032650,3307.000000,1649344363.032382,0.000000,0.000000,1.000000,0.000000,0.000000,0.000000,0.000000,7.913960,2.354901,-0.133932
1649344363.132932,3308.000000,1649344363.132619,0.000000,0.000000,1.000000,0.000000,0.000000,0.000000,0.000000,7.912637,2.354943,-0.138121
1649344363.233437,3309.000000,1649344363.233134,0.000000,0.000000,1.000000,0.000000,0.000000,0.000000,0.000000,7.910162,2.357318,-0.160229
1649344363.332532,3310.000000,1649344363.332327,0.000000,0.000000,1.000000,0.000000,0.000000,0.000000,0.000000,7.906614,2.360794,-0.180128
1649344363.433139,3311.000000,1649344363.432875,0.000000,0.000000,1.000000,0.000000,0.000000,0.000000,0.000000,7.902070,2.366381,-0.199471
1649344363.533025,3312.000000,1649344363.532579,0.000000,0.000000,1.000000,0.000000,0.000000,0.000000,0.000000,7.896602,2.371759,-0.219047
1649344363.633395,3313.000000,1649344363.632880,0.000000,0.000000,1.000000,0.000000,0.000000,0.000000,0.000000,7.899008,2.369285,-0.203318
1649344363.732546,3314.000000,1649344363.732249,0.000000,0.000000,1.000000,0.000000,0.000000,0.000000,0.000000,7.899039,2.368112,-0.198890
1649344363.833446,3315.000000,1649344363.833107,0.000000,0.000000,1.000000,0.000000,0.000000,0.000000,0.000000,7.897920,2.368169,-0.205306
1649344363.933092,3316.000000,1649344363.932916,0.000000,0.000000,1.000000,0.000000,0.000000,0.000000,0.000000,7.894629,2.371566,-0.207596
1649344364.033179,3317.000000,1649344364.032738,0.000000,0.000000,1.000000,0.000000,0.000000,0.000000,0.000000,7.890389,2.375925,-0.227688
1649344364.132618,3318.000000,1649344364.132406,0.000000,0.000000,1.000000,0.000000,0.000000,0.000000,0.000000,7.885267,2.382266,-0.239825
1649344364.235718,3319.000000,1649344364.234765,0.000000,0.000000,1.000000,0.000000,0.000000,0.000000,0.000000,7.881509,2.388279,-0.253173
1649344364.332973,3320.000000,1649344364.332680,0.000000,0.000000,1.000000,0.000000,0.000000,0.000000,0.000000,7.875781,2.393962,-0.266044
1649344364.432659,3321.000000,1649344364.432434,0.000000,0.000000,1.000000,0.000000,0.000000,0.000000,0.000000,7.878023,2.390592,-0.246175
1649344364.534765,3322.000000,1649344364.534285,0.000000,0.000000,1.000000,0.000000,0.000000,0.000000,0.000000,7.877977,2.390669,-0.232014
1649344364.634680,3323.000000,1649344364.634065,0.000000,0.000000,1.000000,0.000000,0.000000,0.000000,0.000000,7.875769,2.391823,-0.240288
1649344364.733336,3324.000000,1649344364.733077,0.000000,0.000000,1.000000,0.000000,0.000000,0.000000,0.000000,7.872612,2.395083,-0.247494
1649344364.833455,3325.000000,1649344364.832887,0.000000,0.000000,1.000000,0.000000,0.000000,0.000000,0.000000,7.868566,2.399235,-0.268982
1649344364.932423,3326.000000,1649344364.932254,0.000000,0.000000,1.000000,0.000000,0.000000,0.000000,0.000000,7.864782,2.405309,-0.280752
1649344365.033892,3327.000000,1649344365.033494,0.000000,0.000000,1.000000,0.000000,0.000000,0.000000,0.000000,7.861254,2.411002,-0.307367
1649344365.132892,3328.000000,1649344365.132613,0.000000,0.000000,1.000000,0.000000,0.000000,0.000000,0.000000,7.857978,2.416319,-0.329635
1649344365.234187,3329.000000,1649344365.233567,0.000000,0.000000,1.000000,0.000000,0.000000,0.000000,0.000000,7.852764,2.420178,-0.343665
1649344365.333538,3330.000000,1649344365.332916,0.000000,0.000000,1.000000,0.000000,0.000000,0.000000,0.000000,7.849004,2.423741,-0.371541
1649344365.433252,3331.000000,1649344365.432859,0.000000,0.000000,1.000000,0.000000,0.000000,0.000000,0.000000,7.845534,2.425928,-0.398147
1649344365.532692,3332.000000,1649344365.532469,0.000000,0.000000,1.000000,0.000000,0.000000,0.000000,0.000000,7.841254,2.430082,-0.413818
1649344365.632517,3333.000000,1649344365.632324,0.000000,0.000000,1.000000,0.000000,0.000000,0.000000,0.000000,7.844939,2.427367,-0.393169
1649344365.733802,3334.000000,1649344365.733462,0.000000,0.000000,1.000000,0.000000,0.000000,0.000000,0.000000,7.846326,2.426893,-0.374804
1649344365.833921,3335.000000,1649344365.833490,0.000000,0.000000,1.000000,0.000000,0.000000,0.000000,0.000000,7.846620,2.426364,-0.378831
1649344365.933284,3336.000000,1649344365.932957,0.000000,0.000000,1.000000,0.000000,0.000000,0.000000,0.000000,7.845876,2.427971,-0.383377
1649344366.032871,3337.000000,1649344366.032695,0.000000,0.000000,1.000000,0.000000,0.000000,0.000000,0.000000,7.845239,2.428325,-0.403742
1649344366.133038,3338.000000,1649344366.132548,0.000000,0.000000,1.000000,0.000000,0.000000,0.000000,0.000000,7.843610,2.429679,-0.412646
1649344366.235165,3339.000000,1649344366.234339,0.000000,0.000000,1.000000,0.000000,0.000000,0.000000,0.000000,7.842137,2.431977,-0.424252
1649344366.332860,3340.000000,1649344366.332480,0.000000,0.000000,1.000000,0.000000,0.000000,0.000000,0.000000,7.840811,2.432985,-0.448923
1649344366.432604,3341.000000,1649344366.432373,0.000000,0.000000,1.000000,0.000000,0.000000,0.000000,0.000000,7.838534,2.432774,-0.482065
1649344366.533159,3342.000000,1649344366.532762,0.000000,0.000000,1.000000,0.000000,0.000000,0.000000,0.000000,7.840813,2.428144,-0.486192
1649344366.637525,3343.000000,1649344366.636212,0.000000,0.000000,1.000000,0.000000,0.000000,0.000000,0.000000,7.841937,2.425896,-0.491511
1649344366.736237,3344.000000,1649344366.735128,0.000000,0.000000,1.000000,0.000000,0.000000,0.000000,0.000000,7.841962,2.424821,-0.508459
1649344366.833649,3345.000000,1649344366.833159,0.000000,0.000000,1.000000,0.000000,0.000000,0.000000,0.000000,7.840944,2.425951,-0.533322
1649344366.932424,3346.000000,1649344366.932262,0.000000,0.000000,1.000000,0.000000,0.000000,0.000000,0.000000,7.838941,2.428074,-0.550430
1649344367.038519,3347.000000,1649344367.034947,0.000000,0.000000,1.000000,0.000000,0.000000,0.000000,0.000000,7.837100,2.431130,-0.562497
1649344367.134163,3348.000000,1649344367.133622,0.000000,0.000000,1.000000,0.000000,0.000000,0.000000,0.000000,7.835415,2.435062,-0.568914
1649344367.233510,3349.000000,1649344367.232961,0.000000,0.000000,1.000000,0.000000,0.000000,0.000000,0.000000,7.833879,2.438723,-0.586845
1649344367.335686,3350.000000,1649344367.334630,0.000000,0.000000,1.000000,0.000000,0.000000,0.000000,0.000000,7.832487,2.442118,-0.601295
1649344367.433284,3351.000000,1649344367.432887,0.000000,0.000000,1.000000,0.000000,0.000000,0.000000,0.000000,7.838864,2.437623,-0.589006
1649344367.533253,3352.000000,1649344367.532871,0.000000,0.000000,1.000000,0.000000,0.000000,0.000000,0.000000,7.843839,2.434409,-0.576898
1649344367.632862,3353.000000,1649344367.632639,0.000000,0.000000,1.000000,0.000000,0.000000,0.000000,0.000000,7.846382,2.432419,-0.569029
1649344367.733084,3354.000000,1649344367.732647,0.000000,0.000000,1.000000,0.000000,0.000000,0.000000,0.000000,7.847706,2.430505,-0.568480
1649344367.833900,3355.000000,1649344367.833364,0.000000,0.000000,1.000000,0.000000,0.000000,0.000000,0.000000,7.848962,2.429761,-0.582225
1649344367.935108,3356.000000,1649344367.934184,0.000000,0.000000,1.000000,0.000000,0.000000,0.000000,0.000000,7.849061,2.429036,-0.604030
1649344368.033236,3357.000000,1649344368.032918,0.000000,0.000000,1.000000,0.000000,0.000000,0.000000,0.000000,7.849155,2.429424,-0.619835
1649344368.137215,3358.000000,1649344368.135692,0.000000,0.000000,1.000000,0.000000,0.000000,0.000000,0.000000,7.848154,2.431955,-0.627447
1649344368.233604,3359.000000,1649344368.233186,0.000000,0.000000,1.000000,0.000000,0.000000,0.000000,0.000000,7.847210,2.434323,-0.632034
1649344368.336046,3360.000000,1649344368.335183,0.000000,0.000000,1.000000,0.000000,0.000000,0.000000,0.000000,7.846324,2.437621,-0.632110
1649344368.432497,3361.000000,1649344368.432304,0.000000,0.000000,1.000000,0.000000,0.000000,0.000000,0.000000,7.844405,2.440701,-0.632708
1649344368.533295,3362.000000,1649344368.533039,0.000000,0.000000,1.000000,0.000000,0.000000,0.000000,0.000000,7.842604,2.443567,-0.627366
1649344368.636032,3363.000000,1649344368.635450,0.000000,0.000000,1.000000,0.000000,0.000000,0.000000,0.000000,7.839830,2.446223,-0.621990
1649344368.733062,3364.000000,1649344368.732741,0.000000,0.000000,1.000000,0.000000,0.000000,0.000000,0.000000,7.838324,2.448677,-0.630309
1649344368.832620,3365.000000,1649344368.832395,0.000000,0.000000,1.000000,0.000000,0.000000,0.000000,0.000000,7.836929,2.450934,-0.637252
1649344368.932647,3366.000000,1649344368.932417,0.000000,0.000000,1.000000,0.000000,0.000000,0.000000,0.000000,7.834553,2.454093,-0.635613
1649344369.033937,3367.000000,1649344369.033444,0.000000,0.000000,1.000000,0.000000,0.000000,0.000000,0.000000,7.832344,2.457007,-0.633816
1649344369.132773,3368.000000,1649344369.132395,0.000000,0.000000,1.000000,0.000000,0.000000,0.000000,0.000000,7.830299,2.459685,-0.643977
1649344369.233029,3369.000000,1649344369.232673,0.000000,0.000000,1.000000,0.000000,0.000000,0.000000,0.000000,7.829502,2.459955,-0.651089
1649344369.334114,3370.000000,1649344369.333872,0.000000,0.000000,1.000000,0.000000,0.000000,0.000000,0.000000,7.827704,2.461224,-0.660111
1649344369.433544,3371.000000,1649344369.433352,0.000000,0.000000,1.000000,0.000000,0.000000,0.000000,0.000000,7.827145,2.460166,-0.678218
1649344369.534867,3372.000000,1649344369.534571,0.000000,0.000000,1.000000,0.000000,0.000000,0.000000,0.000000,7.826665,2.460187,-0.688087
1649344369.632528,3373.000000,1649344369.632299,0.000000,0.000000,1.000000,0.000000,0.000000,0.000000,0.000000,7.826258,2.460141,-0.692464
1649344369.733400,3374.000000,1649344369.732896,0.000000,0.000000,1.000000,0.000000,0.000000,0.000000,0.000000,7.825918,2.460036,-0.688347
1649344369.833054,3375.000000,1649344369.832658,0.000000,0.000000,1.000000,0.000000,0.000000,0.000000,0.000000,7.825642,2.459880,-0.696258
1649344369.934583,3376.000000,1649344369.933528,0.000000,0.000000,1.000000,0.000000,0.000000,0.000000,0.000000,7.825423,2.458588,-0.693934
1649344370.033004,3377.000000,1649344370.032751,0.000000,0.000000,1.000000,0.000000,0.000000,0.000000,0.000000,7.825257,2.457320,-0.689059
1649344370.136633,3378.000000,1649344370.135664,0.000000,0.000000,1.000000,0.000000,0.000000,0.000000,0.000000,7.824048,2.454991,-0.696271
1649344370.232262,3379.000000,1649344370.232122,0.000000,0.000000,1.000000,0.000000,0.000000,0.000000,0.000000,7.822946,2.454940,-0.696530
1649344370.332492,3380.000000,1649344370.332323,0.000000,0.000000,1.000000,0.000000,0.000000,0.000000,0.000000,7.823036,2.455953,-0.701415
1649344370.434133,3381.000000,1649344370.433902,0.000000,0.000000,1.000000,0.000000,0.000000,0.000000,0.000000,7.823159,2.455791,-0.715579
1649344370.535374,3382.000000,1649344370.534411,0.000000,0.000000,1.000000,0.000000,0.000000,0.000000,0.000000,7.823313,2.454520,-0.722503
1649344370.633514,3383.000000,1649344370.633037,0.000000,0.000000,1.000000,0.000000,0.000000,0.000000,0.000000,7.823491,2.454386,-0.722476
1649344370.733628,3384.000000,1649344370.733157,0.000000,0.000000,1.000000,0.000000,0.000000,0.000000,0.000000,7.823691,2.454240,-0.719820
1649344370.833856,3385.000000,1649344370.833406,0.000000,0.000000,1.000000,0.000000,0.000000,0.000000,0.000000,7.823909,2.455173,-0.713848
1649344370.934031,3386.000000,1649344370.933054,0.000000,0.000000,1.000000,0.000000,0.000000,0.000000,0.000000,7.825232,2.456034,-0.719229
1649344371.033835,3387.000000,1649344371.033100,0.000000,0.000000,1.000000,0.000000,0.000000,0.000000,0.000000,7.826504,2.456827,-0.719373
1649344371.132463,3388.000000,1649344371.132288,0.000000,0.000000,1.000000,0.000000,0.000000,0.000000,0.000000,7.827722,2.456463,-0.720144
1649344371.232810,3389.000000,1649344371.232490,0.000000,0.000000,1.000000,0.000000,0.000000,0.000000,0.000000,7.827794,2.457188,-0.711040
1649344371.335344,3390.000000,1649344371.334543,0.000000,0.000000,1.000000,0.000000,0.000000,0.000000,0.000000,7.827872,2.457852,-0.701352
1649344371.435585,3391.000000,1649344371.434809,0.000000,0.000000,1.000000,0.000000,0.000000,0.000000,0.000000,7.827955,2.459547,-0.688706
1649344371.533580,3392.000000,1649344371.533328,0.000000,0.000000,1.000000,0.000000,0.000000,0.000000,0.000000,7.829132,2.460033,-0.677280
1649344371.632340,3393.000000,1649344371.632198,0.000000,0.000000,1.000000,0.000000,0.000000,0.000000,0.000000,7.829159,2.460466,-0.666243
1649344371.733747,3394.000000,1649344371.733394,0.000000,0.000000,1.000000,0.000000,0.000000,0.000000,0.000000,7.829188,2.458668,-0.669310
1649344371.832874,3395.000000,1649344371.832635,0.000000,0.000000,1.000000,0.000000,0.000000,0.000000,0.000000,7.828129,2.456948,-0.662522
1649344371.932904,3396.000000,1649344371.932653,0.000000,0.000000,1.000000,0.000000,0.000000,0.000000,0.000000,7.827134,2.456400,-0.665645
1649344372.033622,3397.000000,1649344372.033078,0.000000,0.000000,1.000000,0.000000,0.000000,0.000000,0.000000,7.826202,2.456962,-0.667793
1649344372.134911,3398.000000,1649344372.134452,0.000000,0.000000,1.000000,0.000000,0.000000,0.000000,0.000000,7.825333,2.457481,-0.669809
1649344372.233636,3399.000000,1649344372.233217,0.000000,0.000000,1.000000,0.000000,0.000000,0.000000,0.000000,7.824526,2.457960,-0.669277
1649344372.333503,3400.000000,1649344372.333136,0.000000,0.000000,1.000000,0.000000,0.000000,0.000000,0.000000,7.823778,2.457309,-0.667110
1649344372.433313,3401.000000,1649344372.432911,0.000000,0.000000,1.000000,0.000000,0.000000,0.000000,0.000000,7.829630,2.449050,-0.629508
1649344372.534513,3402.000000,1649344372.533905,0.000000,0.000000,1.000000,0.000000,0.000000,0.000000,0.000000,7.834070,2.444528,-0.602320
1649344372.637835,3403.000000,1649344372.637310,0.000000,0.000000,1.000000,0.000000,0.000000,0.000000,0.000000,7.836072,2.442463,-0.578718
1649344372.735540,3404.000000,1649344372.734853,0.000000,0.000000,1.000000,0.000000,0.000000,0.000000,0.000000,7.837943,2.440545,-0.573113
1649344372.833489,3405.000000,1649344372.833205,0.000000,0.000000,1.000000,0.000000,0.000000,0.000000,0.000000,7.838595,2.438769,-0.563814
1649344372.936004,3406.000000,1649344372.935086,0.000000,0.000000,1.000000,0.000000,0.000000,0.000000,0.000000,7.838095,2.437132,-0.554209
1649344373.032451,3407.000000,1649344373.032202,0.000000,0.000000,1.000000,0.000000,0.000000,0.000000,0.000000,7.837599,2.434538,-0.547547
1649344373.132768,3408.000000,1649344373.132525,0.000000,0.000000,1.000000,0.000000,0.000000,0.000000,0.000000,7.836018,2.432136,-0.542907
1649344373.233242,3409.000000,1649344373.232891,0.000000,0.000000,1.000000,0.000000,0.000000,0.000000,0.000000,7.834509,2.431009,-0.534566
1649344373.336648,3410.000000,1649344373.335336,0.000000,0.000000,1.000000,0.000000,0.000000,0.000000,0.000000,7.838525,2.426728,-0.510583
1649344373.432953,3411.000000,1649344373.432611,0.000000,0.000000,1.000000,0.000000,0.000000,0.000000,0.000000,7.846663,2.415113,-0.457107
1649344373.534007,3412.000000,1649344373.533414,0.000000,0.000000,1.000000,0.000000,0.000000,0.000000,0.000000,7.852131,2.407500,-0.417346
1649344373.632852,3413.000000,1649344373.632647,0.000000,0.000000,1.000000,0.000000,0.000000,0.000000,0.000000,7.855061,2.398237,-0.385964
1649344373.734410,3414.000000,1649344373.733786,0.000000,0.000000,1.000000,0.000000,0.000000,0.000000,0.000000,7.856674,2.392889,-0.361856
1649344373.834887,3415.000000,1649344373.834139,0.000000,0.000000,1.000000,0.000000,0.000000,0.000000,0.000000,7.857043,2.390161,-0.344755
1649344373.934160,3416.000000,1649344373.933826,0.000000,0.000000,1.000000,0.000000,0.000000,0.000000,0.000000,7.856236,2.389910,-0.332778
1649344374.032618,3417.000000,1649344374.032349,0.000000,0.000000,1.000000,0.000000,0.000000,0.000000,0.000000,7.854325,2.391993,-0.318464
1649344374.132583,3418.000000,1649344374.132201,0.000000,0.000000,1.000000,0.000000,0.000000,0.000000,0.000000,7.852469,2.392999,-0.309978
1649344374.236161,3419.000000,1649344374.235423,0.000000,0.000000,1.000000,0.000000,0.000000,0.000000,0.000000,7.850674,2.395154,-0.311116
1649344374.333737,3420.000000,1649344374.333335,0.000000,0.000000,1.000000,0.000000,0.000000,0.000000,0.000000,7.848945,2.398385,-0.315825
1649344374.436145,3421.000000,1649344374.435350,0.000000,0.000000,1.000000,0.000000,0.000000,0.000000,0.000000,7.847285,2.402615,-0.319904
1649344374.534656,3422.000000,1649344374.533974,0.000000,0.000000,1.000000,0.000000,0.000000,0.000000,0.000000,7.848968,2.403412,-0.298356
1649344374.633117,3423.000000,1649344374.632611,0.000000,0.000000,1.000000,0.000000,0.000000,0.000000,0.000000,7.857080,2.397683,-0.262721
1649344374.733250,3424.000000,1649344374.732947,0.000000,0.000000,1.000000,0.000000,0.000000,0.000000,0.000000,7.861432,2.395613,-0.234578
1649344374.832969,3425.000000,1649344374.832709,0.000000,0.000000,1.000000,0.000000,0.000000,0.000000,0.000000,7.863308,2.397005,-0.215270
1649344374.932967,3426.000000,1649344374.932688,0.000000,0.000000,1.000000,0.000000,0.000000,0.000000,0.000000,7.863932,2.398390,-0.201228
1649344375.032435,3427.000000,1649344375.032297,0.000000,0.000000,1.000000,0.000000,0.000000,0.000000,0.000000,7.863372,2.401940,-0.207567
1649344375.133081,3428.000000,1649344375.132948,0.000000,0.000000,1.000000,0.000000,0.000000,0.000000,0.000000,7.867151,2.398800,-0.185856
1649344375.232483,3429.000000,1649344375.232308,0.000000,0.000000,1.000000,0.000000,0.000000,0.000000,0.000000,7.868481,2.398066,-0.174340
1649344375.332877,3430.000000,1649344375.332540,0.000000,0.000000,1.000000,0.000000,0.000000,0.000000,0.000000,7.868585,2.399604,-0.167770
1649344375.432773,3431.000000,1649344375.432438,0.000000,0.000000,1.000000,0.000000,0.000000,0.000000,0.000000,7.875166,2.395651,-0.141746
1649344375.532466,3432.000000,1649344375.532237,0.000000,0.000000,1.000000,0.000000,0.000000,0.000000,0.000000,7.878040,2.395239,-0.126109
1649344375.633729,3433.000000,1649344375.633328,0.000000,0.000000,1.000000,0.000000,0.000000,0.000000,0.000000,7.879586,2.395992,-0.120448
1649344375.732484,3434.000000,1649344375.732258,0.000000,0.000000,1.000000,0.000000,0.000000,0.000000,0.000000,7.877695,2.397841,-0.114672
1649344375.833461,3435.000000,1649344375.833047,0.000000,0.000000,1.000000,0.000000,0.000000,0.000000,0.000000,7.875835,2.400719,-0.120875
1649344375.933553,3436.000000,1649344375.933008,0.000000,0.000000,1.000000,0.000000,0.000000,0.000000,0.000000,7.872926,2.402377,-0.144188
1649344376.034128,3437.000000,1649344376.033506,0.000000,0.000000,1.000000,0.000000,0.000000,0.000000,0.000000,7.871217,2.403965,-0.165315
1649344376.133808,3438.000000,1649344376.133181,0.000000,0.000000,1.000000,0.000000,0.000000,0.000000,0.000000,7.868470,2.407661,-0.182682
1649344376.234184,3439.000000,1649344376.233474,0.000000,0.000000,1.000000,0.000000,0.000000,0.000000,0.000000,7.865844,2.410067,-0.214138
1649344376.332472,3440.000000,1649344376.332232,0.000000,0.000000,1.000000,0.000000,0.000000,0.000000,0.000000,7.863341,2.413427,-0.239696
1649344376.433369,3441.000000,1649344376.433006,0.000000,0.000000,1.000000,0.000000,0.000000,0.000000,0.000000,7.859874,2.416588,-0.261961
1649344376.535615,3442.000000,1649344376.534882,0.000000,0.000000,1.000000,0.000000,0.000000,0.000000,0.000000,7.856597,2.419552,-0.277796
1649344376.635598,3443.000000,1649344376.634898,0.000000,0.000000,1.000000,0.000000,0.000000,0.000000,0.000000,7.853510,2.423411,-0.289041
1649344376.734197,3444.000000,1649344376.733674,0.000000,0.000000,1.000000,0.000000,0.000000,0.000000,0.000000,7.849521,2.427017,-0.298278
1649344376.832437,3445.000000,1649344376.832232,0.000000,0.000000,1.000000,0.000000,0.000000,0.000000,0.000000,7.845782,2.431464,-0.303150
1649344376.933153,3446.000000,1649344376.932704,0.000000,0.000000,1.000000,0.000000,0.000000,0.000000,0.000000,7.843378,2.433426,-0.324791
1649344377.034784,3447.000000,1649344377.034131,0.000000,0.000000,1.000000,0.000000,0.000000,0.000000,0.000000,7.841152,2.436305,-0.343133
1649344377.132679,3448.000000,1649344377.132383,0.000000,0.000000,1.000000,0.000000,0.000000,0.000000,0.000000,7.838009,2.437867,-0.358278
1649344377.234987,3449.000000,1649344377.234280,0.000000,0.000000,1.000000,0.000000,0.000000,0.000000,0.000000,7.836185,2.439271,-0.369524
1649344377.333488,3450.000000,1649344377.333210,0.000000,0.000000,1.000000,0.000000,0.000000,0.000000,0.000000,7.833431,2.441617,-0.374592
1649344377.434434,3451.000000,1649344377.433873,0.000000,0.000000,1.000000,0.000000,0.000000,0.000000,0.000000,7.839615,2.435037,-0.345500
1649344377.533277,3452.000000,1649344377.532978,0.000000,0.000000,1.000000,0.000000,0.000000,0.000000,0.000000,7.843325,2.432037,-0.326421
1649344377.632404,3453.000000,1649344377.632208,0.000000,0.000000,1.000000,0.000000,0.000000,0.000000,0.000000,7.845770,2.431343,-0.314564
1649344377.733132,3454.000000,1649344377.732863,0.000000,0.000000,1.000000,0.000000,0.000000,0.000000,0.000000,7.847011,2.431743,-0.308046
1649344377.833172,3455.000000,1649344377.832819,0.000000,0.000000,1.000000,0.000000,0.000000,0.000000,0.000000,7.847108,2.434270,-0.301823
1649344377.932992,3456.000000,1649344377.932753,0.000000,0.000000,1.000000,0.000000,0.000000,0.000000,0.000000,7.846122,2.436620,-0.299118
1649344378.033108,3457.000000,1649344378.032916,0.000000,0.000000,1.000000,0.000000,0.000000,0.000000,0.000000,7.844115,2.438798,-0.300598
1649344378.134061,3458.000000,1649344378.133149,0.000000,0.000000,1.000000,0.000000,0.000000,0.000000,0.000000,7.843328,2.440809,-0.310930
1649344378.234036,3459.000000,1649344378.233696,0.000000,0.000000,1.000000,0.000000,0.000000,0.000000,0.000000,7.841516,2.442659,-0.332963
1649344378.333029,3460.000000,1649344378.332675,0.000000,0.000000,1.000000,0.000000,0.000000,0.000000,0.000000,7.839829,2.444353,-0.364575
1649344378.435483,3461.000000,1649344378.435076,0.000000,0.000000,1.000000,0.000000,0.000000,0.000000,0.000000,7.838264,2.444807,-0.392422
1649344378.536768,3462.000000,1649344378.535503,0.000000,0.000000,1.000000,0.000000,0.000000,0.000000,0.000000,7.837908,2.446272,-0.411775
1649344378.640854,3463.000000,1649344378.639695,0.000000,0.000000,1.000000,0.000000,0.000000,0.000000,0.000000,7.836513,2.447601,-0.426979
1649344378.736586,3464.000000,1649344378.736006,0.000000,0.000000,1.000000,0.000000,0.000000,0.000000,0.000000,7.834139,2.447710,-0.438182
1649344378.834322,3465.000000,1649344378.833516,0.000000,0.000000,1.000000,0.000000,0.000000,0.000000,0.000000,7.831935,2.447758,-0.450372
1649344378.933001,3466.000000,1649344378.932739,0.000000,0.000000,1.000000,0.000000,0.000000,0.000000,0.000000,7.830987,2.448843,-0.461076
1649344379.033698,3467.000000,1649344379.033326,0.000000,0.000000,1.000000,0.000000,0.000000,0.000000,0.000000,7.830136,2.449816,-0.467925
1649344379.134469,3468.000000,1649344379.133626,0.000000,0.000000,1.000000,0.000000,0.000000,0.000000,0.000000,7.828286,2.449595,-0.488006
1649344379.233709,3469.000000,1649344379.233373,0.000000,0.000000,1.000000,0.000000,0.000000,0.000000,0.000000,7.826586,2.449337,-0.503825
1649344379.333398,3470.000000,1649344379.332983,0.000000,0.000000,1.000000,0.000000,0.000000,0.000000,0.000000,7.825030,2.447958,-0.530052
1649344379.434567,3471.000000,1649344379.433217,0.000000,0.000000,1.000000,0.000000,0.000000,0.000000,0.000000,7.823612,2.447706,-0.546879
1649344379.533461,3472.000000,1649344379.533203,0.000000,0.000000,1.000000,0.000000,0.000000,0.000000,0.000000,7.822326,2.447434,-0.573217
1649344379.635777,3473.000000,1649344379.634462,0.000000,0.000000,1.000000,0.000000,0.000000,0.000000,0.000000,7.821165,2.447145,-0.592520
1649344379.734389,3474.000000,1649344379.733927,0.000000,0.000000,1.000000,0.000000,0.000000,0.000000,0.000000,7.820124,2.447932,-0.605860
1649344379.834439,3475.000000,1649344379.833885,0.000000,0.000000,1.000000,0.000000,0.000000,0.000000,0.000000,7.819195,2.448647,-0.609436
1649344379.933260,3476.000000,1649344379.932766,0.000000,0.000000,1.000000,0.000000,0.000000,0.000000,0.000000,7.818373,2.449292,-0.613329
1649344380.033558,3477.000000,1649344380.033056,0.000000,0.000000,1.000000,0.000000,0.000000,0.000000,0.000000,7.817651,2.450962,-0.614309
1649344380.134237,3478.000000,1649344380.133552,0.000000,0.000000,1.000000,0.000000,0.000000,0.000000,0.000000,7.817022,2.453597,-0.613310
1649344380.232726,3479.000000,1649344380.232501,0.000000,0.000000,1.000000,0.000000,0.000000,0.000000,0.000000,7.824113,2.447325,-0.583816
1649344380.334377,3480.000000,1649344380.333549,0.000000,0.000000,1.000000,0.000000,0.000000,0.000000,0.000000,7.828665,2.442466,-0.560909
1649344380.434818,3481.000000,1649344380.434232,0.000000,0.000000,1.000000,0.000000,0.000000,0.000000,0.000000,7.831890,2.440051,-0.540340
1649344380.537859,3482.000000,1649344380.536463,0.000000,0.000000,1.000000,0.000000,0.000000,0.000000,0.000000,7.842573,2.430140,-0.490607
1649344380.633944,3483.000000,1649344380.633413,0.000000,0.000000,1.000000,0.000000,0.000000,0.000000,0.000000,7.858093,2.413173,-0.421847
1649344380.733008,3484.000000,1649344380.732721,0.000000,0.000000,1.000000,0.000000,0.000000,0.000000,0.000000,7.868327,2.402670,-0.372043
1649344380.832514,3485.000000,1649344380.832116,0.000000,0.000000,1.000000,0.000000,0.000000,0.000000,0.000000,7.874625,2.396125,-0.336481
1649344380.933922,3486.000000,1649344380.933441,0.000000,0.000000,1.000000,0.000000,0.000000,0.000000,0.000000,7.878277,2.391158,-0.327544
1649344381.033667,3487.000000,1649344381.033027,0.000000,0.000000,1.000000,0.000000,0.000000,0.000000,0.000000,7.879425,2.388780,-0.318361
1649344381.132993,3488.000000,1649344381.132649,0.000000,0.000000,1.000000,0.000000,0.000000,0.000000,0.000000,7.879298,2.387759,-0.310561
1649344381.232501,3489.000000,1649344381.232205,0.000000,0.000000,1.000000,0.000000,0.000000,0.000000,0.000000,7.884515,2.382565,-0.277479
1649344381.334135,3490.000000,1649344381.333857,0.000000,0.000000,1.000000,0.000000,0.000000,0.000000,0.000000,7.886052,2.379976,-0.254861
1649344381.433401,3491.000000,1649344381.433083,0.000000,0.000000,1.000000,0.000000,0.000000,0.000000,0.000000,7.891745,2.373308,-0.218117
1649344381.533068,3492.000000,1649344381.532727,0.000000,0.000000,1.000000,0.000000,0.000000,0.000000,0.000000,7.893724,2.371519,-0.190448
1649344381.632820,3493.000000,1649344381.632453,0.000000,0.000000,1.000000,0.000000,0.000000,0.000000,0.000000,7.893283,2.372159,-0.175553
1649344381.733852,3494.000000,1649344381.733433,0.000000,0.000000,1.000000,0.000000,0.000000,0.000000,0.000000,7.891654,2.375086,-0.165670
1649344381.832592,3495.000000,1649344381.832366,0.000000,0.000000,1.000000,0.000000,0.000000,0.000000,0.000000,7.888912,2.379066,-0.163016
1649344381.935540,3496.000000,1649344381.934874,0.000000,0.000000,1.000000,0.000000,0.000000,0.000000,0.000000,7.886224,2.384023,-0.164063
1649344382.033617,3497.000000,1649344382.033267,0.000000,0.000000,1.000000,0.000000,0.000000,0.000000,0.000000,7.883602,2.388792,-0.181548
1649344382.135137,3498.000000,1649344382.134367,0.000000,0.000000,1.000000,0.000000,0.000000,0.000000,0.000000,7.878873,2.394454,-0.196215
1649344382.235193,3499.000000,1649344382.234246,0.000000,0.000000,1.000000,0.000000,0.000000,0.000000,0.000000,7.874353,2.402028,-0.211366
1649344382.332959,3500.000000,1649344382.332605,0.000000,0.000000,1.000000,0.000000,0.000000,0.000000,0.000000,7.870046,2.408114,-0.237429
1649344382.434037,3501.000000,1649344382.433349,0.000000,0.000000,1.000000,0.000000,0.000000,0.000000,0.000000,7.865957,2.412773,-0.257780
1649344382.533779,3502.000000,1649344382.533142,0.000000,0.000000,1.000000,0.000000,0.000000,0.000000,0.000000,7.860997,2.418248,-0.275027
1649344382.632408,3503.000000,1649344382.632227,0.000000,0.000000,1.000000,0.000000,0.000000,0.000000,0.000000,7.856320,2.421208,-0.302970
1649344382.734961,3504.000000,1649344382.734338,0.000000,0.000000,1.000000,0.000000,0.000000,0.000000,0.000000,7.853014,2.425054,-0.324997
1649344382.832607,3505.000000,1649344382.832348,0.000000,0.000000,1.000000,0.000000,0.000000,0.000000,0.000000,7.851015,2.429728,-0.342920
1649344382.932975,3506.000000,1649344382.932604,0.000000,0.000000,1.000000,0.000000,0.000000,0.000000,0.000000,7.855707,2.424269,-0.324616
1649344383.034925,3507.000000,1649344383.034335,0.000000,0.000000,1.000000,0.000000,0.000000,0.000000,0.000000,7.859075,2.421245,-0.328029
1649344383.134258,3508.000000,1649344383.133748,0.000000,0.000000,1.000000,0.000000,0.000000,0.000000,0.000000,7.859000,2.420535,-0.334534
1649344383.233406,3509.000000,1649344383.233083,0.000000,0.000000,1.000000,0.000000,0.000000,0.000000,0.000000,7.857848,2.419836,-0.355287
1649344383.333565,3510.000000,1649344383.333015,0.000000,0.000000,1.000000,0.000000,0.000000,0.000000,0.000000,7.855683,2.420241,-0.373549
1649344383.435292,3511.000000,1649344383.434665,0.000000,0.000000,1.000000,0.000000,0.000000,0.000000,0.000000,7.853655,2.421692,-0.386971
1649344383.533295,3512.000000,1649344383.532948,0.000000,0.000000,1.000000,0.000000,0.000000,0.000000,0.000000,7.850671,2.424127,-0.400569
1649344383.634879,3513.000000,1649344383.634043,0.000000,0.000000,1.000000,0.000000,0.000000,0.000000,0.000000,7.847883,2.426396,-0.407057
1649344383.733834,3514.000000,1649344383.733540,0.000000,0.000000,1.000000,0.000000,0.000000,0.000000,0.000000,7.845287,2.428503,-0.412362
1649344383.835202,3515.000000,1649344383.834632,0.000000,0.000000,1.000000,0.000000,0.000000,0.000000,0.000000,7.842877,2.430453,-0.421364
1649344383.934297,3516.000000,1649344383.933970,0.000000,0.000000,1.000000,0.000000,0.000000,0.000000,0.000000,7.840649,2.433341,-0.429873
1649344384.033309,3517.000000,1649344384.032855,0.000000,0.000000,1.000000,0.000000,0.000000,0.000000,0.000000,7.838597,2.436019,-0.451609
1649344384.133943,3518.000000,1649344384.133009,0.000000,0.000000,1.000000,0.000000,0.000000,0.000000,0.000000,7.836715,2.438492,-0.480364
1649344384.234442,3519.000000,1649344384.233985,0.000000,0.000000,1.000000,0.000000,0.000000,0.000000,0.000000,7.834996,2.440769,-0.496457
1649344384.333941,3520.000000,1649344384.333552,0.000000,0.000000,1.000000,0.000000,0.000000,0.000000,0.000000,7.832342,2.442855,-0.502800
1649344384.435187,3521.000000,1649344384.434120,0.000000,0.000000,1.000000,0.000000,0.000000,0.000000,0.000000,7.836442,2.437126,-0.476398
1649344384.532579,3522.000000,1649344384.532227,0.000000,0.000000,1.000000,0.000000,0.000000,0.000000,0.000000,7.838189,2.433843,-0.460560
1649344384.633323,3523.000000,1649344384.632780,0.000000,0.000000,1.000000,0.000000,0.000000,0.000000,0.000000,7.839882,2.432886,-0.452476
1649344384.732417,3524.000000,1649344384.732265,0.000000,0.000000,1.000000,0.000000,0.000000,0.000000,0.000000,7.839337,2.431952,-0.445401
1649344384.833727,3525.000000,1649344384.833330,0.000000,0.000000,1.000000,0.000000,0.000000,0.000000,0.000000,7.838855,2.433225,-0.441732
1649344384.933251,3526.000000,1649344384.933073,0.000000,0.000000,1.000000,0.000000,0.000000,0.000000,0.000000,7.837342,2.435493,-0.437309
1649344385.032920,3527.000000,1649344385.032727,0.000000,0.000000,1.000000,0.000000,0.000000,0.000000,0.000000,7.837039,2.436514,-0.449109
1649344385.133161,3528.000000,1649344385.132856,0.000000,0.000000,1.000000,0.000000,0.000000,0.000000,0.000000,7.836787,2.438537,-0.454689
1649344385.233255,3529.000000,1649344385.233001,0.000000,0.000000,1.000000,0.000000,0.000000,0.000000,0.000000,7.836583,2.439320,-0.472842
1649344385.333018,3530.000000,1649344385.332675,0.000000,0.000000,1.000000,0.000000,0.000000,0.000000,0.000000,7.837513,2.440022,-0.501421
1649344385.433843,3531.000000,1649344385.433568,0.000000,0.000000,1.000000,0.000000,0.000000,0.000000,0.000000,7.838421,2.441738,-0.523836
1649344385.535019,3532.000000,1649344385.534305,0.000000,0.000000,1.000000,0.000000,0.000000,0.000000,0.000000,7.844754,2.435687,-0.505625
1649344385.634327,3533.000000,1649344385.633671,0.000000,0.000000,1.000000,0.000000,0.000000,0.000000,0.000000,7.849654,2.431035,-0.507337
1649344385.733130,3534.000000,1649344385.732754,0.000000,0.000000,1.000000,0.000000,0.000000,0.000000,0.000000,7.853183,2.427722,-0.522529
1649344385.834100,3535.000000,1649344385.833656,0.000000,0.000000,1.000000,0.000000,0.000000,0.000000,0.000000,7.860857,2.419144,-0.498217
1649344385.935631,3536.000000,1649344385.935037,0.000000,0.000000,1.000000,0.000000,0.000000,0.000000,0.000000,7.864796,2.414338,-0.481205
1649344386.032964,3537.000000,1649344386.032687,0.000000,0.000000,1.000000,0.000000,0.000000,0.000000,0.000000,7.867374,2.412020,-0.462362
1649344386.134317,3538.000000,1649344386.133761,0.000000,0.000000,1.000000,0.000000,0.000000,0.000000,0.000000,7.869750,2.410970,-0.462766
1649344386.234908,3539.000000,1649344386.234248,0.000000,0.000000,1.000000,0.000000,0.000000,0.000000,0.000000,7.870840,2.410028,-0.476803
1649344386.332459,3540.000000,1649344386.332281,0.000000,0.000000,1.000000,0.000000,0.000000,0.000000,0.000000,7.869626,2.410280,-0.491807
1649344386.433076,3541.000000,1649344386.432868,0.000000,0.000000,1.000000,0.000000,0.000000,0.000000,0.000000,7.867331,2.411655,-0.497232
1649344386.532365,3542.000000,1649344386.532202,0.000000,0.000000,1.000000,0.000000,0.000000,0.000000,0.000000,7.865114,2.412996,-0.515234
1649344386.636836,3543.000000,1649344386.635164,0.000000,0.000000,1.000000,0.000000,0.000000,0.000000,0.000000,7.861890,2.416478,-0.523505
1649344386.734366,3544.000000,1649344386.733668,0.000000,0.000000,1.000000,0.000000,0.000000,0.000000,0.000000,7.858817,2.419792,-0.531301
1649344386.834487,3545.000000,1649344386.833753,0.000000,0.000000,1.000000,0.000000,0.000000,0.000000,0.000000,7.856988,2.422934,-0.550730
1649344386.933289,3546.000000,1649344386.933068,0.000000,0.000000,1.000000,0.000000,0.000000,0.000000,0.000000,7.855251,2.423723,-0.578878
1649344387.033672,3547.000000,1649344387.033091,0.000000,0.000000,1.000000,0.000000,0.000000,0.000000,0.000000,7.852518,2.425556,-0.601642
1649344387.132544,3548.000000,1649344387.132327,0.000000,0.000000,1.000000,0.000000,0.000000,0.000000,0.000000,7.849941,2.426190,-0.629695
1649344387.233236,3549.000000,1649344387.232935,0.000000,0.000000,1.000000,0.000000,0.000000,0.000000,0.000000,7.847519,2.426779,-0.661979
1649344387.333282,3550.000000,1649344387.332964,0.000000,0.000000,1.000000,0.000000,0.000000,0.000000,0.000000,7.845252,2.427323,-0.696668
1649344387.433232,3551.000000,1649344387.432914,0.000000,0.000000,1.000000,0.000000,0.000000,0.000000,0.000000,7.843135,2.428916,-0.731201
1649344387.533700,3552.000000,1649344387.533115,0.000000,0.000000,1.000000,0.000000,0.000000,0.000000,0.000000,7.847709,2.424953,-0.723605
1649344387.632902,3553.000000,1649344387.632629,0.000000,0.000000,1.000000,0.000000,0.000000,0.000000,0.000000,7.849870,2.422292,-0.712705
1649344387.733858,3554.000000,1649344387.733265,0.000000,0.000000,1.000000,0.000000,0.000000,0.000000,0.000000,7.850831,2.420871,-0.704316
1649344387.833899,3555.000000,1649344387.833598,0.000000,0.000000,1.000000,0.000000,0.000000,0.000000,0.000000,7.850655,2.420628,-0.696750
1649344387.933526,3556.000000,1649344387.933285,0.000000,0.000000,1.000000,0.000000,0.000000,0.000000,0.000000,7.849403,2.420407,-0.701292
1649344388.035886,3557.000000,1649344388.035384,0.000000,0.000000,1.000000,0.000000,0.000000,0.000000,0.000000,7.848229,2.420207,-0.704556
1649344388.133917,3558.000000,1649344388.133524,0.000000,0.000000,1.000000,0.000000,0.000000,0.000000,0.000000,7.851493,2.417848,-0.686437
1649344388.233990,3559.000000,1649344388.233394,0.000000,0.000000,1.000000,0.000000,0.000000,0.000000,0.000000,7.858941,2.411271,-0.638163
1649344388.335437,3560.000000,1649344388.334799,0.000000,0.000000,1.000000,0.000000,0.000000,0.000000,0.000000,7.864872,2.406180,-0.615074
1649344388.434587,3561.000000,1649344388.433826,0.000000,0.000000,1.000000,0.000000,0.000000,0.000000,0.000000,7.867168,2.403597,-0.596039
1649344388.535685,3562.000000,1649344388.534843,0.000000,0.000000,1.000000,0.000000,0.000000,0.000000,0.000000,7.868205,2.402300,-0.583350
1649344388.633521,3563.000000,1649344388.633193,0.000000,0.000000,1.000000,0.000000,0.000000,0.000000,0.000000,7.869139,2.403311,-0.584033
1649344388.735164,3564.000000,1649344388.734566,0.000000,0.000000,1.000000,0.000000,0.000000,0.000000,0.000000,7.868887,2.405407,-0.579003
1649344388.834784,3565.000000,1649344388.834209,0.000000,0.000000,1.000000,0.000000,0.000000,0.000000,0.000000,7.867516,2.408520,-0.574951
1649344388.933829,3566.000000,1649344388.933481,0.000000,0.000000,1.000000,0.000000,0.000000,0.000000,0.000000,7.865094,2.412581,-0.567007
1649344389.032433,3567.000000,1649344389.032190,0.000000,0.000000,1.000000,0.000000,0.000000,0.000000,0.000000,7.862778,2.416436,-0.573085
1649344389.135208,3568.000000,1649344389.134298,0.000000,0.000000,1.000000,0.000000,0.000000,0.000000,0.000000,7.860571,2.420081,-0.569222
1649344389.233057,3569.000000,1649344389.232808,0.000000,0.000000,1.000000,0.000000,0.000000,0.000000,0.000000,7.858476,2.422427,-0.578406
1649344389.334599,3570.000000,1649344389.334217,0.000000,0.000000,1.000000,0.000000,0.000000,0.000000,0.000000,7.855402,2.425718,-0.584776
1649344389.432973,3571.000000,1649344389.432735,0.000000,0.000000,1.000000,0.000000,0.000000,0.000000,0.000000,7.853594,2.428802,-0.586820
1649344389.533699,3572.000000,1649344389.533477,0.000000,0.000000,1.000000,0.000000,0.000000,0.000000,0.000000,7.851898,2.431684,-0.599228
1649344389.634479,3573.000000,1649344389.634014,0.000000,0.000000,1.000000,0.000000,0.000000,0.000000,0.000000,7.850311,2.434367,-0.620756
1649344389.733181,3574.000000,1649344389.732962,0.000000,0.000000,1.000000,0.000000,0.000000,0.000000,0.000000,7.848833,2.437946,-0.637293
