__time,/dwm1001/id_458E/pose_kf/header/seq,/dwm1001/id_458E/pose_kf/header/stamp,/dwm1001/id_458E/pose_kf/pose/orientation/pitch_deg,/dwm1001/id_458E/pose_kf/pose/orientation/roll_deg,/dwm1001/id_458E/pose_kf/pose/orientation/w,/dwm1001/id_458E/pose_kf/pose/orientation/x,/dwm1001/id_458E/pose_kf/pose/orientation/y,/dwm1001/id_458E/pose_kf/pose/orientation/yaw_deg,/dwm1001/id_458E/pose_kf/pose/orientation/z,/dwm1001/id_458E/pose_kf/pose/position/x,/dwm1001/id_458E/pose_kf/pose/position/y,/dwm1001/id_458E/pose_kf/pose/position/z
1649352041.422214,18038.000000,1649352041.422104,0.000000,0.000000,1.000000,0.000000,0.000000,0.000000,0.000000,7.841126,6.488425,-0.829414
1649352041.522453,18039.000000,1649352041.522302,0.000000,0.000000,1.000000,0.000000,0.000000,0.000000,0.000000,7.843780,6.487617,-0.804791
1649352041.622331,18040.000000,1649352041.622210,0.000000,0.000000,1.000000,0.000000,0.000000,0.000000,0.000000,7.844065,6.486848,-0.789855
1649352041.722059,18041.000000,1649352041.721948,0.000000,0.000000,1.000000,0.000000,0.000000,0.000000,0.000000,7.844294,6.487211,-0.776992
1649352041.822139,18042.000000,1649352041.822012,0.000000,0.000000,1.000000,0.000000,0.000000,0.000000,0.000000,7.844471,6.487551,-0.773403
1649352041.922482,18043.000000,1649352041.922305,0.000000,0.000000,1.000000,0.000000,0.000000,0.000000,0.000000,7.843510,6.486780,-0.729532
1649352042.022051,18044.000000,1649352042.021946,0.000000,0.000000,1.000000,0.000000,0.000000,0.000000,0.000000,7.842569,6.486050,-0.703533
1649352042.122177,18045.000000,1649352042.122058,0.000000,0.000000,1.000000,0.000000,0.000000,0.000000,0.000000,7.842742,6.485361,-0.689085
1649352042.221988,18046.000000,1649352042.221862,0.000000,0.000000,1.000000,0.000000,0.000000,0.000000,0.000000,7.843969,6.484714,-0.686554
1649352042.321926,18047.000000,1649352042.321824,0.000000,0.000000,1.000000,0.000000,0.000000,0.000000,0.000000,7.845101,6.484108,-0.696268
1649352042.422144,18048.000000,1649352042.422012,0.000000,0.000000,1.000000,0.000000,0.000000,0.000000,0.000000,7.845049,6.483542,-0.706424
1649352042.522286,18049.000000,1649352042.522151,0.000000,0.000000,1.000000,0.000000,0.000000,0.000000,0.000000,7.846061,6.483015,-0.717793
1649352042.622173,18050.000000,1649352042.622072,0.000000,0.000000,1.000000,0.000000,0.000000,0.000000,0.000000,7.842627,6.481437,-0.686757
1649352042.722089,18051.000000,1649352042.721920,0.000000,0.000000,1.000000,0.000000,0.000000,0.000000,0.000000,7.841542,6.481049,-0.660241
1649352042.822042,18052.000000,1649352042.821912,0.000000,0.000000,1.000000,0.000000,0.000000,0.000000,0.000000,7.840503,6.480696,-0.641331
1649352042.922271,18053.000000,1649352042.922175,0.000000,0.000000,1.000000,0.000000,0.000000,0.000000,0.000000,7.840602,6.481469,-0.636201
1649352043.022175,18054.000000,1649352043.022052,0.000000,0.000000,1.000000,0.000000,0.000000,0.000000,0.000000,7.841776,6.481120,-0.597525
1649352043.121923,18055.000000,1649352043.121806,0.000000,0.000000,1.000000,0.000000,0.000000,0.000000,0.000000,7.846146,6.478621,-0.528328
1649352043.221872,18056.000000,1649352043.221761,0.000000,0.000000,1.000000,0.000000,0.000000,0.000000,0.000000,7.844800,6.474097,-0.437208
1649352043.321988,18057.000000,1649352043.321857,0.000000,0.000000,1.000000,0.000000,0.000000,0.000000,0.000000,7.843507,6.469852,-0.384063
1649352043.421991,18058.000000,1649352043.421871,0.000000,0.000000,1.000000,0.000000,0.000000,0.000000,0.000000,7.841180,6.465882,-0.358563
1649352043.522098,18059.000000,1649352043.521945,0.000000,0.000000,1.000000,0.000000,0.000000,0.000000,0.000000,7.838974,6.463272,-0.350745
1649352043.622043,18060.000000,1649352043.621954,0.000000,0.000000,1.000000,0.000000,0.000000,0.000000,0.000000,7.837979,6.461953,-0.356661
1649352043.722047,18061.000000,1649352043.721937,0.000000,0.000000,1.000000,0.000000,0.000000,0.000000,0.000000,7.840314,6.459676,-0.319275
1649352043.821889,18062.000000,1649352043.821787,0.000000,0.000000,1.000000,0.000000,0.000000,0.000000,0.000000,7.843608,6.455405,-0.254891
1649352043.921967,18063.000000,1649352043.921871,0.000000,0.000000,1.000000,0.000000,0.000000,0.000000,0.000000,7.845619,6.453621,-0.209039
1649352044.022086,18064.000000,1649352044.021942,0.000000,0.000000,1.000000,0.000000,0.000000,0.000000,0.000000,7.847501,6.453099,-0.192315
1649352044.121862,18065.000000,1649352044.121753,0.000000,0.000000,1.000000,0.000000,0.000000,0.000000,0.000000,7.851437,6.450497,-0.142254
1649352044.221990,18066.000000,1649352044.221866,0.000000,0.000000,1.000000,0.000000,0.000000,0.000000,0.000000,7.854033,6.450293,-0.107838
1649352044.322158,18067.000000,1649352044.322021,0.000000,0.000000,1.000000,0.000000,0.000000,0.000000,0.000000,7.853176,6.450172,-0.061044
1649352044.422121,18068.000000,1649352044.422009,0.000000,0.000000,1.000000,0.000000,0.000000,0.000000,0.000000,7.853420,6.450127,-0.043549
1649352044.522150,18069.000000,1649352044.521989,0.000000,0.000000,1.000000,0.000000,0.000000,0.000000,0.000000,7.849254,6.450148,-0.016264
1649352044.622020,18070.000000,1649352044.621895,0.000000,0.000000,1.000000,0.000000,0.000000,0.000000,0.000000,7.845295,6.451320,-0.011048
1649352044.722046,18071.000000,1649352044.721922,0.000000,0.000000,1.000000,0.000000,0.000000,0.000000,0.000000,7.842636,6.454662,-0.014084
1649352044.822245,18072.000000,1649352044.822100,0.000000,0.000000,1.000000,0.000000,0.000000,0.000000,0.000000,7.840124,6.457862,-0.025807
1649352044.922302,18073.000000,1649352044.922156,0.000000,0.000000,1.000000,0.000000,0.000000,0.000000,0.000000,7.837760,6.460915,-0.055493
1649352045.022289,18074.000000,1649352045.022139,0.000000,0.000000,1.000000,0.000000,0.000000,0.000000,0.000000,7.836633,6.462728,-0.101533
1649352045.122545,18075.000000,1649352045.122283,0.000000,0.000000,1.000000,0.000000,0.000000,0.000000,0.000000,7.834496,6.465543,-0.133324
1649352045.222062,18076.000000,1649352045.221910,0.000000,0.000000,1.000000,0.000000,0.000000,0.000000,0.000000,7.831410,6.469295,-0.165076
1649352045.321998,18077.000000,1649352045.321861,0.000000,0.000000,1.000000,0.000000,0.000000,0.000000,0.000000,7.828526,6.472831,-0.198330
1649352045.422138,18078.000000,1649352045.422025,0.000000,0.000000,1.000000,0.000000,0.000000,0.000000,0.000000,7.826931,6.476152,-0.236987
1649352045.522135,18079.000000,1649352045.521980,0.000000,0.000000,1.000000,0.000000,0.000000,0.000000,0.000000,7.825466,6.479261,-0.283170
1649352045.622288,18080.000000,1649352045.622172,0.000000,0.000000,1.000000,0.000000,0.000000,0.000000,0.000000,7.824126,6.483253,-0.316328
1649352045.722274,18081.000000,1649352045.722157,0.000000,0.000000,1.000000,0.000000,0.000000,0.000000,0.000000,7.823996,6.485886,-0.351440
1649352045.822329,18082.000000,1649352045.822190,0.000000,0.000000,1.000000,0.000000,0.000000,0.000000,0.000000,7.827190,6.485051,-0.341591
1649352045.922086,18083.000000,1649352045.921927,0.000000,0.000000,1.000000,0.000000,0.000000,0.000000,0.000000,7.833513,6.482031,-0.298287
1649352046.021892,18084.000000,1649352046.021801,0.000000,0.000000,1.000000,0.000000,0.000000,0.000000,0.000000,7.837322,6.479138,-0.239884
1649352046.121841,18085.000000,1649352046.121746,0.000000,0.000000,1.000000,0.000000,0.000000,0.000000,0.000000,7.838739,6.476378,-0.213861
1649352046.222477,18086.000000,1649352046.222365,0.000000,0.000000,1.000000,0.000000,0.000000,0.000000,0.000000,7.838983,6.474843,-0.206851
1649352046.321937,18087.000000,1649352046.321838,0.000000,0.000000,1.000000,0.000000,0.000000,0.000000,0.000000,7.839207,6.473382,-0.214866
1649352046.422059,18088.000000,1649352046.421944,0.000000,0.000000,1.000000,0.000000,0.000000,0.000000,0.000000,7.840502,6.474177,-0.234051
1649352046.522010,18089.000000,1649352046.521910,0.000000,0.000000,1.000000,0.000000,0.000000,0.000000,0.000000,7.839534,6.473832,-0.267141
1649352046.621968,18090.000000,1649352046.621840,0.000000,0.000000,1.000000,0.000000,0.000000,0.000000,0.000000,7.837522,6.473500,-0.302221
1649352046.722203,18091.000000,1649352046.722059,0.000000,0.000000,1.000000,0.000000,0.000000,0.000000,0.000000,7.836709,6.473182,-0.338342
1649352046.822151,18092.000000,1649352046.822031,0.000000,0.000000,1.000000,0.000000,0.000000,0.000000,0.000000,7.835942,6.471789,-0.385075
1649352046.921995,18093.000000,1649352046.921895,0.000000,0.000000,1.000000,0.000000,0.000000,0.000000,0.000000,7.835222,6.471563,-0.428207
1649352047.022034,18094.000000,1649352047.021912,0.000000,0.000000,1.000000,0.000000,0.000000,0.000000,0.000000,7.834547,6.472443,-0.469426
1649352047.122032,18095.000000,1649352047.121933,0.000000,0.000000,1.000000,0.000000,0.000000,0.000000,0.000000,7.836098,6.473274,-0.512778
1649352047.222014,18096.000000,1649352047.221923,0.000000,0.000000,1.000000,0.000000,0.000000,0.000000,0.000000,7.836478,6.475148,-0.547631
1649352047.321931,18097.000000,1649352047.321840,0.000000,0.000000,1.000000,0.000000,0.000000,0.000000,0.000000,7.837928,6.478001,-0.577507
1649352047.421902,18098.000000,1649352047.421801,0.000000,0.000000,1.000000,0.000000,0.000000,0.000000,0.000000,7.838206,6.478500,-0.616279
1649352047.522046,18099.000000,1649352047.521922,0.000000,0.000000,1.000000,0.000000,0.000000,0.000000,0.000000,7.835193,6.476774,-0.603055
1649352047.622138,18100.000000,1649352047.622009,0.000000,0.000000,1.000000,0.000000,0.000000,0.000000,0.000000,7.833441,6.475131,-0.601263
1649352047.722365,18101.000000,1649352047.722211,0.000000,0.000000,1.000000,0.000000,0.000000,0.000000,0.000000,7.831795,6.473571,-0.616105
1649352047.822339,18102.000000,1649352047.822204,0.000000,0.000000,1.000000,0.000000,0.000000,0.000000,0.000000,7.830255,6.472096,-0.634000
1649352047.922604,18103.000000,1649352047.922434,0.000000,0.000000,1.000000,0.000000,0.000000,0.000000,0.000000,7.827728,6.471796,-0.658841
1649352048.022332,18104.000000,1649352048.022194,0.000000,0.000000,1.000000,0.000000,0.000000,0.000000,0.000000,7.826455,6.471518,-0.673389
1649352048.122129,18105.000000,1649352048.122021,0.000000,0.000000,1.000000,0.000000,0.000000,0.000000,0.000000,7.826370,6.472351,-0.691759
1649352048.221958,18106.000000,1649352048.221839,0.000000,0.000000,1.000000,0.000000,0.000000,0.000000,0.000000,7.826318,6.474231,-0.704109
1649352048.322687,18107.000000,1649352048.322538,0.000000,0.000000,1.000000,0.000000,0.000000,0.000000,0.000000,7.821933,6.474915,-0.688097
1649352048.422071,18108.000000,1649352048.421969,0.000000,0.000000,1.000000,0.000000,0.000000,0.000000,0.000000,7.818916,6.476647,-0.685236
1649352048.522235,18109.000000,1649352048.522075,0.000000,0.000000,1.000000,0.000000,0.000000,0.000000,0.000000,7.819379,6.475003,-0.640983
1649352048.622197,18110.000000,1649352048.622081,0.000000,0.000000,1.000000,0.000000,0.000000,0.000000,0.000000,7.819859,6.474535,-0.619196
1649352048.722172,18111.000000,1649352048.722039,0.000000,0.000000,1.000000,0.000000,0.000000,0.000000,0.000000,7.819260,6.474089,-0.605308
1649352048.822094,18112.000000,1649352048.821974,0.000000,0.000000,1.000000,0.000000,0.000000,0.000000,0.000000,7.818731,6.473665,-0.610325
1649352048.922032,18113.000000,1649352048.921927,0.000000,0.000000,1.000000,0.000000,0.000000,0.000000,0.000000,7.818268,6.473265,-0.622194
1649352049.021977,18114.000000,1649352049.021859,0.000000,0.000000,1.000000,0.000000,0.000000,0.000000,0.000000,7.817866,6.472888,-0.638209
1649352049.122057,18115.000000,1649352049.121922,0.000000,0.000000,1.000000,0.000000,0.000000,0.000000,0.000000,7.818612,6.473624,-0.643667
1649352049.222157,18116.000000,1649352049.222029,0.000000,0.000000,1.000000,0.000000,0.000000,0.000000,0.000000,7.819348,6.474321,-0.660769
1649352049.322053,18117.000000,1649352049.321925,0.000000,0.000000,1.000000,0.000000,0.000000,0.000000,0.000000,7.821161,6.476067,-0.667253
1649352049.422079,18118.000000,1649352049.421938,0.000000,0.000000,1.000000,0.000000,0.000000,0.000000,0.000000,7.821805,6.476620,-0.685321
1649352049.522084,18119.000000,1649352049.521960,0.000000,0.000000,1.000000,0.000000,0.000000,0.000000,0.000000,7.822430,6.476044,-0.706420
1649352049.622123,18120.000000,1649352049.621995,0.000000,0.000000,1.000000,0.000000,0.000000,0.000000,0.000000,7.820854,6.475492,-0.694113
1649352049.722098,18121.000000,1649352049.721942,0.000000,0.000000,1.000000,0.000000,0.000000,0.000000,0.000000,7.820472,6.474967,-0.696556
1649352049.822086,18122.000000,1649352049.821967,0.000000,0.000000,1.000000,0.000000,0.000000,0.000000,0.000000,7.821218,6.475557,-0.692192
1649352049.922210,18123.000000,1649352049.922055,0.000000,0.000000,1.000000,0.000000,0.000000,0.000000,0.000000,7.821939,6.477202,-0.707121
1649352050.022225,18124.000000,1649352050.022096,0.000000,0.000000,1.000000,0.000000,0.000000,0.000000,0.000000,7.823722,6.478747,-0.719582
1649352050.122090,18125.000000,1649352050.121930,0.000000,0.000000,1.000000,0.000000,0.000000,0.000000,0.000000,7.826504,6.480195,-0.730470
1649352050.222017,18126.000000,1649352050.221894,0.000000,0.000000,1.000000,0.000000,0.000000,0.000000,0.000000,7.829130,6.481547,-0.738228
1649352050.322175,18127.000000,1649352050.322008,0.000000,0.000000,1.000000,0.000000,0.000000,0.000000,0.000000,7.829420,6.483895,-0.704272
1649352050.421986,18128.000000,1649352050.421882,0.000000,0.000000,1.000000,0.000000,0.000000,0.000000,0.000000,7.827502,6.484998,-0.690835
1649352050.522291,18129.000000,1649352050.522161,0.000000,0.000000,1.000000,0.000000,0.000000,0.000000,0.000000,7.827863,6.484922,-0.685025
1649352050.622246,18130.000000,1649352050.622099,0.000000,0.000000,1.000000,0.000000,0.000000,0.000000,0.000000,7.829289,6.484823,-0.694616
1649352050.722138,18131.000000,1649352050.722017,0.000000,0.000000,1.000000,0.000000,0.000000,0.000000,0.000000,7.833898,6.480343,-0.656881
1649352050.822054,18132.000000,1649352050.821930,0.000000,0.000000,1.000000,0.000000,0.000000,0.000000,0.000000,7.838231,6.477188,-0.631863
1649352050.922117,18133.000000,1649352050.922003,0.000000,0.000000,1.000000,0.000000,0.000000,0.000000,0.000000,7.841202,6.477477,-0.609419
1649352051.022394,18134.000000,1649352051.022256,0.000000,0.000000,1.000000,0.000000,0.000000,0.000000,0.000000,7.842876,6.477751,-0.596742
1649352051.122322,18135.000000,1649352051.122176,0.000000,0.000000,1.000000,0.000000,0.000000,0.000000,0.000000,7.844413,6.478008,-0.600719
1649352051.222239,18136.000000,1649352051.222105,0.000000,0.000000,1.000000,0.000000,0.000000,0.000000,0.000000,7.842546,6.477160,-0.577123
1649352051.322032,18137.000000,1649352051.321907,0.000000,0.000000,1.000000,0.000000,0.000000,0.000000,0.000000,7.841832,6.476360,-0.573072
1649352051.421988,18138.000000,1649352051.421899,0.000000,0.000000,1.000000,0.000000,0.000000,0.000000,0.000000,7.841120,6.475606,-0.578108
1649352051.522076,18139.000000,1649352051.521956,0.000000,0.000000,1.000000,0.000000,0.000000,0.000000,0.000000,7.839326,6.474899,-0.597497
1649352051.622034,18140.000000,1649352051.621918,0.000000,0.000000,1.000000,0.000000,0.000000,0.000000,0.000000,7.837606,6.474239,-0.620143
1649352051.721973,18141.000000,1649352051.721840,0.000000,0.000000,1.000000,0.000000,0.000000,0.000000,0.000000,7.835963,6.473624,-0.642649
1649352051.821971,18142.000000,1649352051.821859,0.000000,0.000000,1.000000,0.000000,0.000000,0.000000,0.000000,7.834399,6.474144,-0.669825
1649352051.921966,18143.000000,1649352051.921872,0.000000,0.000000,1.000000,0.000000,0.000000,0.000000,0.000000,7.831824,6.474643,-0.696599
1649352052.021993,18144.000000,1649352052.021907,0.000000,0.000000,1.000000,0.000000,0.000000,0.000000,0.000000,7.830482,6.475123,-0.718915
1649352052.122005,18145.000000,1649352052.121911,0.000000,0.000000,1.000000,0.000000,0.000000,0.000000,0.000000,7.833583,6.472309,-0.691760
1649352052.222036,18146.000000,1649352052.221903,0.000000,0.000000,1.000000,0.000000,0.000000,0.000000,0.000000,7.835422,6.470752,-0.679278
1649352052.322258,18147.000000,1649352052.322113,0.000000,0.000000,1.000000,0.000000,0.000000,0.000000,0.000000,7.833880,6.469297,-0.647839
1649352052.422144,18148.000000,1649352052.422034,0.000000,0.000000,1.000000,0.000000,0.000000,0.000000,0.000000,7.832419,6.467943,-0.637783
1649352052.522401,18149.000000,1649352052.522283,0.000000,0.000000,1.000000,0.000000,0.000000,0.000000,0.000000,7.829949,6.465595,-0.648266
1649352052.622043,18150.000000,1649352052.621923,0.000000,0.000000,1.000000,0.000000,0.000000,0.000000,0.000000,7.827623,6.464496,-0.662315
1649352052.722058,18151.000000,1649352052.721896,0.000000,0.000000,1.000000,0.000000,0.000000,0.000000,0.000000,7.825440,6.463489,-0.683796
1649352052.822121,18152.000000,1649352052.822011,0.000000,0.000000,1.000000,0.000000,0.000000,0.000000,0.000000,7.823397,6.463659,-0.706730
1649352052.922360,18153.000000,1649352052.922233,0.000000,0.000000,1.000000,0.000000,0.000000,0.000000,0.000000,7.821493,6.463851,-0.738284
1649352053.022084,18154.000000,1649352053.022003,0.000000,0.000000,1.000000,0.000000,0.000000,0.000000,0.000000,7.820815,6.467332,-0.757093
1649352053.122128,18155.000000,1649352053.121983,0.000000,0.000000,1.000000,0.000000,0.000000,0.000000,0.000000,7.820205,6.470639,-0.776550
1649352053.222256,18156.000000,1649352053.222105,0.000000,0.000000,1.000000,0.000000,0.000000,0.000000,0.000000,7.818570,6.472680,-0.762734
1649352053.322089,18157.000000,1649352053.321937,0.000000,0.000000,1.000000,0.000000,0.000000,0.000000,0.000000,7.817060,6.473517,-0.758148
1649352053.421984,18158.000000,1649352053.421870,0.000000,0.000000,1.000000,0.000000,0.000000,0.000000,0.000000,7.823302,6.473213,-0.730985
1649352053.521995,18159.000000,1649352053.521886,0.000000,0.000000,1.000000,0.000000,0.000000,0.000000,0.000000,7.827040,6.472922,-0.716885
1649352053.622045,18160.000000,1649352053.621938,0.000000,0.000000,1.000000,0.000000,0.000000,0.000000,0.000000,7.828397,6.472644,-0.712126
1649352053.721999,18161.000000,1649352053.721895,0.000000,0.000000,1.000000,0.000000,0.000000,0.000000,0.000000,7.829679,6.472380,-0.715537
1649352053.822011,18162.000000,1649352053.821861,0.000000,0.000000,1.000000,0.000000,0.000000,0.000000,0.000000,7.829796,6.472130,-0.730012
1649352053.922174,18163.000000,1649352053.922053,0.000000,0.000000,1.000000,0.000000,0.000000,0.000000,0.000000,7.830992,6.471893,-0.744601
1649352054.022193,18164.000000,1649352054.022076,0.000000,0.000000,1.000000,0.000000,0.000000,0.000000,0.000000,7.828842,6.472761,-0.728634
1649352054.121965,18165.000000,1649352054.121860,0.000000,0.000000,1.000000,0.000000,0.000000,0.000000,0.000000,7.826809,6.473580,-0.720471
1649352054.222079,18166.000000,1649352054.221984,0.000000,0.000000,1.000000,0.000000,0.000000,0.000000,0.000000,7.825982,6.474350,-0.719009
1649352054.322036,18167.000000,1649352054.321933,0.000000,0.000000,1.000000,0.000000,0.000000,0.000000,0.000000,7.826298,6.472890,-0.724792
1649352054.422309,18168.000000,1649352054.422187,0.000000,0.000000,1.000000,0.000000,0.000000,0.000000,0.000000,7.825512,6.472600,-0.731874
1649352054.522313,18169.000000,1649352054.522170,0.000000,0.000000,1.000000,0.000000,0.000000,0.000000,0.000000,7.824777,6.473414,-0.741808
1649352054.622323,18170.000000,1649352054.622188,0.000000,0.000000,1.000000,0.000000,0.000000,0.000000,0.000000,7.825183,6.475272,-0.766562
1649352054.722608,18171.000000,1649352054.722358,0.000000,0.000000,1.000000,0.000000,0.000000,0.000000,0.000000,7.827756,6.477020,-0.789373
1649352054.822292,18172.000000,1649352054.822177,0.000000,0.000000,1.000000,0.000000,0.000000,0.000000,0.000000,7.828007,6.478659,-0.807867
1649352054.922048,18173.000000,1649352054.921931,0.000000,0.000000,1.000000,0.000000,0.000000,0.000000,0.000000,7.827153,6.481281,-0.806063
1649352055.022130,18174.000000,1649352055.022005,0.000000,0.000000,1.000000,0.000000,0.000000,0.000000,0.000000,7.830709,6.480464,-0.758179
1649352055.122069,18175.000000,1649352055.121935,0.000000,0.000000,1.000000,0.000000,0.000000,0.000000,0.000000,7.832971,6.480761,-0.733097
1649352055.221978,18176.000000,1649352055.221894,0.000000,0.000000,1.000000,0.000000,0.000000,0.000000,0.000000,7.835093,6.479930,-0.675912
1649352055.321939,18177.000000,1649352055.321798,0.000000,0.000000,1.000000,0.000000,0.000000,0.000000,0.000000,7.839259,6.475855,-0.595274
1649352055.422017,18178.000000,1649352055.421905,0.000000,0.000000,1.000000,0.000000,0.000000,0.000000,0.000000,7.843164,6.473090,-0.546297
1649352055.522147,18179.000000,1649352055.522027,0.000000,0.000000,1.000000,0.000000,0.000000,0.000000,0.000000,7.845721,6.471572,-0.514069
1649352055.622173,18180.000000,1649352055.622036,0.000000,0.000000,1.000000,0.000000,0.000000,0.000000,0.000000,7.846999,6.470146,-0.497960
1649352055.721989,18181.000000,1649352055.721879,0.000000,0.000000,1.000000,0.000000,0.000000,0.000000,0.000000,7.847066,6.469902,-0.494107
1649352055.822097,18182.000000,1649352055.822011,0.000000,0.000000,1.000000,0.000000,0.000000,0.000000,0.000000,7.847082,6.470776,-0.496367
1649352055.922066,18183.000000,1649352055.921958,0.000000,0.000000,1.000000,0.000000,0.000000,0.000000,0.000000,7.850322,6.468342,-0.458506
1649352056.021958,18184.000000,1649352056.021847,0.000000,0.000000,1.000000,0.000000,0.000000,0.000000,0.000000,7.853333,6.467148,-0.444292
1649352056.122174,18185.000000,1649352056.122018,0.000000,0.000000,1.000000,0.000000,0.000000,0.000000,0.000000,7.855030,6.467129,-0.435845
1649352056.222310,18186.000000,1649352056.222190,0.000000,0.000000,1.000000,0.000000,0.000000,0.000000,0.000000,7.857664,6.468221,-0.429706
1649352056.322377,18187.000000,1649352056.322232,0.000000,0.000000,1.000000,0.000000,0.000000,0.000000,0.000000,7.858998,6.468178,-0.439488
1649352056.422030,18188.000000,1649352056.421918,0.000000,0.000000,1.000000,0.000000,0.000000,0.000000,0.000000,7.859102,6.469241,-0.457258
1649352056.521995,18189.000000,1649352056.521880,0.000000,0.000000,1.000000,0.000000,0.000000,0.000000,0.000000,7.858047,6.469165,-0.483459
1649352056.622251,18190.000000,1649352056.622154,0.000000,0.000000,1.000000,0.000000,0.000000,0.000000,0.000000,7.856994,6.469103,-0.504792
1649352056.721943,18191.000000,1649352056.721835,0.000000,0.000000,1.000000,0.000000,0.000000,0.000000,0.000000,7.852677,6.466873,-0.479470
1649352056.821980,18192.000000,1649352056.821880,0.000000,0.000000,1.000000,0.000000,0.000000,0.000000,0.000000,7.849653,6.464780,-0.475541
1649352056.922234,18193.000000,1649352056.922127,0.000000,0.000000,1.000000,0.000000,0.000000,0.000000,0.000000,7.848953,6.463912,-0.484074
1649352057.022274,18194.000000,1649352057.022142,0.000000,0.000000,1.000000,0.000000,0.000000,0.000000,0.000000,7.848273,6.462024,-0.507770
1649352057.122237,18195.000000,1649352057.122072,0.000000,0.000000,1.000000,0.000000,0.000000,0.000000,0.000000,7.845434,6.460266,-0.540325
1649352057.222266,18196.000000,1649352057.222163,0.000000,0.000000,1.000000,0.000000,0.000000,0.000000,0.000000,7.842745,6.458635,-0.570030
1649352057.322260,18197.000000,1649352057.322117,0.000000,0.000000,1.000000,0.000000,0.000000,0.000000,0.000000,7.840205,6.458219,-0.605012
1649352057.422292,18198.000000,1649352057.422191,0.000000,0.000000,1.000000,0.000000,0.000000,0.000000,0.000000,7.837816,6.458949,-0.632094
1649352057.522111,18199.000000,1649352057.522003,0.000000,0.000000,1.000000,0.000000,0.000000,0.000000,0.000000,7.836665,6.460759,-0.669292
1649352057.622282,18200.000000,1649352057.622122,0.000000,0.000000,1.000000,0.000000,0.000000,0.000000,0.000000,7.835598,6.462493,-0.697590
1649352057.722432,18201.000000,1649352057.722308,0.000000,0.000000,1.000000,0.000000,0.000000,0.000000,0.000000,7.837883,6.463058,-0.701177
1649352057.822442,18202.000000,1649352057.822247,0.000000,0.000000,1.000000,0.000000,0.000000,0.000000,0.000000,7.838968,6.464695,-0.712501
1649352057.922628,18203.000000,1649352057.922481,0.000000,0.000000,1.000000,0.000000,0.000000,0.000000,0.000000,7.838914,6.466250,-0.728013
1649352058.022012,18204.000000,1649352058.021916,0.000000,0.000000,1.000000,0.000000,0.000000,0.000000,0.000000,7.837781,6.467722,-0.741075
1649352058.121928,18205.000000,1649352058.121819,0.000000,0.000000,1.000000,0.000000,0.000000,0.000000,0.000000,7.836724,6.470202,-0.748546
1649352058.221959,18206.000000,1649352058.221843,0.000000,0.000000,1.000000,0.000000,0.000000,0.000000,0.000000,7.835739,6.472535,-0.753874
1649352058.322089,18207.000000,1649352058.321969,0.000000,0.000000,1.000000,0.000000,0.000000,0.000000,0.000000,7.833736,6.474724,-0.760373
1649352058.422102,18208.000000,1649352058.421986,0.000000,0.000000,1.000000,0.000000,0.000000,0.000000,0.000000,7.832954,6.476770,-0.762348
1649352058.522282,18209.000000,1649352058.522192,0.000000,0.000000,1.000000,0.000000,0.000000,0.000000,0.000000,7.830059,6.477586,-0.768052
1649352058.622009,18210.000000,1649352058.621912,0.000000,0.000000,1.000000,0.000000,0.000000,0.000000,0.000000,7.828443,6.479419,-0.762013
1649352058.722219,18211.000000,1649352058.722093,0.000000,0.000000,1.000000,0.000000,0.000000,0.000000,0.000000,7.826951,6.481119,-0.765690
1649352058.822140,18212.000000,1649352058.822000,0.000000,0.000000,1.000000,0.000000,0.000000,0.000000,0.000000,7.825577,6.483779,-0.774663
1649352058.922078,18213.000000,1649352058.921964,0.000000,0.000000,1.000000,0.000000,0.000000,0.000000,0.000000,7.825409,6.486251,-0.781453
1649352059.022084,18214.000000,1649352059.021984,0.000000,0.000000,1.000000,0.000000,0.000000,0.000000,0.000000,7.825287,6.487450,-0.790178
1649352059.121980,18215.000000,1649352059.121882,0.000000,0.000000,1.000000,0.000000,0.000000,0.000000,0.000000,7.824119,6.488534,-0.802366
1649352059.221952,18216.000000,1649352059.221855,0.000000,0.000000,1.000000,0.000000,0.000000,0.000000,0.000000,7.825232,6.487329,-0.820286
1649352059.322052,18217.000000,1649352059.321930,0.000000,0.000000,1.000000,0.000000,0.000000,0.000000,0.000000,7.825227,6.486146,-0.838042
1649352059.422135,18218.000000,1649352059.421979,0.000000,0.000000,1.000000,0.000000,0.000000,0.000000,0.000000,7.825252,6.486080,-0.847554
1649352059.522187,18219.000000,1649352059.522053,0.000000,0.000000,1.000000,0.000000,0.000000,0.000000,0.000000,7.828576,6.483803,-0.811248
1649352059.621845,18220.000000,1649352059.621745,0.000000,0.000000,1.000000,0.000000,0.000000,0.000000,0.000000,7.830644,6.481625,-0.747979
1649352059.721948,18221.000000,1649352059.721856,0.000000,0.000000,1.000000,0.000000,0.000000,0.000000,0.000000,7.833699,6.479547,-0.712174
1649352059.822029,18222.000000,1649352059.821916,0.000000,0.000000,1.000000,0.000000,0.000000,0.000000,0.000000,7.835496,6.478664,-0.695534
1649352059.922232,18223.000000,1649352059.922063,0.000000,0.000000,1.000000,0.000000,0.000000,0.000000,0.000000,7.836099,6.478913,-0.681187
1649352060.022296,18224.000000,1649352060.022174,0.000000,0.000000,1.000000,0.000000,0.000000,0.000000,0.000000,7.832298,6.476961,-0.628740
1649352060.122257,18225.000000,1649352060.122146,0.000000,0.000000,1.000000,0.000000,0.000000,0.000000,0.000000,7.835251,6.472934,-0.558365
1649352060.222361,18226.000000,1649352060.222203,0.000000,0.000000,1.000000,0.000000,0.000000,0.000000,0.000000,7.838038,6.470229,-0.514448
1649352060.322567,18227.000000,1649352060.322395,0.000000,0.000000,1.000000,0.000000,0.000000,0.000000,0.000000,7.839568,6.467692,-0.491955
1649352060.422331,18228.000000,1649352060.422195,0.000000,0.000000,1.000000,0.000000,0.000000,0.000000,0.000000,7.840998,6.465320,-0.484403
1649352060.522442,18229.000000,1649352060.522275,0.000000,0.000000,1.000000,0.000000,0.000000,0.000000,0.000000,7.842328,6.465292,-0.483931
1649352060.622440,18230.000000,1649352060.622310,0.000000,0.000000,1.000000,0.000000,0.000000,0.000000,0.000000,7.839200,6.463115,-0.441046
1649352060.722221,18231.000000,1649352060.722059,0.000000,0.000000,1.000000,0.000000,0.000000,0.000000,0.000000,7.840590,6.458912,-0.370421
1649352060.822354,18232.000000,1649352060.822179,0.000000,0.000000,1.000000,0.000000,0.000000,0.000000,0.000000,7.845160,6.453895,-0.277311
1649352060.922152,18233.000000,1649352060.922047,0.000000,0.000000,1.000000,0.000000,0.000000,0.000000,0.000000,7.848360,6.451393,-0.218405
1649352061.022103,18234.000000,1649352061.021982,0.000000,0.000000,1.000000,0.000000,0.000000,0.000000,0.000000,7.849166,6.449092,-0.190786
1649352061.122516,18235.000000,1649352061.122335,0.000000,0.000000,1.000000,0.000000,0.000000,0.000000,0.000000,7.850981,6.449165,-0.180308
1649352061.222385,18236.000000,1649352061.222234,0.000000,0.000000,1.000000,0.000000,0.000000,0.000000,0.000000,7.850473,6.450389,-0.182235
1649352061.322388,18237.000000,1649352061.322255,0.000000,0.000000,1.000000,0.000000,0.000000,0.000000,0.000000,7.849955,6.452693,-0.192809
1649352061.422868,18238.000000,1649352061.422730,0.000000,0.000000,1.000000,0.000000,0.000000,0.000000,0.000000,7.852702,6.452738,-0.166475
1649352061.521996,18239.000000,1649352061.521885,0.000000,0.000000,1.000000,0.000000,0.000000,0.000000,0.000000,7.850896,6.452822,-0.135385
1649352061.622125,18240.000000,1649352061.621980,0.000000,0.000000,1.000000,0.000000,0.000000,0.000000,0.000000,7.848066,6.452943,-0.132820
1649352061.722062,18241.000000,1649352061.721945,0.000000,0.000000,1.000000,0.000000,0.000000,0.000000,0.000000,7.845368,6.453095,-0.146317
1649352061.821976,18242.000000,1649352061.821870,0.000000,0.000000,1.000000,0.000000,0.000000,0.000000,0.000000,7.842804,6.453274,-0.171954
1649352061.922096,18243.000000,1649352061.921939,0.000000,0.000000,1.000000,0.000000,0.000000,0.000000,0.000000,7.840376,6.455657,-0.197883
1649352062.022123,18244.000000,1649352062.022022,0.000000,0.000000,1.000000,0.000000,0.000000,0.000000,0.000000,7.834814,6.454662,-0.180477
1649352062.121871,18245.000000,1649352062.121760,0.000000,0.000000,1.000000,0.000000,0.000000,0.000000,0.000000,7.836118,6.450474,-0.133591
1649352062.221987,18246.000000,1649352062.221892,0.000000,0.000000,1.000000,0.000000,0.000000,0.000000,0.000000,7.837368,6.448733,-0.113312
1649352062.321868,18247.000000,1649352062.321762,0.000000,0.000000,1.000000,0.000000,0.000000,0.000000,0.000000,7.841832,6.446036,-0.061321
1649352062.421897,18248.000000,1649352062.421795,0.000000,0.000000,1.000000,0.000000,0.000000,0.000000,0.000000,7.841688,6.443532,-0.003155
1649352062.521920,18249.000000,1649352062.521818,0.000000,0.000000,1.000000,0.000000,0.000000,0.000000,0.000000,7.840458,6.443397,0.023765
1649352062.622050,18250.000000,1649352062.621942,0.000000,0.000000,1.000000,0.000000,0.000000,0.000000,0.000000,7.839297,6.444408,0.028747
1649352062.722013,18251.000000,1649352062.721901,0.000000,0.000000,1.000000,0.000000,0.000000,0.000000,0.000000,7.838204,6.446498,0.022373
1649352062.822098,18252.000000,1649352062.821975,0.000000,0.000000,1.000000,0.000000,0.000000,0.000000,0.000000,7.836088,6.448507,0.000302
1649352062.922405,18253.000000,1649352062.922289,0.000000,0.000000,1.000000,0.000000,0.000000,0.000000,0.000000,7.835192,6.450433,-0.030320
1649352063.022328,18254.000000,1649352063.022198,0.000000,0.000000,1.000000,0.000000,0.000000,0.000000,0.000000,7.833271,6.451182,-0.072297
1649352063.122332,18255.000000,1649352063.122217,0.000000,0.000000,1.000000,0.000000,0.000000,0.000000,0.000000,7.831475,6.454085,-0.116208
1649352063.222319,18256.000000,1649352063.222177,0.000000,0.000000,1.000000,0.000000,0.000000,0.000000,0.000000,7.828713,6.457925,-0.148982
1649352063.322312,18257.000000,1649352063.322163,0.000000,0.000000,1.000000,0.000000,0.000000,0.000000,0.000000,7.826134,6.461548,-0.184707
1649352063.422351,18258.000000,1649352063.422203,0.000000,0.000000,1.000000,0.000000,0.000000,0.000000,0.000000,7.827006,6.460594,-0.176421
1649352063.522537,18259.000000,1649352063.522321,0.000000,0.000000,1.000000,0.000000,0.000000,0.000000,0.000000,7.828955,6.459677,-0.196871
1649352063.622110,18260.000000,1649352063.621994,0.000000,0.000000,1.000000,0.000000,0.000000,0.000000,0.000000,7.830824,6.459890,-0.228729
1649352063.722002,18261.000000,1649352063.721882,0.000000,0.000000,1.000000,0.000000,0.000000,0.000000,0.000000,7.836972,6.458989,-0.219055
1649352063.821936,18262.000000,1649352063.821832,0.000000,0.000000,1.000000,0.000000,0.000000,0.000000,0.000000,7.846054,6.457040,-0.181633
1649352063.922053,18263.000000,1649352063.921942,0.000000,0.000000,1.000000,0.000000,0.000000,0.000000,0.000000,7.852430,6.456287,-0.174094
1649352064.022035,18264.000000,1649352064.021939,0.000000,0.000000,1.000000,0.000000,0.000000,0.000000,0.000000,7.855139,6.457757,-0.176691
1649352064.122176,18265.000000,1649352064.122014,0.000000,0.000000,1.000000,0.000000,0.000000,0.000000,0.000000,7.854375,6.460234,-0.169649
1649352064.222071,18266.000000,1649352064.221946,0.000000,0.000000,1.000000,0.000000,0.000000,0.000000,0.000000,7.853604,6.464746,-0.188041
1649352064.322088,18267.000000,1649352064.321984,0.000000,0.000000,1.000000,0.000000,0.000000,0.000000,0.000000,7.852832,6.468988,-0.216288
1649352064.422648,18268.000000,1649352064.422549,0.000000,0.000000,1.000000,0.000000,0.000000,0.000000,0.000000,7.852062,6.472962,-0.249101
1649352064.521970,18269.000000,1649352064.521867,0.000000,0.000000,1.000000,0.000000,0.000000,0.000000,0.000000,7.851301,6.477764,-0.284625
1649352064.622065,18270.000000,1649352064.621947,0.000000,0.000000,1.000000,0.000000,0.000000,0.000000,0.000000,7.853823,6.477884,-0.275917
1649352064.721980,18271.000000,1649352064.721894,0.000000,0.000000,1.000000,0.000000,0.000000,0.000000,0.000000,7.855082,6.479031,-0.283647
1649352064.821989,18272.000000,1649352064.821904,0.000000,0.000000,1.000000,0.000000,0.000000,0.000000,0.000000,7.854053,6.481149,-0.296657
1649352064.922227,18273.000000,1649352064.922063,0.000000,0.000000,1.000000,0.000000,0.000000,0.000000,0.000000,7.854138,6.483093,-0.317135
1649352065.022428,18274.000000,1649352065.022316,0.000000,0.000000,1.000000,0.000000,0.000000,0.000000,0.000000,7.853098,6.483777,-0.345554
1649352065.122545,18275.000000,1649352065.122369,0.000000,0.000000,1.000000,0.000000,0.000000,0.000000,0.000000,7.850998,6.485454,-0.375905
1649352065.222116,18276.000000,1649352065.222030,0.000000,0.000000,1.000000,0.000000,0.000000,0.000000,0.000000,7.848995,6.485886,-0.416130
1649352065.321990,18277.000000,1649352065.321891,0.000000,0.000000,1.000000,0.000000,0.000000,0.000000,0.000000,7.847091,6.486233,-0.459318
1649352065.421999,18278.000000,1649352065.421891,0.000000,0.000000,1.000000,0.000000,0.000000,0.000000,0.000000,7.846378,6.484323,-0.510934
1649352065.522179,18279.000000,1649352065.522061,0.000000,0.000000,1.000000,0.000000,0.000000,0.000000,0.000000,7.845702,6.484649,-0.552821
1649352065.622388,18280.000000,1649352065.622266,0.000000,0.000000,1.000000,0.000000,0.000000,0.000000,0.000000,7.847245,6.484910,-0.590962
1649352065.722108,18281.000000,1649352065.721996,0.000000,0.000000,1.000000,0.000000,0.000000,0.000000,0.000000,7.847609,6.487292,-0.624655
1649352065.822006,18282.000000,1649352065.821892,0.000000,0.000000,1.000000,0.000000,0.000000,0.000000,0.000000,7.847949,6.488405,-0.654849
1649352065.922123,18283.000000,1649352065.921984,0.000000,0.000000,1.000000,0.000000,0.000000,0.000000,0.000000,7.848264,6.490496,-0.675206
1649352066.022285,18284.000000,1649352066.022146,0.000000,0.000000,1.000000,0.000000,0.000000,0.000000,0.000000,7.848556,6.491329,-0.653045
1649352066.121981,18285.000000,1649352066.121880,0.000000,0.000000,1.000000,0.000000,0.000000,0.000000,0.000000,7.848826,6.492063,-0.649013
1649352066.222016,18286.000000,1649352066.221907,0.000000,0.000000,1.000000,0.000000,0.000000,0.000000,0.000000,7.850163,6.491613,-0.657569
1649352066.322104,18287.000000,1649352066.321977,0.000000,0.000000,1.000000,0.000000,0.000000,0.000000,0.000000,7.851417,6.492229,-0.672566
1649352066.421980,18288.000000,1649352066.421878,0.000000,0.000000,1.000000,0.000000,0.000000,0.000000,0.000000,7.852588,6.492765,-0.693738
1649352066.522130,18289.000000,1649352066.521999,0.000000,0.000000,1.000000,0.000000,0.000000,0.000000,0.000000,7.852588,6.492134,-0.716789
1649352066.622265,18290.000000,1649352066.622145,0.000000,0.000000,1.000000,0.000000,0.000000,0.000000,0.000000,7.852571,6.491496,-0.739205
1649352066.722539,18291.000000,1649352066.722060,0.000000,0.000000,1.000000,0.000000,0.000000,0.000000,0.000000,7.852540,6.490854,-0.759383
1649352066.822435,18292.000000,1649352066.822276,0.000000,0.000000,1.000000,0.000000,0.000000,0.000000,0.000000,7.852496,6.491305,-0.780625
1649352066.922078,18293.000000,1649352066.921968,0.000000,0.000000,1.000000,0.000000,0.000000,0.000000,0.000000,7.851352,6.490608,-0.806910
1649352067.022026,18294.000000,1649352067.021919,0.000000,0.000000,1.000000,0.000000,0.000000,0.000000,0.000000,7.849170,6.492102,-0.823495
1649352067.121992,18295.000000,1649352067.121872,0.000000,0.000000,1.000000,0.000000,0.000000,0.000000,0.000000,7.847105,6.491301,-0.845284
1649352067.222011,18296.000000,1649352067.221904,0.000000,0.000000,1.000000,0.000000,0.000000,0.000000,0.000000,7.841887,6.490516,-0.844635
1649352067.321937,18297.000000,1649352067.321831,0.000000,0.000000,1.000000,0.000000,0.000000,0.000000,0.000000,7.838064,6.488661,-0.850705
1649352067.421975,18298.000000,1649352067.421852,0.000000,0.000000,1.000000,0.000000,0.000000,0.000000,0.000000,7.835572,6.486890,-0.854365
1649352067.522290,18299.000000,1649352067.522147,0.000000,0.000000,1.000000,0.000000,0.000000,0.000000,0.000000,7.839796,6.481935,-0.811374
1649352067.622401,18300.000000,1649352067.622241,0.000000,0.000000,1.000000,0.000000,0.000000,0.000000,0.000000,7.842723,6.478347,-0.784998
1649352067.722339,18301.000000,1649352067.722204,0.000000,0.000000,1.000000,0.000000,0.000000,0.000000,0.000000,7.845501,6.474971,-0.777051
1649352067.822323,18302.000000,1649352067.822195,0.000000,0.000000,1.000000,0.000000,0.000000,0.000000,0.000000,7.847041,6.472897,-0.780367
1649352067.922666,18303.000000,1649352067.922501,0.000000,0.000000,1.000000,0.000000,0.000000,0.000000,0.000000,7.847404,6.470968,-0.794501
1649352068.022399,18304.000000,1649352068.022252,0.000000,0.000000,1.000000,0.000000,0.000000,0.000000,0.000000,7.846653,6.470271,-0.808524
1649352068.122211,18305.000000,1649352068.122117,0.000000,0.000000,1.000000,0.000000,0.000000,0.000000,0.000000,7.847032,6.470738,-0.818399
1649352068.222037,18306.000000,1649352068.221916,0.000000,0.000000,1.000000,0.000000,0.000000,0.000000,0.000000,7.846299,6.471213,-0.832356
1649352068.323435,18307.000000,1649352068.322996,0.000000,0.000000,1.000000,0.000000,0.000000,0.000000,0.000000,7.845606,6.470601,-0.847801
1649352068.422522,18308.000000,1649352068.422380,0.000000,0.000000,1.000000,0.000000,0.000000,0.000000,0.000000,7.849314,6.467871,-0.817891
1649352068.522250,18309.000000,1649352068.522127,0.000000,0.000000,1.000000,0.000000,0.000000,0.000000,0.000000,7.851721,6.465326,-0.805810
1649352068.621999,18310.000000,1649352068.621886,0.000000,0.000000,1.000000,0.000000,0.000000,0.000000,0.000000,7.855071,6.462962,-0.806035
1649352068.721982,18311.000000,1649352068.721875,0.000000,0.000000,1.000000,0.000000,0.000000,0.000000,0.000000,7.854942,6.462955,-0.795500
1649352068.822134,18312.000000,1649352068.821971,0.000000,0.000000,1.000000,0.000000,0.000000,0.000000,0.000000,7.855886,6.464084,-0.785151
1649352068.922203,18313.000000,1649352068.922053,0.000000,0.000000,1.000000,0.000000,0.000000,0.000000,0.000000,7.855662,6.466280,-0.779849
1649352069.021996,18314.000000,1649352069.021880,0.000000,0.000000,1.000000,0.000000,0.000000,0.000000,0.000000,7.855427,6.468386,-0.792310
1649352069.122053,18315.000000,1649352069.121930,0.000000,0.000000,1.000000,0.000000,0.000000,0.000000,0.000000,7.855184,6.469308,-0.811321
1649352069.222107,18316.000000,1649352069.222006,0.000000,0.000000,1.000000,0.000000,0.000000,0.000000,0.000000,7.854934,6.469106,-0.832563
1649352069.321987,18317.000000,1649352069.321879,0.000000,0.000000,1.000000,0.000000,0.000000,0.000000,0.000000,7.855771,6.468932,-0.855112
1649352069.422073,18318.000000,1649352069.421942,0.000000,0.000000,1.000000,0.000000,0.000000,0.000000,0.000000,7.854363,6.470965,-0.863567
1649352069.522026,18319.000000,1649352069.521906,0.000000,0.000000,1.000000,0.000000,0.000000,0.000000,0.000000,7.853018,6.471805,-0.875427
1649352069.622017,18320.000000,1649352069.621908,0.000000,0.000000,1.000000,0.000000,0.000000,0.000000,0.000000,7.850647,6.472605,-0.883291
1649352069.722107,18321.000000,1649352069.721994,0.000000,0.000000,1.000000,0.000000,0.000000,0.000000,0.000000,7.847314,6.475545,-0.887317
1649352069.821974,18322.000000,1649352069.821860,0.000000,0.000000,1.000000,0.000000,0.000000,0.000000,0.000000,7.841993,6.477228,-0.856214
1649352069.922047,18323.000000,1649352069.921893,0.000000,0.000000,1.000000,0.000000,0.000000,0.000000,0.000000,7.834806,6.477718,-0.787431
1649352070.022302,18324.000000,1649352070.022156,0.000000,0.000000,1.000000,0.000000,0.000000,0.000000,0.000000,7.828058,6.480349,-0.728581
1649352070.122255,18325.000000,1649352070.122058,0.000000,0.000000,1.000000,0.000000,0.000000,0.000000,0.000000,7.823924,6.481727,-0.648721
1649352070.222328,18326.000000,1649352070.222184,0.000000,0.000000,1.000000,0.000000,0.000000,0.000000,0.000000,7.820091,6.483006,-0.594802
1649352070.322202,18327.000000,1649352070.322051,0.000000,0.000000,1.000000,0.000000,0.000000,0.000000,0.000000,7.818730,6.484190,-0.556185
1649352070.421973,18328.000000,1649352070.421863,0.000000,0.000000,1.000000,0.000000,0.000000,0.000000,0.000000,7.817525,6.485282,-0.526666
1649352070.521988,18329.000000,1649352070.521875,0.000000,0.000000,1.000000,0.000000,0.000000,0.000000,0.000000,7.816467,6.485194,-0.510754
1649352070.622198,18330.000000,1649352070.622069,0.000000,0.000000,1.000000,0.000000,0.000000,0.000000,0.000000,7.812276,6.485082,-0.475657
1649352070.722466,18331.000000,1649352070.722332,0.000000,0.000000,1.000000,0.000000,0.000000,0.000000,0.000000,7.808401,6.486042,-0.456869
1649352070.822278,18332.000000,1649352070.822169,0.000000,0.000000,1.000000,0.000000,0.000000,0.000000,0.000000,7.805923,6.485831,-0.453751
1649352070.922027,18333.000000,1649352070.921930,0.000000,0.000000,1.000000,0.000000,0.000000,0.000000,0.000000,7.804769,6.484516,-0.461627
1649352071.021960,18334.000000,1649352071.021856,0.000000,0.000000,1.000000,0.000000,0.000000,0.000000,0.000000,7.804864,6.482163,-0.480830
1649352071.121333,18335.000000,1649352071.121223,0.000000,0.000000,1.000000,0.000000,0.000000,0.000000,0.000000,7.805044,6.479926,-0.499567
1649352071.222024,18336.000000,1649352071.221898,0.000000,0.000000,1.000000,0.000000,0.000000,0.000000,0.000000,7.804208,6.481080,-0.514585
1649352071.322147,18337.000000,1649352071.322004,0.000000,0.000000,1.000000,0.000000,0.000000,0.000000,0.000000,7.804590,6.482164,-0.531644
1649352071.422024,18338.000000,1649352071.421932,0.000000,0.000000,1.000000,0.000000,0.000000,0.000000,0.000000,7.811569,6.478817,-0.507073
1649352071.522224,18339.000000,1649352071.522099,0.000000,0.000000,1.000000,0.000000,0.000000,0.000000,0.000000,7.816038,6.477835,-0.495005
1649352071.622134,18340.000000,1649352071.622021,0.000000,0.000000,1.000000,0.000000,0.000000,0.000000,0.000000,7.818115,6.475820,-0.496558
1649352071.722008,18341.000000,1649352071.721890,0.000000,0.000000,1.000000,0.000000,0.000000,0.000000,0.000000,7.814651,6.472835,-0.465205
1649352071.821988,18342.000000,1649352071.821864,0.000000,0.000000,1.000000,0.000000,0.000000,0.000000,0.000000,7.814681,6.468941,-0.400702
1649352071.922102,18343.000000,1649352071.922006,0.000000,0.000000,1.000000,0.000000,0.000000,0.000000,0.000000,7.816922,6.465290,-0.369000
1649352072.022017,18344.000000,1649352072.021892,0.000000,0.000000,1.000000,0.000000,0.000000,0.000000,0.000000,7.817974,6.462968,-0.358331
1649352072.122093,18345.000000,1649352072.121904,0.000000,0.000000,1.000000,0.000000,0.000000,0.000000,0.000000,7.818986,6.460818,-0.373495
1649352072.222133,18346.000000,1649352072.221984,0.000000,0.000000,1.000000,0.000000,0.000000,0.000000,0.000000,7.818867,6.458834,-0.398891
1649352072.322353,18347.000000,1649352072.322203,0.000000,0.000000,1.000000,0.000000,0.000000,0.000000,0.000000,7.818768,6.459192,-0.415500
1649352072.422275,18348.000000,1649352072.422153,0.000000,0.000000,1.000000,0.000000,0.000000,0.000000,0.000000,7.818688,6.460669,-0.434926
1649352072.522293,18349.000000,1649352072.522177,0.000000,0.000000,1.000000,0.000000,0.000000,0.000000,0.000000,7.817534,6.463197,-0.448947
1649352072.622015,18350.000000,1649352072.621887,0.000000,0.000000,1.000000,0.000000,0.000000,0.000000,0.000000,7.817549,6.465618,-0.479522
1649352072.722198,18351.000000,1649352072.722070,0.000000,0.000000,1.000000,0.000000,0.000000,0.000000,0.000000,7.817578,6.467928,-0.509796
1649352072.822130,18352.000000,1649352072.821987,0.000000,0.000000,1.000000,0.000000,0.000000,0.000000,0.000000,7.814348,6.467945,-0.514723
1649352072.922448,18353.000000,1649352072.922299,0.000000,0.000000,1.000000,0.000000,0.000000,0.000000,0.000000,7.811317,6.467972,-0.531605
1649352073.022174,18354.000000,1649352073.022025,0.000000,0.000000,1.000000,0.000000,0.000000,0.000000,0.000000,7.809572,6.468010,-0.545412
1649352073.122071,18355.000000,1649352073.121916,0.000000,0.000000,1.000000,0.000000,0.000000,0.000000,0.000000,7.809048,6.470237,-0.554632
1649352073.221995,18356.000000,1649352073.221885,0.000000,0.000000,1.000000,0.000000,0.000000,0.000000,0.000000,7.808587,6.472345,-0.570724
1649352073.322118,18357.000000,1649352073.322010,0.000000,0.000000,1.000000,0.000000,0.000000,0.000000,0.000000,7.808185,6.474334,-0.587738
1649352073.421972,18358.000000,1649352073.421868,0.000000,0.000000,1.000000,0.000000,0.000000,0.000000,0.000000,7.807839,6.476206,-0.571740
1649352073.522052,18359.000000,1649352073.521946,0.000000,0.000000,1.000000,0.000000,0.000000,0.000000,0.000000,7.806453,6.479050,-0.551510
1649352073.622060,18360.000000,1649352073.621935,0.000000,0.000000,1.000000,0.000000,0.000000,0.000000,0.000000,7.806269,6.482806,-0.539350
1649352073.722027,18361.000000,1649352073.721916,0.000000,0.000000,1.000000,0.000000,0.000000,0.000000,0.000000,7.810489,6.484143,-0.508344
1649352073.822072,18362.000000,1649352073.821959,0.000000,0.000000,1.000000,0.000000,0.000000,0.000000,0.000000,7.814498,6.483191,-0.499625
1649352073.922138,18363.000000,1649352073.921995,0.000000,0.000000,1.000000,0.000000,0.000000,0.000000,0.000000,7.817203,6.481169,-0.489726
1649352074.022154,18364.000000,1649352074.021952,0.000000,0.000000,1.000000,0.000000,0.000000,0.000000,0.000000,7.818666,6.481415,-0.490806
1649352074.122339,18365.000000,1649352074.122195,0.000000,0.000000,1.000000,0.000000,0.000000,0.000000,0.000000,7.821131,6.480534,-0.505641
1649352074.222308,18366.000000,1649352074.222151,0.000000,0.000000,1.000000,0.000000,0.000000,0.000000,0.000000,7.822355,6.480774,-0.487680
1649352074.322226,18367.000000,1649352074.322075,0.000000,0.000000,1.000000,0.000000,0.000000,0.000000,0.000000,7.828947,6.477712,-0.435048
1649352074.422296,18368.000000,1649352074.422103,0.000000,0.000000,1.000000,0.000000,0.000000,0.000000,0.000000,7.834050,6.475900,-0.402453
1649352074.522484,18369.000000,1649352074.522325,0.000000,0.000000,1.000000,0.000000,0.000000,0.000000,0.000000,7.838823,6.474185,-0.394780
1649352074.622434,18370.000000,1649352074.622294,0.000000,0.000000,1.000000,0.000000,0.000000,0.000000,0.000000,7.841091,6.472568,-0.404578
1649352074.722111,18371.000000,1649352074.721993,0.000000,0.000000,1.000000,0.000000,0.000000,0.000000,0.000000,7.842078,6.471048,-0.384341
1649352074.822135,18372.000000,1649352074.822012,0.000000,0.000000,1.000000,0.000000,0.000000,0.000000,0.000000,7.841853,6.471805,-0.372404
1649352074.922004,18373.000000,1649352074.921889,0.000000,0.000000,1.000000,0.000000,0.000000,0.000000,0.000000,7.844850,6.470350,-0.355538
1649352075.022011,18374.000000,1649352075.021898,0.000000,0.000000,1.000000,0.000000,0.000000,0.000000,0.000000,7.845434,6.470080,-0.354930
1649352075.122127,18375.000000,1649352075.121944,0.000000,0.000000,1.000000,0.000000,0.000000,0.000000,0.000000,7.841559,6.468748,-0.316688
1649352075.222337,18376.000000,1649352075.222184,0.000000,0.000000,1.000000,0.000000,0.000000,0.000000,0.000000,7.838935,6.468596,-0.298836
1649352075.322302,18377.000000,1649352075.322195,0.000000,0.000000,1.000000,0.000000,0.000000,0.000000,0.000000,7.836415,6.469560,-0.298149
1649352075.422418,18378.000000,1649352075.422270,0.000000,0.000000,1.000000,0.000000,0.000000,0.000000,0.000000,7.834004,6.469395,-0.303441
1649352075.522431,18379.000000,1649352075.522246,0.000000,0.000000,1.000000,0.000000,0.000000,0.000000,0.000000,7.831705,6.469251,-0.323318
1649352075.622037,18380.000000,1649352075.621922,0.000000,0.000000,1.000000,0.000000,0.000000,0.000000,0.000000,7.830610,6.468037,-0.356343
1649352075.722100,18381.000000,1649352075.721990,0.000000,0.000000,1.000000,0.000000,0.000000,0.000000,0.000000,7.829568,6.466905,-0.391433
1649352075.822218,18382.000000,1649352075.822071,0.000000,0.000000,1.000000,0.000000,0.000000,0.000000,0.000000,7.827489,6.468034,-0.412311
1649352075.922300,18383.000000,1649352075.922169,0.000000,0.000000,1.000000,0.000000,0.000000,0.000000,0.000000,7.826617,6.469115,-0.394510
1649352076.022219,18384.000000,1649352076.022098,0.000000,0.000000,1.000000,0.000000,0.000000,0.000000,0.000000,7.826888,6.470147,-0.386389
1649352076.122337,18385.000000,1649352076.122212,0.000000,0.000000,1.000000,0.000000,0.000000,0.000000,0.000000,7.827150,6.471128,-0.391602
1649352076.222215,18386.000000,1649352076.222117,0.000000,0.000000,1.000000,0.000000,0.000000,0.000000,0.000000,7.828491,6.472058,-0.369275
1649352076.322136,18387.000000,1649352076.321997,0.000000,0.000000,1.000000,0.000000,0.000000,0.000000,0.000000,7.828669,6.472936,-0.361680
1649352076.422501,18388.000000,1649352076.422379,0.000000,0.000000,1.000000,0.000000,0.000000,0.000000,0.000000,7.828835,6.473763,-0.368233
1649352076.522143,18389.000000,1649352076.522027,0.000000,0.000000,1.000000,0.000000,0.000000,0.000000,0.000000,7.827900,6.474540,-0.386733
1649352076.621980,18390.000000,1649352076.621864,0.000000,0.000000,1.000000,0.000000,0.000000,0.000000,0.000000,7.827017,6.475266,-0.412630
1649352076.722044,18391.000000,1649352076.721904,0.000000,0.000000,1.000000,0.000000,0.000000,0.000000,0.000000,7.825096,6.475942,-0.445579
1649352076.821986,18392.000000,1649352076.821878,0.000000,0.000000,1.000000,0.000000,0.000000,0.000000,0.000000,7.823290,6.475480,-0.482013
1649352076.922103,18393.000000,1649352076.921994,0.000000,0.000000,1.000000,0.000000,0.000000,0.000000,0.000000,7.822687,6.475034,-0.522537
1649352077.022061,18394.000000,1649352077.021931,0.000000,0.000000,1.000000,0.000000,0.000000,0.000000,0.000000,7.823224,6.473515,-0.566114
1649352077.122232,18395.000000,1649352077.122087,0.000000,0.000000,1.000000,0.000000,0.000000,0.000000,0.000000,7.824835,6.473166,-0.598038
1649352077.222057,18396.000000,1649352077.221930,0.000000,0.000000,1.000000,0.000000,0.000000,0.000000,0.000000,7.826365,6.472836,-0.631638
1649352077.322071,18397.000000,1649352077.321947,0.000000,0.000000,1.000000,0.000000,0.000000,0.000000,0.000000,7.826724,6.472523,-0.672444
1649352077.421977,18398.000000,1649352077.421871,0.000000,0.000000,1.000000,0.000000,0.000000,0.000000,0.000000,7.827065,6.472229,-0.708013
1649352077.522010,18399.000000,1649352077.521881,0.000000,0.000000,1.000000,0.000000,0.000000,0.000000,0.000000,7.828478,6.473044,-0.740124
1649352077.622034,18400.000000,1649352077.621906,0.000000,0.000000,1.000000,0.000000,0.000000,0.000000,0.000000,7.829808,6.472723,-0.731784
1649352077.722037,18401.000000,1649352077.721894,0.000000,0.000000,1.000000,0.000000,0.000000,0.000000,0.000000,7.827787,6.472419,-0.695944
1649352077.821997,18402.000000,1649352077.821894,0.000000,0.000000,1.000000,0.000000,0.000000,0.000000,0.000000,7.825874,6.473224,-0.666051
1649352077.922351,18403.000000,1649352077.922219,0.000000,0.000000,1.000000,0.000000,0.000000,0.000000,0.000000,7.824070,6.472894,-0.655638
1649352078.022022,18404.000000,1649352078.021881,0.000000,0.000000,1.000000,0.000000,0.000000,0.000000,0.000000,7.823465,6.473672,-0.652661
1649352078.122095,18405.000000,1649352078.121933,0.000000,0.000000,1.000000,0.000000,0.000000,0.000000,0.000000,7.822903,6.474404,-0.660059
1649352078.222092,18406.000000,1649352078.221970,0.000000,0.000000,1.000000,0.000000,0.000000,0.000000,0.000000,7.822385,6.474002,-0.678218
1649352078.322268,18407.000000,1649352078.322127,0.000000,0.000000,1.000000,0.000000,0.000000,0.000000,0.000000,7.820818,6.474709,-0.692975
1649352078.422024,18408.000000,1649352078.421910,0.000000,0.000000,1.000000,0.000000,0.000000,0.000000,0.000000,7.824805,6.473191,-0.662515
1649352078.522105,18409.000000,1649352078.521979,0.000000,0.000000,1.000000,0.000000,0.000000,0.000000,0.000000,7.828579,6.469575,-0.654854
1649352078.622002,18410.000000,1649352078.621881,0.000000,0.000000,1.000000,0.000000,0.000000,0.000000,0.000000,7.831049,6.468348,-0.656997
1649352078.722215,18411.000000,1649352078.722068,0.000000,0.000000,1.000000,0.000000,0.000000,0.000000,0.000000,7.838821,6.466112,-0.625811
1649352078.822510,18412.000000,1649352078.822394,0.000000,0.000000,1.000000,0.000000,0.000000,0.000000,0.000000,7.842859,6.465108,-0.611086
1649352078.922257,18413.000000,1649352078.922128,0.000000,0.000000,1.000000,0.000000,0.000000,0.000000,0.000000,7.846628,6.464182,-0.604933
1649352079.022357,18414.000000,1649352079.022241,0.000000,0.000000,1.000000,0.000000,0.000000,0.000000,0.000000,7.849043,6.463331,-0.601373
1649352079.122258,18415.000000,1649352079.122147,0.000000,0.000000,1.000000,0.000000,0.000000,0.000000,0.000000,7.850172,6.461461,-0.614827
1649352079.222264,18416.000000,1649352079.222145,0.000000,0.000000,1.000000,0.000000,0.000000,0.000000,0.000000,7.851178,6.460813,-0.632494
1649352079.322305,18417.000000,1649352079.322170,0.000000,0.000000,1.000000,0.000000,0.000000,0.000000,0.000000,7.852066,6.462411,-0.650144
1649352079.422237,18418.000000,1649352079.422097,0.000000,0.000000,1.000000,0.000000,0.000000,0.000000,0.000000,7.852845,6.463946,-0.675011
1649352079.522555,18419.000000,1649352079.522385,0.000000,0.000000,1.000000,0.000000,0.000000,0.000000,0.000000,7.852430,6.465415,-0.701929
1649352079.622294,18420.000000,1649352079.622158,0.000000,0.000000,1.000000,0.000000,0.000000,0.000000,0.000000,7.856344,6.464634,-0.679970
1649352079.722181,18421.000000,1649352079.722042,0.000000,0.000000,1.000000,0.000000,0.000000,0.000000,0.000000,7.863251,6.462819,-0.619215
1649352079.822171,18422.000000,1649352079.822031,0.000000,0.000000,1.000000,0.000000,0.000000,0.000000,0.000000,7.863157,6.461121,-0.536660
1649352079.922226,18423.000000,1649352079.922088,0.000000,0.000000,1.000000,0.000000,0.000000,0.000000,0.000000,7.864081,6.460629,-0.480100
1649352080.022206,18424.000000,1649352080.022061,0.000000,0.000000,1.000000,0.000000,0.000000,0.000000,0.000000,7.864878,6.461277,-0.410677
1649352080.122235,18425.000000,1649352080.122036,0.000000,0.000000,1.000000,0.000000,0.000000,0.000000,0.000000,7.864467,6.464090,-0.362083
1649352080.222361,18426.000000,1649352080.222177,0.000000,0.000000,1.000000,0.000000,0.000000,0.000000,0.000000,7.861830,6.466759,-0.335164
1649352080.322457,18427.000000,1649352080.322319,0.000000,0.000000,1.000000,0.000000,0.000000,0.000000,0.000000,7.859279,6.470374,-0.329074
1649352080.422713,18428.000000,1649352080.422545,0.000000,0.000000,1.000000,0.000000,0.000000,0.000000,0.000000,7.857913,6.472690,-0.342163
1649352080.522359,18429.000000,1649352080.522147,0.000000,0.000000,1.000000,0.000000,0.000000,0.000000,0.000000,7.857674,6.473773,-0.364747
1649352080.622356,18430.000000,1649352080.622200,0.000000,0.000000,1.000000,0.000000,0.000000,0.000000,0.000000,7.857412,6.474777,-0.389134
1649352080.722311,18431.000000,1649352080.722172,0.000000,0.000000,1.000000,0.000000,0.000000,0.000000,0.000000,7.857132,6.476794,-0.412778
1649352080.822235,18432.000000,1649352080.822128,0.000000,0.000000,1.000000,0.000000,0.000000,0.000000,0.000000,7.851386,6.476494,-0.392916
1649352080.922208,18433.000000,1649352080.922106,0.000000,0.000000,1.000000,0.000000,0.000000,0.000000,0.000000,7.848124,6.477276,-0.387779
1649352081.021980,18434.000000,1649352081.021867,0.000000,0.000000,1.000000,0.000000,0.000000,0.000000,0.000000,7.843950,6.477990,-0.390322
1649352081.122100,18435.000000,1649352081.121991,0.000000,0.000000,1.000000,0.000000,0.000000,0.000000,0.000000,7.838927,6.478639,-0.365545
1649352081.222428,18436.000000,1649352081.222258,0.000000,0.000000,1.000000,0.000000,0.000000,0.000000,0.000000,7.835298,6.479226,-0.360550
1649352081.322230,18437.000000,1649352081.322101,0.000000,0.000000,1.000000,0.000000,0.000000,0.000000,0.000000,7.832995,6.479753,-0.326150
1649352081.422427,18438.000000,1649352081.422269,0.000000,0.000000,1.000000,0.000000,0.000000,0.000000,0.000000,7.830862,6.479135,-0.319226
1649352081.522394,18439.000000,1649352081.522272,0.000000,0.000000,1.000000,0.000000,0.000000,0.000000,0.000000,7.828893,6.478526,-0.330605
1649352081.622367,18440.000000,1649352081.622246,0.000000,0.000000,1.000000,0.000000,0.000000,0.000000,0.000000,7.827082,6.481201,-0.340970
1649352081.722288,18441.000000,1649352081.722156,0.000000,0.000000,1.000000,0.000000,0.000000,0.000000,0.000000,7.825425,6.483702,-0.358397
1649352081.822334,18442.000000,1649352081.822219,0.000000,0.000000,1.000000,0.000000,0.000000,0.000000,0.000000,7.825004,6.486034,-0.379338
1649352081.921961,18443.000000,1649352081.921871,0.000000,0.000000,1.000000,0.000000,0.000000,0.000000,0.000000,7.824661,6.486018,-0.411673
1649352082.022056,18444.000000,1649352082.021948,0.000000,0.000000,1.000000,0.000000,0.000000,0.000000,0.000000,7.825479,6.487057,-0.440365
1649352082.122016,18445.000000,1649352082.121920,0.000000,0.000000,1.000000,0.000000,0.000000,0.000000,0.000000,7.826299,6.485820,-0.480831
1649352082.222137,18446.000000,1649352082.222014,0.000000,0.000000,1.000000,0.000000,0.000000,0.000000,0.000000,7.828207,6.484618,-0.477689
1649352082.322210,18447.000000,1649352082.322101,0.000000,0.000000,1.000000,0.000000,0.000000,0.000000,0.000000,7.828953,6.484546,-0.481090
1649352082.421991,18448.000000,1649352082.421885,0.000000,0.000000,1.000000,0.000000,0.000000,0.000000,0.000000,7.829688,6.484453,-0.494799
1649352082.521906,18449.000000,1649352082.521829,0.000000,0.000000,1.000000,0.000000,0.000000,0.000000,0.000000,7.830407,6.484342,-0.517572
1649352082.621940,18450.000000,1649352082.621858,0.000000,0.000000,1.000000,0.000000,0.000000,0.000000,0.000000,7.831108,6.483126,-0.546588
1649352082.722206,18451.000000,1649352082.722061,0.000000,0.000000,1.000000,0.000000,0.000000,0.000000,0.000000,7.831789,6.483050,-0.572680
1649352082.822166,18452.000000,1649352082.822048,0.000000,0.000000,1.000000,0.000000,0.000000,0.000000,0.000000,7.835718,6.480782,-0.553992
1649352082.922706,18453.000000,1649352082.922533,0.000000,0.000000,1.000000,0.000000,0.000000,0.000000,0.000000,7.839434,6.479721,-0.544787
1649352083.021910,18454.000000,1649352083.021820,0.000000,0.000000,1.000000,0.000000,0.000000,0.000000,0.000000,7.839667,6.476534,-0.497930
1649352083.122040,18455.000000,1649352083.121946,0.000000,0.000000,1.000000,0.000000,0.000000,0.000000,0.000000,7.839876,6.474618,-0.469862
1649352083.222083,18456.000000,1649352083.221946,0.000000,0.000000,1.000000,0.000000,0.000000,0.000000,0.000000,7.838973,6.473909,-0.463907
1649352083.322079,18457.000000,1649352083.321963,0.000000,0.000000,1.000000,0.000000,0.000000,0.000000,0.000000,7.839202,6.474344,-0.463861
1649352083.422319,18458.000000,1649352083.422206,0.000000,0.000000,1.000000,0.000000,0.000000,0.000000,0.000000,7.839411,6.475856,-0.472710
1649352083.522206,18459.000000,1649352083.522053,0.000000,0.000000,1.000000,0.000000,0.000000,0.000000,0.000000,7.838511,6.477293,-0.488468
1649352083.622429,18460.000000,1649352083.622331,0.000000,0.000000,1.000000,0.000000,0.000000,0.000000,0.000000,7.837655,6.480834,-0.506796
1649352083.722426,18461.000000,1649352083.722242,0.000000,0.000000,1.000000,0.000000,0.000000,0.000000,0.000000,7.835755,6.484173,-0.528367
