__time,/dwm1001/id_458E/pose_kf/header/seq,/dwm1001/id_458E/pose_kf/header/stamp,/dwm1001/id_458E/pose_kf/pose/orientation/pitch_deg,/dwm1001/id_458E/pose_kf/pose/orientation/roll_deg,/dwm1001/id_458E/pose_kf/pose/orientation/w,/dwm1001/id_458E/pose_kf/pose/orientation/x,/dwm1001/id_458E/pose_kf/pose/orientation/y,/dwm1001/id_458E/pose_kf/pose/orientation/yaw_deg,/dwm1001/id_458E/pose_kf/pose/orientation/z,/dwm1001/id_458E/pose_kf/pose/position/x,/dwm1001/id_458E/pose_kf/pose/position/y,/dwm1001/id_458E/pose_kf/pose/position/z
1649350625.924014,4379.000000,1649350625.923672,0.000000,0.000000,1.000000,0.000000,0.000000,0.000000,0.000000,7.017753,24.821035,-0.751079
1649350626.023822,4380.000000,1649350626.023291,0.000000,0.000000,1.000000,0.000000,0.000000,0.000000,0.000000,7.013953,24.823682,-0.768153
1649350626.123917,4381.000000,1649350626.123443,0.000000,0.000000,1.000000,0.000000,0.000000,0.000000,0.000000,7.009451,24.826080,-0.778279
1649350626.222610,4382.000000,1649350626.222395,0.000000,0.000000,1.000000,0.000000,0.000000,0.000000,0.000000,7.001020,24.830421,-0.801907
1649350626.325541,4383.000000,1649350626.324448,0.000000,0.000000,1.000000,0.000000,0.000000,0.000000,0.000000,6.994340,24.834413,-0.829607
1649350626.422731,4384.000000,1649350626.422502,0.000000,0.000000,1.000000,0.000000,0.000000,0.000000,0.000000,6.989326,24.835887,-0.845872
1649350626.523164,4385.000000,1649350626.522683,0.000000,0.000000,1.000000,0.000000,0.000000,0.000000,0.000000,6.984799,24.839343,-0.871323
1649350626.623452,4386.000000,1649350626.622617,0.000000,0.000000,1.000000,0.000000,0.000000,0.000000,0.000000,6.982917,24.839219,-0.881380
1649350626.724840,4387.000000,1649350626.724285,0.000000,0.000000,1.000000,0.000000,0.000000,0.000000,0.000000,6.986800,24.834626,-0.858933
1649350626.824084,4388.000000,1649350626.823682,0.000000,0.000000,1.000000,0.000000,0.000000,0.000000,0.000000,6.992837,24.830190,-0.853743
1649350626.923752,4389.000000,1649350626.923255,0.000000,0.000000,1.000000,0.000000,0.000000,0.000000,0.000000,6.993250,24.829193,-0.855471
1649350627.022359,4390.000000,1649350627.022192,0.000000,0.000000,1.000000,0.000000,0.000000,0.000000,0.000000,6.999239,24.824912,-0.822730
1649350627.123406,4391.000000,1649350627.123081,0.000000,0.000000,1.000000,0.000000,0.000000,0.000000,0.000000,7.002838,24.822997,-0.810212
1649350627.223418,4392.000000,1649350627.223036,0.000000,0.000000,1.000000,0.000000,0.000000,0.000000,0.000000,7.003071,24.824417,-0.813110
1649350627.323426,4393.000000,1649350627.323143,0.000000,0.000000,1.000000,0.000000,0.000000,0.000000,0.000000,7.001204,24.827898,-0.824364
1649350627.423544,4394.000000,1649350627.423208,0.000000,0.000000,1.000000,0.000000,0.000000,0.000000,0.000000,6.996262,24.831138,-0.837182
1649350627.523467,4395.000000,1649350627.522909,0.000000,0.000000,1.000000,0.000000,0.000000,0.000000,0.000000,6.999327,24.828692,-0.812788
1649350627.625315,4396.000000,1649350627.623712,0.000000,0.000000,1.000000,0.000000,0.000000,0.000000,0.000000,6.999042,24.827423,-0.795481
1649350627.725309,4397.000000,1649350627.724552,0.000000,0.000000,1.000000,0.000000,0.000000,0.000000,0.000000,7.003218,24.824001,-0.743890
1649350627.825161,4398.000000,1649350627.824270,0.000000,0.000000,1.000000,0.000000,0.000000,0.000000,0.000000,7.009415,24.819648,-0.712724
1649350627.925181,4399.000000,1649350627.924609,0.000000,0.000000,1.000000,0.000000,0.000000,0.000000,0.000000,7.014226,24.816611,-0.703640
1649350628.022698,4400.000000,1649350628.022372,0.000000,0.000000,1.000000,0.000000,0.000000,0.000000,0.000000,7.018801,24.812647,-0.695608
1649350628.125229,4401.000000,1649350628.124653,0.000000,0.000000,1.000000,0.000000,0.000000,0.000000,0.000000,7.022046,24.811091,-0.685379
1649350628.223905,4402.000000,1649350628.223443,0.000000,0.000000,1.000000,0.000000,0.000000,0.000000,0.000000,7.019661,24.811815,-0.691611
1649350628.323695,4403.000000,1649350628.323176,0.000000,0.000000,1.000000,0.000000,0.000000,0.000000,0.000000,7.017413,24.812512,-0.693472
1649350628.424704,4404.000000,1649350628.424218,0.000000,0.000000,1.000000,0.000000,0.000000,0.000000,0.000000,7.016390,24.814270,-0.708075
1649350628.524620,4405.000000,1649350628.523764,0.000000,0.000000,1.000000,0.000000,0.000000,0.000000,0.000000,7.012168,24.817026,-0.718755
1649350628.622596,4406.000000,1649350628.622344,0.000000,0.000000,1.000000,0.000000,0.000000,0.000000,0.000000,7.007113,24.821807,-0.739367
1649350628.724476,4407.000000,1649350628.723793,0.000000,0.000000,1.000000,0.000000,0.000000,0.000000,0.000000,7.005647,24.824126,-0.754158
1649350628.824197,4408.000000,1649350628.823747,0.000000,0.000000,1.000000,0.000000,0.000000,0.000000,0.000000,7.007576,24.825202,-0.770603
1649350628.924519,4409.000000,1649350628.923993,0.000000,0.000000,1.000000,0.000000,0.000000,0.000000,0.000000,7.014888,24.820739,-0.759580
1649350629.022561,4410.000000,1649350629.022358,0.000000,0.000000,1.000000,0.000000,0.000000,0.000000,0.000000,7.018542,24.817596,-0.752064
1649350629.124701,4411.000000,1649350629.123874,0.000000,0.000000,1.000000,0.000000,0.000000,0.000000,0.000000,7.020904,24.816803,-0.760029
1649350629.223889,4412.000000,1649350629.223517,0.000000,0.000000,1.000000,0.000000,0.000000,0.000000,0.000000,7.025310,24.814964,-0.764295
1649350629.324069,4413.000000,1649350629.323503,0.000000,0.000000,1.000000,0.000000,0.000000,0.000000,0.000000,7.034906,24.811050,-0.730333
1649350629.422173,4414.000000,1649350629.422019,0.000000,0.000000,1.000000,0.000000,0.000000,0.000000,0.000000,7.042837,24.807367,-0.711361
1649350629.523838,4415.000000,1649350629.523097,0.000000,0.000000,1.000000,0.000000,0.000000,0.000000,0.000000,7.046993,24.807185,-0.709229
1649350629.622927,4416.000000,1649350629.622692,0.000000,0.000000,1.000000,0.000000,0.000000,0.000000,0.000000,7.055201,24.803769,-0.673266
1649350629.726002,4417.000000,1649350629.724955,0.000000,0.000000,1.000000,0.000000,0.000000,0.000000,0.000000,7.056317,24.804938,-0.654090
1649350629.824616,4418.000000,1649350629.823938,0.000000,0.000000,1.000000,0.000000,0.000000,0.000000,0.000000,7.056181,24.806074,-0.638961
1649350629.924676,4419.000000,1649350629.924221,0.000000,0.000000,1.000000,0.000000,0.000000,0.000000,0.000000,7.061410,24.802813,-0.596288
1649350630.022194,4420.000000,1649350630.022059,0.000000,0.000000,1.000000,0.000000,0.000000,0.000000,0.000000,7.062978,24.801944,-0.578862
1649350630.124927,4421.000000,1649350630.123863,0.000000,0.000000,1.000000,0.000000,0.000000,0.000000,0.000000,7.061085,24.803338,-0.578432
1649350630.223350,4422.000000,1649350630.222823,0.000000,0.000000,1.000000,0.000000,0.000000,0.000000,0.000000,7.059202,24.805776,-0.584629
1649350630.327768,4423.000000,1649350630.323778,0.000000,0.000000,1.000000,0.000000,0.000000,0.000000,0.000000,7.052980,24.809191,-0.593944
1649350630.424823,4424.000000,1649350630.424352,0.000000,0.000000,1.000000,0.000000,0.000000,0.000000,0.000000,7.044859,24.813517,-0.605422
1649350630.523889,4425.000000,1649350630.523141,0.000000,0.000000,1.000000,0.000000,0.000000,0.000000,0.000000,7.039333,24.817602,-0.627822
1649350630.622137,4426.000000,1649350630.621996,0.000000,0.000000,1.000000,0.000000,0.000000,0.000000,0.000000,7.036280,24.820354,-0.659857
1649350630.724538,4427.000000,1649350630.724049,0.000000,0.000000,1.000000,0.000000,0.000000,0.000000,0.000000,7.037756,24.819659,-0.649467
1649350630.822847,4428.000000,1649350630.822537,0.000000,0.000000,1.000000,0.000000,0.000000,0.000000,0.000000,7.033697,24.821160,-0.648381
1649350630.925111,4429.000000,1649350630.924387,0.000000,0.000000,1.000000,0.000000,0.000000,0.000000,0.000000,7.036410,24.818191,-0.617516
1649350631.024675,4430.000000,1649350631.024139,0.000000,0.000000,1.000000,0.000000,0.000000,0.000000,0.000000,7.043337,24.814278,-0.558123
1649350631.124366,4431.000000,1649350631.123952,0.000000,0.000000,1.000000,0.000000,0.000000,0.000000,0.000000,7.046595,24.811666,-0.514192
1649350631.222226,4432.000000,1649350631.222067,0.000000,0.000000,1.000000,0.000000,0.000000,0.000000,0.000000,7.049644,24.809203,-0.487587
1649350631.323912,4433.000000,1649350631.323450,0.000000,0.000000,1.000000,0.000000,0.000000,0.000000,0.000000,7.051399,24.803616,-0.486515
1649350631.426184,4434.000000,1649350631.425662,0.000000,0.000000,1.000000,0.000000,0.000000,0.000000,0.000000,7.057378,24.798365,-0.451874
1649350631.524832,4435.000000,1649350631.523926,0.000000,0.000000,1.000000,0.000000,0.000000,0.000000,0.000000,7.056431,24.796715,-0.435872
1649350631.624452,4436.000000,1649350631.623930,0.000000,0.000000,1.000000,0.000000,0.000000,0.000000,0.000000,7.056574,24.795203,-0.421641
1649350631.724212,4437.000000,1649350631.723825,0.000000,0.000000,1.000000,0.000000,0.000000,0.000000,0.000000,7.059932,24.791643,-0.381702
1649350631.824284,4438.000000,1649350631.823968,0.000000,0.000000,1.000000,0.000000,0.000000,0.000000,0.000000,7.066320,24.785063,-0.326822
1649350631.924709,4439.000000,1649350631.924130,0.000000,0.000000,1.000000,0.000000,0.000000,0.000000,0.000000,7.065745,24.782188,-0.294777
1649350632.026087,4440.000000,1649350632.025235,0.000000,0.000000,1.000000,0.000000,0.000000,0.000000,0.000000,7.067314,24.779550,-0.277424
1649350632.122714,4441.000000,1649350632.122449,0.000000,0.000000,1.000000,0.000000,0.000000,0.000000,0.000000,7.069819,24.777140,-0.284663
1649350632.223527,4442.000000,1649350632.223208,0.000000,0.000000,1.000000,0.000000,0.000000,0.000000,0.000000,7.067754,24.778219,-0.303372
1649350632.325307,4443.000000,1649350632.324619,0.000000,0.000000,1.000000,0.000000,0.000000,0.000000,0.000000,7.063559,24.781498,-0.322554
1649350632.424749,4444.000000,1649350632.424140,0.000000,0.000000,1.000000,0.000000,0.000000,0.000000,0.000000,7.055185,24.786842,-0.348591
1649350632.526171,4445.000000,1649350632.525499,0.000000,0.000000,1.000000,0.000000,0.000000,0.000000,0.000000,7.053793,24.788667,-0.333567
1649350632.622898,4446.000000,1649350632.622578,0.000000,0.000000,1.000000,0.000000,0.000000,0.000000,0.000000,7.057919,24.787156,-0.290438
1649350632.724191,4447.000000,1649350632.723735,0.000000,0.000000,1.000000,0.000000,0.000000,0.000000,0.000000,7.057435,24.787946,-0.273624
1649350632.822573,4448.000000,1649350632.822453,0.000000,0.000000,1.000000,0.000000,0.000000,0.000000,0.000000,7.062408,24.787635,-0.228043
1649350632.923819,4449.000000,1649350632.923468,0.000000,0.000000,1.000000,0.000000,0.000000,0.000000,0.000000,7.071438,24.784101,-0.172658
1649350633.022996,4450.000000,1649350633.022656,0.000000,0.000000,1.000000,0.000000,0.000000,0.000000,0.000000,7.078824,24.781892,-0.144230
1649350633.122619,4451.000000,1649350633.122394,0.000000,0.000000,1.000000,0.000000,0.000000,0.000000,0.000000,7.087908,24.777668,-0.102181
1649350633.222886,4452.000000,1649350633.222640,0.000000,0.000000,1.000000,0.000000,0.000000,0.000000,0.000000,7.090939,24.777002,-0.091463
1649350633.324315,4453.000000,1649350633.323658,0.000000,0.000000,1.000000,0.000000,0.000000,0.000000,0.000000,7.096969,24.774246,-0.061612
1649350633.422353,4454.000000,1649350633.422199,0.000000,0.000000,1.000000,0.000000,0.000000,0.000000,0.000000,7.100368,24.772791,-0.051329
1649350633.524789,4455.000000,1649350633.523975,0.000000,0.000000,1.000000,0.000000,0.000000,0.000000,0.000000,7.107819,24.770388,-0.016268
1649350633.623059,4456.000000,1649350633.622850,0.000000,0.000000,1.000000,0.000000,0.000000,0.000000,0.000000,7.116903,24.767090,0.033669
1649350633.725032,4457.000000,1649350633.724370,0.000000,0.000000,1.000000,0.000000,0.000000,0.000000,0.000000,7.123150,24.767316,0.043791
1649350633.822873,4458.000000,1649350633.822591,0.000000,0.000000,1.000000,0.000000,0.000000,0.000000,0.000000,7.124524,24.770868,0.027006
1649350633.926625,4459.000000,1649350633.926140,0.000000,0.000000,1.000000,0.000000,0.000000,0.000000,0.000000,7.119114,24.776460,-0.005867
1649350634.025386,4460.000000,1649350634.024742,0.000000,0.000000,1.000000,0.000000,0.000000,0.000000,0.000000,7.116039,24.780688,-0.046838
1649350634.123893,4461.000000,1649350634.123285,0.000000,0.000000,1.000000,0.000000,0.000000,0.000000,0.000000,7.114101,24.782522,-0.081778
1649350634.222824,4462.000000,1649350634.222635,0.000000,0.000000,1.000000,0.000000,0.000000,0.000000,0.000000,7.115430,24.780995,-0.093917
1649350634.328828,4463.000000,1649350634.327684,0.000000,0.000000,1.000000,0.000000,0.000000,0.000000,0.000000,7.119852,24.776294,-0.084137
1649350634.425793,4464.000000,1649350634.424921,0.000000,0.000000,1.000000,0.000000,0.000000,0.000000,0.000000,7.125009,24.769697,-0.063001
1649350634.524401,4465.000000,1649350634.523659,0.000000,0.000000,1.000000,0.000000,0.000000,0.000000,0.000000,7.123218,24.767868,-0.064859
1649350634.622207,4466.000000,1649350634.622082,0.000000,0.000000,1.000000,0.000000,0.000000,0.000000,0.000000,7.117052,24.770550,-0.081508
1649350634.722160,4467.000000,1649350634.722028,0.000000,0.000000,1.000000,0.000000,0.000000,0.000000,0.000000,7.106775,24.777486,-0.117147
1649350634.822866,4468.000000,1649350634.822491,0.000000,0.000000,1.000000,0.000000,0.000000,0.000000,0.000000,7.103552,24.778608,-0.122550
1649350634.925535,4469.000000,1649350634.924892,0.000000,0.000000,1.000000,0.000000,0.000000,0.000000,0.000000,7.099378,24.779679,-0.138433
1649350635.022655,4470.000000,1649350635.022448,0.000000,0.000000,1.000000,0.000000,0.000000,0.000000,0.000000,7.092141,24.781789,-0.169984
1649350635.123826,4471.000000,1649350635.123383,0.000000,0.000000,1.000000,0.000000,0.000000,0.000000,0.000000,7.085302,24.784873,-0.216509
1649350635.222912,4472.000000,1649350635.222580,0.000000,0.000000,1.000000,0.000000,0.000000,0.000000,0.000000,7.084313,24.784509,-0.228127
1649350635.323038,4473.000000,1649350635.322720,0.000000,0.000000,1.000000,0.000000,0.000000,0.000000,0.000000,7.084494,24.783065,-0.248967
1649350635.424691,4474.000000,1649350635.424002,0.000000,0.000000,1.000000,0.000000,0.000000,0.000000,0.000000,7.082510,24.784967,-0.286686
1649350635.524650,4475.000000,1649350635.523940,0.000000,0.000000,1.000000,0.000000,0.000000,0.000000,0.000000,7.080663,24.787848,-0.333282
1649350635.625979,4476.000000,1649350635.624946,0.000000,0.000000,1.000000,0.000000,0.000000,0.000000,0.000000,7.083313,24.787282,-0.343160
1649350635.722255,4477.000000,1649350635.722086,0.000000,0.000000,1.000000,0.000000,0.000000,0.000000,0.000000,7.089112,24.783461,-0.324242
1649350635.823812,4478.000000,1649350635.823311,0.000000,0.000000,1.000000,0.000000,0.000000,0.000000,0.000000,7.093509,24.780936,-0.315631
1649350635.924396,4479.000000,1649350635.923832,0.000000,0.000000,1.000000,0.000000,0.000000,0.000000,0.000000,7.099837,24.778555,-0.279836
1649350636.023169,4480.000000,1649350636.022726,0.000000,0.000000,1.000000,0.000000,0.000000,0.000000,0.000000,7.107971,24.775227,-0.226081
1649350636.124741,4481.000000,1649350636.123692,0.000000,0.000000,1.000000,0.000000,0.000000,0.000000,0.000000,7.112338,24.773193,-0.194701
1649350636.223866,4482.000000,1649350636.223438,0.000000,0.000000,1.000000,0.000000,0.000000,0.000000,0.000000,7.114221,24.771298,-0.180005
1649350636.323033,4483.000000,1649350636.322512,0.000000,0.000000,1.000000,0.000000,0.000000,0.000000,0.000000,7.118117,24.766267,-0.157955
1649350636.422516,4484.000000,1649350636.422096,0.000000,0.000000,1.000000,0.000000,0.000000,0.000000,0.000000,7.124996,24.759376,-0.120816
1649350636.522597,4485.000000,1649350636.522288,0.000000,0.000000,1.000000,0.000000,0.000000,0.000000,0.000000,7.131409,24.752925,-0.074090
1649350636.624086,4486.000000,1649350636.623579,0.000000,0.000000,1.000000,0.000000,0.000000,0.000000,0.000000,7.134094,24.750179,-0.052106
1649350636.723136,4487.000000,1649350636.722661,0.000000,0.000000,1.000000,0.000000,0.000000,0.000000,0.000000,7.134343,24.748759,-0.040989
1649350636.824596,4488.000000,1649350636.823930,0.000000,0.000000,1.000000,0.000000,0.000000,0.000000,0.000000,7.127932,24.750772,-0.052404
1649350636.922905,4489.000000,1649350636.922625,0.000000,0.000000,1.000000,0.000000,0.000000,0.000000,0.000000,7.118521,24.756021,-0.079765
1649350637.023448,4490.000000,1649350637.022998,0.000000,0.000000,1.000000,0.000000,0.000000,0.000000,0.000000,7.106309,24.763218,-0.119952
1649350637.123462,4491.000000,1649350637.122994,0.000000,0.000000,1.000000,0.000000,0.000000,0.000000,0.000000,7.101301,24.765689,-0.123177
1649350637.224219,4492.000000,1649350637.222844,0.000000,0.000000,1.000000,0.000000,0.000000,0.000000,0.000000,7.100941,24.765863,-0.098177
1649350637.323345,4493.000000,1649350637.323152,0.000000,0.000000,1.000000,0.000000,0.000000,0.000000,0.000000,7.102795,24.762773,-0.063061
1649350637.423159,4494.000000,1649350637.422793,0.000000,0.000000,1.000000,0.000000,0.000000,0.000000,0.000000,7.098013,24.763147,-0.047322
1649350637.523738,4495.000000,1649350637.523153,0.000000,0.000000,1.000000,0.000000,0.000000,0.000000,0.000000,7.093513,24.764615,-0.060681
1649350637.623364,4496.000000,1649350637.623039,0.000000,0.000000,1.000000,0.000000,0.000000,0.000000,0.000000,7.086022,24.769290,-0.094673
1649350637.723470,4497.000000,1649350637.722801,0.000000,0.000000,1.000000,0.000000,0.000000,0.000000,0.000000,7.084447,24.770440,-0.112918
1649350637.824523,4498.000000,1649350637.823989,0.000000,0.000000,1.000000,0.000000,0.000000,0.000000,0.000000,7.086287,24.768254,-0.108755
1649350637.925408,4499.000000,1649350637.924912,0.000000,0.000000,1.000000,0.000000,0.000000,0.000000,0.000000,7.085894,24.767282,-0.112122
1649350638.025252,4500.000000,1649350638.024645,0.000000,0.000000,1.000000,0.000000,0.000000,0.000000,0.000000,7.088842,24.765280,-0.134802
1649350638.122657,4501.000000,1649350638.122442,0.000000,0.000000,1.000000,0.000000,0.000000,0.000000,0.000000,7.090574,24.764490,-0.160653
1649350638.226367,4502.000000,1649350638.225718,0.000000,0.000000,1.000000,0.000000,0.000000,0.000000,0.000000,7.086787,24.765939,-0.195144
1649350638.322330,4503.000000,1649350638.322137,0.000000,0.000000,1.000000,0.000000,0.000000,0.000000,0.000000,7.078883,24.770589,-0.237064
1649350638.425313,4504.000000,1649350638.424666,0.000000,0.000000,1.000000,0.000000,0.000000,0.000000,0.000000,7.075832,24.773890,-0.244915
1649350638.523455,4505.000000,1649350638.523155,0.000000,0.000000,1.000000,0.000000,0.000000,0.000000,0.000000,7.078466,24.772634,-0.233770
1649350638.623522,4506.000000,1649350638.623261,0.000000,0.000000,1.000000,0.000000,0.000000,0.000000,0.000000,7.078830,24.773616,-0.246356
1649350638.725157,4507.000000,1649350638.723911,0.000000,0.000000,1.000000,0.000000,0.000000,0.000000,0.000000,7.073773,24.776712,-0.267184
1649350638.823529,4508.000000,1649350638.823388,0.000000,0.000000,1.000000,0.000000,0.000000,0.000000,0.000000,7.067965,24.779617,-0.287019
1649350638.923614,4509.000000,1649350638.923204,0.000000,0.000000,1.000000,0.000000,0.000000,0.000000,0.000000,7.059279,24.785605,-0.318779
1649350639.023587,4510.000000,1649350639.022920,0.000000,0.000000,1.000000,0.000000,0.000000,0.000000,0.000000,7.057710,24.786857,-0.324032
1649350639.123274,4511.000000,1649350639.122829,0.000000,0.000000,1.000000,0.000000,0.000000,0.000000,0.000000,7.053056,24.790174,-0.347396
1649350639.222744,4512.000000,1649350639.222455,0.000000,0.000000,1.000000,0.000000,0.000000,0.000000,0.000000,7.049854,24.792163,-0.374401
1649350639.324848,4513.000000,1649350639.324026,0.000000,0.000000,1.000000,0.000000,0.000000,0.000000,0.000000,7.044759,24.793985,-0.412931
1649350639.423202,4514.000000,1649350639.422984,0.000000,0.000000,1.000000,0.000000,0.000000,0.000000,0.000000,7.037882,24.798917,-0.462467
1649350639.524056,4515.000000,1649350639.523583,0.000000,0.000000,1.000000,0.000000,0.000000,0.000000,0.000000,7.032608,24.803507,-0.517658
1649350639.623031,4516.000000,1649350639.622744,0.000000,0.000000,1.000000,0.000000,0.000000,0.000000,0.000000,7.023404,24.808853,-0.566102
1649350639.723958,4517.000000,1649350639.723379,0.000000,0.000000,1.000000,0.000000,0.000000,0.000000,0.000000,7.021411,24.809451,-0.576559
1649350639.823246,4518.000000,1649350639.822882,0.000000,0.000000,1.000000,0.000000,0.000000,0.000000,0.000000,7.026231,24.805563,-0.563467
1649350639.923182,4519.000000,1649350639.922851,0.000000,0.000000,1.000000,0.000000,0.000000,0.000000,0.000000,7.029837,24.802902,-0.555242
1649350640.022173,4520.000000,1649350640.022038,0.000000,0.000000,1.000000,0.000000,0.000000,0.000000,0.000000,7.031184,24.801415,-0.563818
1649350640.123753,4521.000000,1649350640.123096,0.000000,0.000000,1.000000,0.000000,0.000000,0.000000,0.000000,7.030385,24.802136,-0.590136
1649350640.225899,4522.000000,1649350640.224722,0.000000,0.000000,1.000000,0.000000,0.000000,0.000000,0.000000,7.028643,24.803856,-0.627811
1649350640.325215,4523.000000,1649350640.324472,0.000000,0.000000,1.000000,0.000000,0.000000,0.000000,0.000000,7.032552,24.803245,-0.625534
1649350640.424746,4524.000000,1649350640.424107,0.000000,0.000000,1.000000,0.000000,0.000000,0.000000,0.000000,7.033061,24.804799,-0.618814
1649350640.525600,4525.000000,1649350640.524787,0.000000,0.000000,1.000000,0.000000,0.000000,0.000000,0.000000,7.035803,24.805126,-0.615926
1649350640.622402,4526.000000,1649350640.622208,0.000000,0.000000,1.000000,0.000000,0.000000,0.000000,0.000000,7.041732,24.805384,-0.577225
1649350640.723381,4527.000000,1649350640.722944,0.000000,0.000000,1.000000,0.000000,0.000000,0.000000,0.000000,7.041929,24.806671,-0.559077
1649350640.822161,4528.000000,1649350640.822022,0.000000,0.000000,1.000000,0.000000,0.000000,0.000000,0.000000,7.048698,24.804568,-0.517957
1649350640.924128,4529.000000,1649350640.923770,0.000000,0.000000,1.000000,0.000000,0.000000,0.000000,0.000000,7.056205,24.801449,-0.451649
1649350641.022521,4530.000000,1649350641.022397,0.000000,0.000000,1.000000,0.000000,0.000000,0.000000,0.000000,7.057843,24.801743,-0.416936
1649350641.123640,4531.000000,1649350641.123116,0.000000,0.000000,1.000000,0.000000,0.000000,0.000000,0.000000,7.055017,24.804175,-0.409381
1649350641.222626,4532.000000,1649350641.222362,0.000000,0.000000,1.000000,0.000000,0.000000,0.000000,0.000000,7.057794,24.806441,-0.377905
1649350641.323420,4533.000000,1649350641.322849,0.000000,0.000000,1.000000,0.000000,0.000000,0.000000,0.000000,7.059317,24.807456,-0.358204
1649350641.422193,4534.000000,1649350641.422028,0.000000,0.000000,1.000000,0.000000,0.000000,0.000000,0.000000,7.060742,24.808375,-0.353869
1649350641.523683,4535.000000,1649350641.522989,0.000000,0.000000,1.000000,0.000000,0.000000,0.000000,0.000000,7.067521,24.808114,-0.317510
1649350641.622206,4536.000000,1649350641.622056,0.000000,0.000000,1.000000,0.000000,0.000000,0.000000,0.000000,7.069530,24.810012,-0.313380
1649350641.723816,4537.000000,1649350641.723329,0.000000,0.000000,1.000000,0.000000,0.000000,0.000000,0.000000,7.071386,24.811765,-0.321636
1649350641.823548,4538.000000,1649350641.822925,0.000000,0.000000,1.000000,0.000000,0.000000,0.000000,0.000000,7.076365,24.814469,-0.298209
1649350641.923520,4539.000000,1649350641.923117,0.000000,0.000000,1.000000,0.000000,0.000000,0.000000,0.000000,7.081012,24.814796,-0.283928
1649350642.025478,4540.000000,1649350642.024677,0.000000,0.000000,1.000000,0.000000,0.000000,0.000000,0.000000,7.084245,24.816147,-0.296186
1649350642.122250,4541.000000,1649350642.122087,0.000000,0.000000,1.000000,0.000000,0.000000,0.000000,0.000000,7.090496,24.816284,-0.268561
1649350642.224341,4542.000000,1649350642.223659,0.000000,0.000000,1.000000,0.000000,0.000000,0.000000,0.000000,7.095223,24.815277,-0.254317
1649350642.323826,4543.000000,1649350642.322792,0.000000,0.000000,1.000000,0.000000,0.000000,0.000000,0.000000,7.096319,24.814283,-0.264222
1649350642.422231,4544.000000,1649350642.422041,0.000000,0.000000,1.000000,0.000000,0.000000,0.000000,0.000000,7.100528,24.812218,-0.256954
1649350642.523783,4545.000000,1649350642.523165,0.000000,0.000000,1.000000,0.000000,0.000000,0.000000,0.000000,7.101129,24.812418,-0.271115
1649350642.622692,4546.000000,1649350642.622416,0.000000,0.000000,1.000000,0.000000,0.000000,0.000000,0.000000,7.100504,24.812582,-0.292906
1649350642.723879,4547.000000,1649350642.723326,0.000000,0.000000,1.000000,0.000000,0.000000,0.000000,0.000000,7.104179,24.811621,-0.272784
1649350642.824806,4548.000000,1649350642.824064,0.000000,0.000000,1.000000,0.000000,0.000000,0.000000,0.000000,7.102102,24.813963,-0.273759
1649350642.926769,4549.000000,1649350642.926020,0.000000,0.000000,1.000000,0.000000,0.000000,0.000000,0.000000,7.103320,24.811789,-0.260296
1649350643.025239,4550.000000,1649350643.024482,0.000000,0.000000,1.000000,0.000000,0.000000,0.000000,0.000000,7.107655,24.809715,-0.216059
1649350643.124011,4551.000000,1649350643.123578,0.000000,0.000000,1.000000,0.000000,0.000000,0.000000,0.000000,7.111659,24.806652,-0.195584
1649350643.223953,4552.000000,1649350643.223636,0.000000,0.000000,1.000000,0.000000,0.000000,0.000000,0.000000,7.110980,24.804846,-0.197132
1649350643.325721,4553.000000,1649350643.325068,0.000000,0.000000,1.000000,0.000000,0.000000,0.000000,0.000000,7.113514,24.803144,-0.182708
1649350643.423848,4554.000000,1649350643.423363,0.000000,0.000000,1.000000,0.000000,0.000000,0.000000,0.000000,7.117993,24.800454,-0.144098
1649350643.524454,4555.000000,1649350643.523889,0.000000,0.000000,1.000000,0.000000,0.000000,0.000000,0.000000,7.122122,24.797929,-0.123464
1649350643.623565,4556.000000,1649350643.622891,0.000000,0.000000,1.000000,0.000000,0.000000,0.000000,0.000000,7.127004,24.795566,-0.094295
1649350643.723260,4557.000000,1649350643.722811,0.000000,0.000000,1.000000,0.000000,0.000000,0.000000,0.000000,7.126047,24.795544,-0.091651
1649350643.822762,4558.000000,1649350643.822434,0.000000,0.000000,1.000000,0.000000,0.000000,0.000000,0.000000,7.118487,24.796642,-0.110420
1649350643.924560,4559.000000,1649350643.923787,0.000000,0.000000,1.000000,0.000000,0.000000,0.000000,0.000000,7.116710,24.798796,-0.090821
1649350644.025464,4560.000000,1649350644.024512,0.000000,0.000000,1.000000,0.000000,0.000000,0.000000,0.000000,7.118230,24.797576,-0.052164
1649350644.122319,4561.000000,1649350644.122117,0.000000,0.000000,1.000000,0.000000,0.000000,0.000000,0.000000,7.116324,24.799714,-0.049301
1649350644.222569,4562.000000,1649350644.222204,0.000000,0.000000,1.000000,0.000000,0.000000,0.000000,0.000000,7.118822,24.802836,-0.025135
1649350644.323478,4563.000000,1649350644.323061,0.000000,0.000000,1.000000,0.000000,0.000000,0.000000,0.000000,7.116756,24.806879,-0.032163
1649350644.425160,4564.000000,1649350644.424689,0.000000,0.000000,1.000000,0.000000,0.000000,0.000000,0.000000,7.118018,24.806328,-0.019100
1649350644.526414,4565.000000,1649350644.525622,0.000000,0.000000,1.000000,0.000000,0.000000,0.000000,0.000000,7.122426,24.806888,0.020496
1649350644.622674,4566.000000,1649350644.622509,0.000000,0.000000,1.000000,0.000000,0.000000,0.000000,0.000000,7.121076,24.808496,0.024213
1649350644.724528,4567.000000,1649350644.723899,0.000000,0.000000,1.000000,0.000000,0.000000,0.000000,0.000000,7.116468,24.808911,0.021732
1649350644.824024,4568.000000,1649350644.823679,0.000000,0.000000,1.000000,0.000000,0.000000,0.000000,0.000000,7.115342,24.808198,0.044778
1649350644.924434,4569.000000,1649350644.923763,0.000000,0.000000,1.000000,0.000000,0.000000,0.000000,0.000000,7.112061,24.808601,0.055202
1649350645.023314,4570.000000,1649350645.023068,0.000000,0.000000,1.000000,0.000000,0.000000,0.000000,0.000000,7.105665,24.810059,0.039801
1649350645.123268,4571.000000,1649350645.122889,0.000000,0.000000,1.000000,0.000000,0.000000,0.000000,0.000000,7.103978,24.811421,0.046433
1649350645.222858,4572.000000,1649350645.222694,0.000000,0.000000,1.000000,0.000000,0.000000,0.000000,0.000000,7.105658,24.809417,0.076635
1649350645.324672,4573.000000,1649350645.324262,0.000000,0.000000,1.000000,0.000000,0.000000,0.000000,0.000000,7.101793,24.811871,0.071355
1649350645.422872,4574.000000,1649350645.422627,0.000000,0.000000,1.000000,0.000000,0.000000,0.000000,0.000000,7.095969,24.814172,0.044952
1649350645.524414,4575.000000,1649350645.523939,0.000000,0.000000,1.000000,0.000000,0.000000,0.000000,0.000000,7.086129,24.818502,0.001564
1649350645.622648,4576.000000,1649350645.622461,0.000000,0.000000,1.000000,0.000000,0.000000,0.000000,0.000000,7.082334,24.817106,-0.013684
1649350645.723823,4577.000000,1649350645.723535,0.000000,0.000000,1.000000,0.000000,0.000000,0.000000,0.000000,7.083175,24.815755,-0.009148
1649350645.823303,4578.000000,1649350645.822601,0.000000,0.000000,1.000000,0.000000,0.000000,0.000000,0.000000,7.087301,24.813361,0.020826
1649350645.923696,4579.000000,1649350645.923022,0.000000,0.000000,1.000000,0.000000,0.000000,0.000000,0.000000,7.094517,24.807811,0.064685
1649350646.025509,4580.000000,1649350646.024743,0.000000,0.000000,1.000000,0.000000,0.000000,0.000000,0.000000,7.102448,24.804745,0.125031
1649350646.124537,4581.000000,1649350646.123730,0.000000,0.000000,1.000000,0.000000,0.000000,0.000000,0.000000,7.101217,24.804039,0.154336
1649350646.224180,4582.000000,1649350646.223521,0.000000,0.000000,1.000000,0.000000,0.000000,0.000000,0.000000,7.098959,24.804475,0.148978
1649350646.323908,4583.000000,1649350646.323456,0.000000,0.000000,1.000000,0.000000,0.000000,0.000000,0.000000,7.101189,24.803807,0.157961
1649350646.424267,4584.000000,1649350646.423841,0.000000,0.000000,1.000000,0.000000,0.000000,0.000000,0.000000,7.102204,24.802099,0.152483
1649350646.523486,4585.000000,1649350646.522966,0.000000,0.000000,1.000000,0.000000,0.000000,0.000000,0.000000,7.100977,24.800500,0.133959
1649350646.624538,4586.000000,1649350646.623776,0.000000,0.000000,1.000000,0.000000,0.000000,0.000000,0.000000,7.104176,24.797919,0.145704
1649350646.724323,4587.000000,1649350646.723759,0.000000,0.000000,1.000000,0.000000,0.000000,0.000000,0.000000,7.106098,24.795507,0.135683
1649350646.825444,4588.000000,1649350646.824782,0.000000,0.000000,1.000000,0.000000,0.000000,0.000000,0.000000,7.104627,24.795441,0.099160
1649350646.923932,4589.000000,1649350646.923623,0.000000,0.000000,1.000000,0.000000,0.000000,0.000000,0.000000,7.106496,24.793230,0.074375
1649350647.022954,4590.000000,1649350647.022726,0.000000,0.000000,1.000000,0.000000,0.000000,0.000000,0.000000,7.110427,24.790086,0.077840
1649350647.124018,4591.000000,1649350647.123778,0.000000,0.000000,1.000000,0.000000,0.000000,0.000000,0.000000,7.117386,24.784979,0.096322
1649350647.222749,4592.000000,1649350647.222473,0.000000,0.000000,1.000000,0.000000,0.000000,0.000000,0.000000,7.125008,24.781298,0.133224
1649350647.323802,4593.000000,1649350647.322984,0.000000,0.000000,1.000000,0.000000,0.000000,0.000000,0.000000,7.126693,24.781156,0.129682
1649350647.423410,4594.000000,1649350647.423082,0.000000,0.000000,1.000000,0.000000,0.000000,0.000000,0.000000,7.123853,24.782175,0.101861
1649350647.524240,4595.000000,1649350647.523626,0.000000,0.000000,1.000000,0.000000,0.000000,0.000000,0.000000,7.125472,24.783196,0.095957
1649350647.622748,4596.000000,1649350647.622501,0.000000,0.000000,1.000000,0.000000,0.000000,0.000000,0.000000,7.124762,24.785301,0.063523
1649350647.723770,4597.000000,1649350647.723286,0.000000,0.000000,1.000000,0.000000,0.000000,0.000000,0.000000,7.121855,24.787332,0.020206
1649350647.823354,4598.000000,1649350647.822846,0.000000,0.000000,1.000000,0.000000,0.000000,0.000000,0.000000,7.121246,24.787104,0.000393
1649350647.924211,4599.000000,1649350647.923655,0.000000,0.000000,1.000000,0.000000,0.000000,0.000000,0.000000,7.120632,24.786918,-0.037958
1649350648.023978,4600.000000,1649350648.023206,0.000000,0.000000,1.000000,0.000000,0.000000,0.000000,0.000000,7.122200,24.783501,-0.056132
1649350648.125394,4601.000000,1649350648.124599,0.000000,0.000000,1.000000,0.000000,0.000000,0.000000,0.000000,7.125826,24.781400,-0.056528
1649350648.223831,4602.000000,1649350648.223197,0.000000,0.000000,1.000000,0.000000,0.000000,0.000000,0.000000,7.122667,24.782726,-0.079384
1649350648.323247,4603.000000,1649350648.322918,0.000000,0.000000,1.000000,0.000000,0.000000,0.000000,0.000000,7.122917,24.780746,-0.079403
1649350648.423966,4604.000000,1649350648.423484,0.000000,0.000000,1.000000,0.000000,0.000000,0.000000,0.000000,7.126393,24.776733,-0.064771
1649350648.524053,4605.000000,1649350648.523673,0.000000,0.000000,1.000000,0.000000,0.000000,0.000000,0.000000,7.123097,24.777351,-0.074819
1649350648.623631,4606.000000,1649350648.622928,0.000000,0.000000,1.000000,0.000000,0.000000,0.000000,0.000000,7.123223,24.774710,-0.061765
1649350648.723974,4607.000000,1649350648.723461,0.000000,0.000000,1.000000,0.000000,0.000000,0.000000,0.000000,7.120043,24.773355,-0.067695
1649350648.823610,4608.000000,1649350648.823181,0.000000,0.000000,1.000000,0.000000,0.000000,0.000000,0.000000,7.117021,24.773217,-0.090226
1649350648.923300,4609.000000,1649350648.922976,0.000000,0.000000,1.000000,0.000000,0.000000,0.000000,0.000000,7.117430,24.770956,-0.082687
1649350649.023108,4610.000000,1649350649.022796,0.000000,0.000000,1.000000,0.000000,0.000000,0.000000,0.000000,7.115630,24.772144,-0.102759
1649350649.127971,4611.000000,1649350649.126458,0.000000,0.000000,1.000000,0.000000,0.000000,0.000000,0.000000,7.112837,24.773314,-0.142043
1649350649.222405,4612.000000,1649350649.222119,0.000000,0.000000,1.000000,0.000000,0.000000,0.000000,0.000000,7.108024,24.776643,-0.194057
1649350649.324743,4613.000000,1649350649.323786,0.000000,0.000000,1.000000,0.000000,0.000000,0.000000,0.000000,7.107859,24.779818,-0.200146
1649350649.424865,4614.000000,1649350649.424218,0.000000,0.000000,1.000000,0.000000,0.000000,0.000000,0.000000,7.103363,24.785018,-0.226676
1649350649.523830,4615.000000,1649350649.523354,0.000000,0.000000,1.000000,0.000000,0.000000,0.000000,0.000000,7.096967,24.788844,-0.252631
1649350649.625317,4616.000000,1649350649.624541,0.000000,0.000000,1.000000,0.000000,0.000000,0.000000,0.000000,7.090972,24.792449,-0.277195
1649350649.723115,4617.000000,1649350649.722773,0.000000,0.000000,1.000000,0.000000,0.000000,0.000000,0.000000,7.084283,24.794743,-0.317334
1649350649.824631,4618.000000,1649350649.823886,0.000000,0.000000,1.000000,0.000000,0.000000,0.000000,0.000000,7.073684,24.799065,-0.365915
1649350649.926633,4619.000000,1649350649.925310,0.000000,0.000000,1.000000,0.000000,0.000000,0.000000,0.000000,7.069228,24.800928,-0.370921
1649350650.027829,4620.000000,1649350650.026370,0.000000,0.000000,1.000000,0.000000,0.000000,0.000000,0.000000,7.070589,24.798285,-0.351055
1649350650.122739,4621.000000,1649350650.122476,0.000000,0.000000,1.000000,0.000000,0.000000,0.000000,0.000000,7.065444,24.800113,-0.357373
1649350650.222570,4622.000000,1649350650.222345,0.000000,0.000000,1.000000,0.000000,0.000000,0.000000,0.000000,7.065062,24.800713,-0.329151
1649350650.326418,4623.000000,1649350650.325772,0.000000,0.000000,1.000000,0.000000,0.000000,0.000000,0.000000,7.069177,24.797972,-0.286393
1649350650.422618,4624.000000,1649350650.422288,0.000000,0.000000,1.000000,0.000000,0.000000,0.000000,0.000000,7.075344,24.794264,-0.227353
1649350650.524676,4625.000000,1649350650.523811,0.000000,0.000000,1.000000,0.000000,0.000000,0.000000,0.000000,7.083426,24.791835,-0.168122
1649350650.622669,4626.000000,1649350650.622202,0.000000,0.000000,1.000000,0.000000,0.000000,0.000000,0.000000,7.092199,24.787353,-0.093491
1649350650.723461,4627.000000,1649350650.722989,0.000000,0.000000,1.000000,0.000000,0.000000,0.000000,0.000000,7.103776,24.780943,-0.018726
1649350650.822109,4628.000000,1649350650.821964,0.000000,0.000000,1.000000,0.000000,0.000000,0.000000,0.000000,7.115787,24.776003,0.062497
1649350650.923979,4629.000000,1649350650.923607,0.000000,0.000000,1.000000,0.000000,0.000000,0.000000,0.000000,7.121629,24.774645,0.097368
1649350651.022357,4630.000000,1649350651.022056,0.000000,0.000000,1.000000,0.000000,0.000000,0.000000,0.000000,7.120533,24.774497,0.119162
1649350651.125030,4631.000000,1649350651.124186,0.000000,0.000000,1.000000,0.000000,0.000000,0.000000,0.000000,7.122699,24.773309,0.160644
1649350651.222305,4632.000000,1649350651.222148,0.000000,0.000000,1.000000,0.000000,0.000000,0.000000,0.000000,7.117042,24.775501,0.176612
1649350651.325366,4633.000000,1649350651.324222,0.000000,0.000000,1.000000,0.000000,0.000000,0.000000,0.000000,7.110552,24.778699,0.163247
1649350651.423966,4634.000000,1649350651.423324,0.000000,0.000000,1.000000,0.000000,0.000000,0.000000,0.000000,7.108750,24.780654,0.178226
1649350651.523024,4635.000000,1649350651.522560,0.000000,0.000000,1.000000,0.000000,0.000000,0.000000,0.000000,7.110298,24.781428,0.208301
1649350651.622084,4636.000000,1649350651.621947,0.000000,0.000000,1.000000,0.000000,0.000000,0.000000,0.000000,7.107377,24.785442,0.201218
1649350651.722535,4637.000000,1649350651.722076,0.000000,0.000000,1.000000,0.000000,0.000000,0.000000,0.000000,7.104602,24.789236,0.193991
1649350651.823091,4638.000000,1649350651.822805,0.000000,0.000000,1.000000,0.000000,0.000000,0.000000,0.000000,7.104155,24.788449,0.203590
1649350651.923396,4639.000000,1649350651.922896,0.000000,0.000000,1.000000,0.000000,0.000000,0.000000,0.000000,7.100460,24.789874,0.180952
1649350652.022310,4640.000000,1649350652.022174,0.000000,0.000000,1.000000,0.000000,0.000000,0.000000,0.000000,7.100248,24.789028,0.166946
1649350652.124234,4641.000000,1649350652.123516,0.000000,0.000000,1.000000,0.000000,0.000000,0.000000,0.000000,7.104418,24.784946,0.167714
1649350652.224565,4642.000000,1649350652.223863,0.000000,0.000000,1.000000,0.000000,0.000000,0.000000,0.000000,7.110539,24.778908,0.185900
1649350652.324512,4643.000000,1649350652.324099,0.000000,0.000000,1.000000,0.000000,0.000000,0.000000,0.000000,7.118484,24.773221,0.203846
1649350652.422495,4644.000000,1649350652.422264,0.000000,0.000000,1.000000,0.000000,0.000000,0.000000,0.000000,7.123769,24.768972,0.191706
1649350652.524174,4645.000000,1649350652.523734,0.000000,0.000000,1.000000,0.000000,0.000000,0.000000,0.000000,7.127615,24.766095,0.163630
1649350652.623214,4646.000000,1649350652.622802,0.000000,0.000000,1.000000,0.000000,0.000000,0.000000,0.000000,7.132273,24.764520,0.157418
1649350652.724581,4647.000000,1649350652.724021,0.000000,0.000000,1.000000,0.000000,0.000000,0.000000,0.000000,7.136598,24.763089,0.130274
1649350652.822956,4648.000000,1649350652.822536,0.000000,0.000000,1.000000,0.000000,0.000000,0.000000,0.000000,7.132966,24.765065,0.090353
1649350652.926790,4649.000000,1649350652.925338,0.000000,0.000000,1.000000,0.000000,0.000000,0.000000,0.000000,7.132730,24.766983,0.074537
1649350653.023518,4650.000000,1649350653.023093,0.000000,0.000000,1.000000,0.000000,0.000000,0.000000,0.000000,7.134621,24.764475,0.077045
1649350653.123902,4651.000000,1649350653.123344,0.000000,0.000000,1.000000,0.000000,0.000000,0.000000,0.000000,7.128707,24.766511,0.060039
1649350653.222943,4652.000000,1649350653.222721,0.000000,0.000000,1.000000,0.000000,0.000000,0.000000,0.000000,7.127430,24.767383,0.071919
1649350653.324941,4653.000000,1649350653.323711,0.000000,0.000000,1.000000,0.000000,0.000000,0.000000,0.000000,7.119640,24.770419,0.067146
1649350653.423761,4654.000000,1649350653.423036,0.000000,0.000000,1.000000,0.000000,0.000000,0.000000,0.000000,7.111171,24.774401,0.038336
1649350653.524499,4655.000000,1649350653.523926,0.000000,0.000000,1.000000,0.000000,0.000000,0.000000,0.000000,7.108630,24.777083,0.046187
1649350653.624097,4656.000000,1649350653.623453,0.000000,0.000000,1.000000,0.000000,0.000000,0.000000,0.000000,7.106248,24.778526,0.032755
1649350653.723928,4657.000000,1649350653.723025,0.000000,0.000000,1.000000,0.000000,0.000000,0.000000,0.000000,7.100753,24.783154,-0.004305
1649350653.823073,4658.000000,1649350653.822621,0.000000,0.000000,1.000000,0.000000,0.000000,0.000000,0.000000,7.093419,24.788601,-0.056721
1649350653.923271,4659.000000,1649350653.922880,0.000000,0.000000,1.000000,0.000000,0.000000,0.000000,0.000000,7.088730,24.792624,-0.112499
1649350654.025101,4660.000000,1649350654.024400,0.000000,0.000000,1.000000,0.000000,0.000000,0.000000,0.000000,7.082191,24.797470,-0.174641
1649350654.122221,4661.000000,1649350654.122061,0.000000,0.000000,1.000000,0.000000,0.000000,0.000000,0.000000,7.081551,24.800903,-0.189571
1649350654.222473,4662.000000,1649350654.222196,0.000000,0.000000,1.000000,0.000000,0.000000,0.000000,0.000000,7.077763,24.806262,-0.222083
1649350654.324946,4663.000000,1649350654.324623,0.000000,0.000000,1.000000,0.000000,0.000000,0.000000,0.000000,7.079728,24.804707,-0.226269
1649350654.424375,4664.000000,1649350654.423657,0.000000,0.000000,1.000000,0.000000,0.000000,0.000000,0.000000,7.086031,24.803166,-0.198441
1649350654.526292,4665.000000,1649350654.525100,0.000000,0.000000,1.000000,0.000000,0.000000,0.000000,0.000000,7.088778,24.801647,-0.185115
1649350654.622627,4666.000000,1649350654.622365,0.000000,0.000000,1.000000,0.000000,0.000000,0.000000,0.000000,7.093602,24.799067,-0.193000
1649350654.725558,4667.000000,1649350654.724447,0.000000,0.000000,1.000000,0.000000,0.000000,0.000000,0.000000,7.100374,24.797676,-0.172047
1649350654.823751,4668.000000,1649350654.823147,0.000000,0.000000,1.000000,0.000000,0.000000,0.000000,0.000000,7.099149,24.798506,-0.178305
1649350654.923358,4669.000000,1649350654.923042,0.000000,0.000000,1.000000,0.000000,0.000000,0.000000,0.000000,7.094730,24.800346,-0.199387
1649350655.023107,4670.000000,1649350655.022790,0.000000,0.000000,1.000000,0.000000,0.000000,0.000000,0.000000,7.094935,24.800955,-0.187895
1649350655.124508,4671.000000,1649350655.123925,0.000000,0.000000,1.000000,0.000000,0.000000,0.000000,0.000000,7.090788,24.802582,-0.193561
1649350655.222921,4672.000000,1649350655.222293,0.000000,0.000000,1.000000,0.000000,0.000000,0.000000,0.000000,7.082538,24.805169,-0.211661
1649350655.324533,4673.000000,1649350655.323932,0.000000,0.000000,1.000000,0.000000,0.000000,0.000000,0.000000,7.079156,24.806477,-0.194093
1649350655.422684,4674.000000,1649350655.422448,0.000000,0.000000,1.000000,0.000000,0.000000,0.000000,0.000000,7.074931,24.807664,-0.179431
1649350655.524521,4675.000000,1649350655.523831,0.000000,0.000000,1.000000,0.000000,0.000000,0.000000,0.000000,7.076462,24.804375,-0.148239
1649350655.625424,4676.000000,1649350655.625077,0.000000,0.000000,1.000000,0.000000,0.000000,0.000000,0.000000,7.082336,24.802319,-0.094791
1649350655.723683,4677.000000,1649350655.723292,0.000000,0.000000,1.000000,0.000000,0.000000,0.000000,0.000000,7.090113,24.799256,-0.032984
1649350655.822864,4678.000000,1649350655.822491,0.000000,0.000000,1.000000,0.000000,0.000000,0.000000,0.000000,7.095301,24.796343,-0.002777
1649350655.923312,4679.000000,1649350655.922969,0.000000,0.000000,1.000000,0.000000,0.000000,0.000000,0.000000,7.102386,24.793582,0.029314
1649350656.023252,4680.000000,1649350656.022913,0.000000,0.000000,1.000000,0.000000,0.000000,0.000000,0.000000,7.111241,24.788792,0.082519
1649350656.124305,4681.000000,1649350656.123487,0.000000,0.000000,1.000000,0.000000,0.000000,0.000000,0.000000,7.113021,24.788643,0.098646
1649350656.223650,4682.000000,1649350656.223084,0.000000,0.000000,1.000000,0.000000,0.000000,0.000000,0.000000,7.116832,24.784156,0.122720
1649350656.325192,4683.000000,1649350656.324588,0.000000,0.000000,1.000000,0.000000,0.000000,0.000000,0.000000,7.118192,24.781035,0.118909
1649350656.423021,4684.000000,1649350656.422644,0.000000,0.000000,1.000000,0.000000,0.000000,0.000000,0.000000,7.112873,24.781392,0.096420
1649350656.523438,4685.000000,1649350656.522900,0.000000,0.000000,1.000000,0.000000,0.000000,0.000000,0.000000,7.103439,24.783946,0.062507
1649350656.622208,4686.000000,1649350656.621988,0.000000,0.000000,1.000000,0.000000,0.000000,0.000000,0.000000,7.098871,24.782023,0.063666
1649350656.722836,4687.000000,1649350656.722639,0.000000,0.000000,1.000000,0.000000,0.000000,0.000000,0.000000,7.089104,24.783506,0.049295
1649350656.822269,4688.000000,1649350656.822072,0.000000,0.000000,1.000000,0.000000,0.000000,0.000000,0.000000,7.083176,24.783840,0.027309
1649350656.923970,4689.000000,1649350656.923683,0.000000,0.000000,1.000000,0.000000,0.000000,0.000000,0.000000,7.073261,24.786357,-0.010814
1649350657.022187,4690.000000,1649350657.022043,0.000000,0.000000,1.000000,0.000000,0.000000,0.000000,0.000000,7.070508,24.785478,-0.021612
1649350657.127526,4691.000000,1649350657.125849,0.000000,0.000000,1.000000,0.000000,0.000000,0.000000,0.000000,7.069080,24.784660,-0.046491
1649350657.227353,4692.000000,1649350657.226245,0.000000,0.000000,1.000000,0.000000,0.000000,0.000000,0.000000,7.063451,24.786082,-0.083228
1649350657.324803,4693.000000,1649350657.324470,0.000000,0.000000,1.000000,0.000000,0.000000,0.000000,0.000000,7.059317,24.788528,-0.136930
1649350657.422694,4694.000000,1649350657.422487,0.000000,0.000000,1.000000,0.000000,0.000000,0.000000,0.000000,7.053330,24.791932,-0.193922
1649350657.523161,4695.000000,1649350657.522747,0.000000,0.000000,1.000000,0.000000,0.000000,0.000000,0.000000,7.046697,24.796232,-0.261243
1649350657.622425,4696.000000,1649350657.622233,0.000000,0.000000,1.000000,0.000000,0.000000,0.000000,0.000000,7.038375,24.801366,-0.325469
1649350657.723744,4697.000000,1649350657.723373,0.000000,0.000000,1.000000,0.000000,0.000000,0.000000,0.000000,7.030656,24.806184,-0.379375
1649350657.822999,4698.000000,1649350657.822621,0.000000,0.000000,1.000000,0.000000,0.000000,0.000000,0.000000,7.030065,24.808508,-0.439433
1649350657.923850,4699.000000,1649350657.923507,0.000000,0.000000,1.000000,0.000000,0.000000,0.000000,0.000000,7.029664,24.809561,-0.486770
1649350658.024166,4700.000000,1649350658.023808,0.000000,0.000000,1.000000,0.000000,0.000000,0.000000,0.000000,7.032706,24.805049,-0.502488
1649350658.123191,4701.000000,1649350658.122834,0.000000,0.000000,1.000000,0.000000,0.000000,0.000000,0.000000,7.038985,24.798566,-0.499960
1649350658.224984,4702.000000,1649350658.224625,0.000000,0.000000,1.000000,0.000000,0.000000,0.000000,0.000000,7.041755,24.795692,-0.517052
1649350658.327538,4703.000000,1649350658.326917,0.000000,0.000000,1.000000,0.000000,0.000000,0.000000,0.000000,7.041192,24.795150,-0.548939
1649350658.422660,4704.000000,1649350658.422337,0.000000,0.000000,1.000000,0.000000,0.000000,0.000000,0.000000,7.035295,24.797906,-0.586126
1649350658.522280,4705.000000,1649350658.522131,0.000000,0.000000,1.000000,0.000000,0.000000,0.000000,0.000000,7.036360,24.796139,-0.592074
1649350658.622186,4706.000000,1649350658.622033,0.000000,0.000000,1.000000,0.000000,0.000000,0.000000,0.000000,7.034187,24.795554,-0.611611
1649350658.723076,4707.000000,1649350658.722578,0.000000,0.000000,1.000000,0.000000,0.000000,0.000000,0.000000,7.031135,24.796088,-0.641766
1649350658.824720,4708.000000,1649350658.824124,0.000000,0.000000,1.000000,0.000000,0.000000,0.000000,0.000000,7.022893,24.799860,-0.674024
1649350658.923262,4709.000000,1649350658.922904,0.000000,0.000000,1.000000,0.000000,0.000000,0.000000,0.000000,7.022849,24.797958,-0.673597
1649350659.022195,4710.000000,1649350659.021997,0.000000,0.000000,1.000000,0.000000,0.000000,0.000000,0.000000,7.026190,24.793969,-0.643449
1649350659.123151,4711.000000,1649350659.122663,0.000000,0.000000,1.000000,0.000000,0.000000,0.000000,0.000000,7.028351,24.791292,-0.628405
1649350659.223064,4712.000000,1649350659.222575,0.000000,0.000000,1.000000,0.000000,0.000000,0.000000,0.000000,7.026115,24.789864,-0.626298
1649350659.323458,4713.000000,1649350659.323125,0.000000,0.000000,1.000000,0.000000,0.000000,0.000000,0.000000,7.021903,24.792890,-0.636631
1649350659.423585,4714.000000,1649350659.423037,0.000000,0.000000,1.000000,0.000000,0.000000,0.000000,0.000000,7.014741,24.796848,-0.651653
1649350659.524131,4715.000000,1649350659.523524,0.000000,0.000000,1.000000,0.000000,0.000000,0.000000,0.000000,7.008079,24.800583,-0.676815
1649350659.623144,4716.000000,1649350659.622615,0.000000,0.000000,1.000000,0.000000,0.000000,0.000000,0.000000,7.001903,24.804095,-0.710078
1649350659.725113,4717.000000,1649350659.724115,0.000000,0.000000,1.000000,0.000000,0.000000,0.000000,0.000000,6.994020,24.809568,-0.742210
1649350659.824955,4718.000000,1649350659.824209,0.000000,0.000000,1.000000,0.000000,0.000000,0.000000,0.000000,6.996532,24.811428,-0.757904
1649350659.923327,4719.000000,1649350659.922910,0.000000,0.000000,1.000000,0.000000,0.000000,0.000000,0.000000,7.004496,24.812049,-0.728792
1649350660.022599,4720.000000,1649350660.022423,0.000000,0.000000,1.000000,0.000000,0.000000,0.000000,0.000000,7.008859,24.813679,-0.705948
1649350660.124235,4721.000000,1649350660.123528,0.000000,0.000000,1.000000,0.000000,0.000000,0.000000,0.000000,7.013067,24.814081,-0.688375
1649350660.224027,4722.000000,1649350660.223552,0.000000,0.000000,1.000000,0.000000,0.000000,0.000000,0.000000,7.016022,24.814414,-0.672685
1649350660.323376,4723.000000,1649350660.322829,0.000000,0.000000,1.000000,0.000000,0.000000,0.000000,0.000000,7.023230,24.810321,-0.635460
1649350660.424807,4724.000000,1649350660.424042,0.000000,0.000000,1.000000,0.000000,0.000000,0.000000,0.000000,7.034433,24.805330,-0.574421
1649350660.523439,4725.000000,1649350660.522820,0.000000,0.000000,1.000000,0.000000,0.000000,0.000000,0.000000,7.040655,24.803869,-0.548711
1649350660.622469,4726.000000,1649350660.622177,0.000000,0.000000,1.000000,0.000000,0.000000,0.000000,0.000000,7.046509,24.801390,-0.532762
1649350660.725500,4727.000000,1649350660.724298,0.000000,0.000000,1.000000,0.000000,0.000000,0.000000,0.000000,7.055270,24.797956,-0.489926
1649350660.823689,4728.000000,1649350660.823360,0.000000,0.000000,1.000000,0.000000,0.000000,0.000000,0.000000,7.066753,24.792540,-0.431846
1649350660.924360,4729.000000,1649350660.923741,0.000000,0.000000,1.000000,0.000000,0.000000,0.000000,0.000000,7.072057,24.791808,-0.406817
1649350661.023417,4730.000000,1649350661.023064,0.000000,0.000000,1.000000,0.000000,0.000000,0.000000,0.000000,7.075867,24.792235,-0.408709
1649350661.122875,4731.000000,1649350661.122628,0.000000,0.000000,1.000000,0.000000,0.000000,0.000000,0.000000,7.079351,24.792665,-0.415461
1649350661.223298,4732.000000,1649350661.222905,0.000000,0.000000,1.000000,0.000000,0.000000,0.000000,0.000000,7.085794,24.792003,-0.384120
1649350661.323141,4733.000000,1649350661.322835,0.000000,0.000000,1.000000,0.000000,0.000000,0.000000,0.000000,7.093930,24.789220,-0.323528
1649350661.422116,4734.000000,1649350661.421915,0.000000,0.000000,1.000000,0.000000,0.000000,0.000000,0.000000,7.094926,24.789891,-0.286575
1649350661.523171,4735.000000,1649350661.522934,0.000000,0.000000,1.000000,0.000000,0.000000,0.000000,0.000000,7.096810,24.790552,-0.265103
1649350661.623141,4736.000000,1649350661.622854,0.000000,0.000000,1.000000,0.000000,0.000000,0.000000,0.000000,7.099536,24.792291,-0.270609
1649350661.724555,4737.000000,1649350661.724155,0.000000,0.000000,1.000000,0.000000,0.000000,0.000000,0.000000,7.097607,24.793952,-0.289081
1649350661.825002,4738.000000,1649350661.824492,0.000000,0.000000,1.000000,0.000000,0.000000,0.000000,0.000000,7.094561,24.796623,-0.323985
1649350661.922723,4739.000000,1649350661.922526,0.000000,0.000000,1.000000,0.000000,0.000000,0.000000,0.000000,7.095928,24.794789,-0.339106
1649350662.025152,4740.000000,1649350662.024575,0.000000,0.000000,1.000000,0.000000,0.000000,0.000000,0.000000,7.092747,24.794151,-0.359401
1649350662.122232,4741.000000,1649350662.122055,0.000000,0.000000,1.000000,0.000000,0.000000,0.000000,0.000000,7.094005,24.791377,-0.348332
1649350662.223652,4742.000000,1649350662.223159,0.000000,0.000000,1.000000,0.000000,0.000000,0.000000,0.000000,7.099463,24.784409,-0.315241
1649350662.323403,4743.000000,1649350662.322805,0.000000,0.000000,1.000000,0.000000,0.000000,0.000000,0.000000,7.101246,24.781129,-0.312681
1649350662.423205,4744.000000,1649350662.422812,0.000000,0.000000,1.000000,0.000000,0.000000,0.000000,0.000000,7.099556,24.780255,-0.326515
1649350662.524051,4745.000000,1649350662.523681,0.000000,0.000000,1.000000,0.000000,0.000000,0.000000,0.000000,7.102226,24.776203,-0.318149
1649350662.623696,4746.000000,1649350662.623310,0.000000,0.000000,1.000000,0.000000,0.000000,0.000000,0.000000,7.100292,24.773519,-0.308647
1649350662.722746,4747.000000,1649350662.722498,0.000000,0.000000,1.000000,0.000000,0.000000,0.000000,0.000000,7.099469,24.771042,-0.306938
1649350662.825465,4748.000000,1649350662.824710,0.000000,0.000000,1.000000,0.000000,0.000000,0.000000,0.000000,7.102975,24.766585,-0.281250
1649350662.922853,4749.000000,1649350662.922646,0.000000,0.000000,1.000000,0.000000,0.000000,0.000000,0.000000,7.108386,24.759176,-0.241460
1649350663.023101,4750.000000,1649350663.022653,0.000000,0.000000,1.000000,0.000000,0.000000,0.000000,0.000000,7.115587,24.751174,-0.188195
1649350663.122655,4751.000000,1649350663.122406,0.000000,0.000000,1.000000,0.000000,0.000000,0.000000,0.000000,7.114649,24.749176,-0.163208
1649350663.223944,4752.000000,1649350663.223541,0.000000,0.000000,1.000000,0.000000,0.000000,0.000000,0.000000,7.118021,24.747400,-0.116194
1649350663.323111,4753.000000,1649350663.322863,0.000000,0.000000,1.000000,0.000000,0.000000,0.000000,0.000000,7.116738,24.749105,-0.102138
1649350663.425040,4754.000000,1649350663.424250,0.000000,0.000000,1.000000,0.000000,0.000000,0.000000,0.000000,7.111066,24.751909,-0.105201
1649350663.523344,4755.000000,1649350663.522790,0.000000,0.000000,1.000000,0.000000,0.000000,0.000000,0.000000,7.111079,24.751376,-0.088381
1649350663.626646,4756.000000,1649350663.625235,0.000000,0.000000,1.000000,0.000000,0.000000,0.000000,0.000000,7.105570,24.754227,-0.091201
1649350663.722582,4757.000000,1649350663.722419,0.000000,0.000000,1.000000,0.000000,0.000000,0.000000,0.000000,7.104673,24.753720,-0.071716
1649350663.825109,4758.000000,1649350663.824476,0.000000,0.000000,1.000000,0.000000,0.000000,0.000000,0.000000,7.100510,24.755490,-0.079231
1649350663.925118,4759.000000,1649350663.924567,0.000000,0.000000,1.000000,0.000000,0.000000,0.000000,0.000000,7.095456,24.758310,-0.094885
1649350664.024320,4760.000000,1649350664.023876,0.000000,0.000000,1.000000,0.000000,0.000000,0.000000,0.000000,7.096119,24.756662,-0.091694
1649350664.124495,4761.000000,1649350664.124021,0.000000,0.000000,1.000000,0.000000,0.000000,0.000000,0.000000,7.100005,24.751879,-0.072023
1649350664.224706,4762.000000,1649350664.224044,0.000000,0.000000,1.000000,0.000000,0.000000,0.000000,0.000000,7.100386,24.749599,-0.068813
1649350664.323164,4763.000000,1649350664.322875,0.000000,0.000000,1.000000,0.000000,0.000000,0.000000,0.000000,7.105083,24.747507,-0.039457
1649350664.425408,4764.000000,1649350664.424611,0.000000,0.000000,1.000000,0.000000,0.000000,0.000000,0.000000,7.102946,24.749957,-0.039076
1649350664.526525,4765.000000,1649350664.526081,0.000000,0.000000,1.000000,0.000000,0.000000,0.000000,0.000000,7.105259,24.751238,-0.010842
1649350664.623218,4766.000000,1649350664.622967,0.000000,0.000000,1.000000,0.000000,0.000000,0.000000,0.000000,7.104142,24.753589,-0.014781
1649350664.722096,4767.000000,1649350664.721963,0.000000,0.000000,1.000000,0.000000,0.000000,0.000000,0.000000,7.098696,24.756939,-0.028606
1649350664.823384,4768.000000,1649350664.823047,0.000000,0.000000,1.000000,0.000000,0.000000,0.000000,0.000000,7.097898,24.756862,-0.021235
1649350664.922166,4769.000000,1649350664.921988,0.000000,0.000000,1.000000,0.000000,0.000000,0.000000,0.000000,7.090596,24.760083,-0.033843
1649350665.024034,4770.000000,1649350665.023564,0.000000,0.000000,1.000000,0.000000,0.000000,0.000000,0.000000,7.088070,24.760961,-0.027686
1649350665.122369,4771.000000,1649350665.122192,0.000000,0.000000,1.000000,0.000000,0.000000,0.000000,0.000000,7.083525,24.763981,-0.048680
1649350665.226106,4772.000000,1649350665.225339,0.000000,0.000000,1.000000,0.000000,0.000000,0.000000,0.000000,7.083627,24.763564,-0.044877
1649350665.325261,4773.000000,1649350665.324507,0.000000,0.000000,1.000000,0.000000,0.000000,0.000000,0.000000,7.081576,24.765351,-0.068079
1649350665.423250,4774.000000,1649350665.422911,0.000000,0.000000,1.000000,0.000000,0.000000,0.000000,0.000000,7.081857,24.767035,-0.101018
1649350665.522774,4775.000000,1649350665.522547,0.000000,0.000000,1.000000,0.000000,0.000000,0.000000,0.000000,7.085430,24.768617,-0.148885
1649350665.623885,4776.000000,1649350665.623135,0.000000,0.000000,1.000000,0.000000,0.000000,0.000000,0.000000,7.083379,24.772279,-0.206152
1649350665.724550,4777.000000,1649350665.724295,0.000000,0.000000,1.000000,0.000000,0.000000,0.000000,0.000000,7.080377,24.777897,-0.271535
1649350665.823660,4778.000000,1649350665.822928,0.000000,0.000000,1.000000,0.000000,0.000000,0.000000,0.000000,7.077574,24.782077,-0.330888
1649350665.924085,4779.000000,1649350665.923704,0.000000,0.000000,1.000000,0.000000,0.000000,0.000000,0.000000,7.071695,24.788158,-0.393233
1649350666.033098,4780.000000,1649350666.031348,0.000000,0.000000,1.000000,0.000000,0.000000,0.000000,0.000000,7.067285,24.792748,-0.443031
1649350666.126812,4781.000000,1649350666.125726,0.000000,0.000000,1.000000,0.000000,0.000000,0.000000,0.000000,7.064274,24.797010,-0.487977
1649350666.226171,4782.000000,1649350666.225138,0.000000,0.000000,1.000000,0.000000,0.000000,0.000000,0.000000,7.061502,24.800951,-0.524982
1649350666.326622,4783.000000,1649350666.325611,0.000000,0.000000,1.000000,0.000000,0.000000,0.000000,0.000000,7.064412,24.801311,-0.526904
1649350666.422961,4784.000000,1649350666.422510,0.000000,0.000000,1.000000,0.000000,0.000000,0.000000,0.000000,7.063957,24.802652,-0.543564
1649350666.525332,4785.000000,1649350666.524768,0.000000,0.000000,1.000000,0.000000,0.000000,0.000000,0.000000,7.063590,24.803829,-0.563070
1649350666.622841,4786.000000,1649350666.622606,0.000000,0.000000,1.000000,0.000000,0.000000,0.000000,0.000000,7.062213,24.804854,-0.595780
1649350666.726333,4787.000000,1649350666.725372,0.000000,0.000000,1.000000,0.000000,0.000000,0.000000,0.000000,7.065334,24.801375,-0.601611
1649350666.822781,4788.000000,1649350666.822553,0.000000,0.000000,1.000000,0.000000,0.000000,0.000000,0.000000,7.065061,24.801287,-0.618759
1649350666.924606,4789.000000,1649350666.923739,0.000000,0.000000,1.000000,0.000000,0.000000,0.000000,0.000000,7.059397,24.802227,-0.639503
1649350667.022232,4790.000000,1649350667.022067,0.000000,0.000000,1.000000,0.000000,0.000000,0.000000,0.000000,7.054103,24.804141,-0.670943
1649350667.123585,4791.000000,1649350667.123098,0.000000,0.000000,1.000000,0.000000,0.000000,0.000000,0.000000,7.050262,24.805883,-0.701329
1649350667.222676,4792.000000,1649350667.222417,0.000000,0.000000,1.000000,0.000000,0.000000,0.000000,0.000000,7.049983,24.806371,-0.729870
1649350667.323038,4793.000000,1649350667.322714,0.000000,0.000000,1.000000,0.000000,0.000000,0.000000,0.000000,7.045437,24.807856,-0.759844
1649350667.422278,4794.000000,1649350667.422130,0.000000,0.000000,1.000000,0.000000,0.000000,0.000000,0.000000,7.037955,24.811374,-0.790364
1649350667.524641,4795.000000,1649350667.524132,0.000000,0.000000,1.000000,0.000000,0.000000,0.000000,0.000000,7.028806,24.815715,-0.817350
1649350667.623456,4796.000000,1649350667.623042,0.000000,0.000000,1.000000,0.000000,0.000000,0.000000,0.000000,7.021375,24.818645,-0.830445
1649350667.725431,4797.000000,1649350667.724730,0.000000,0.000000,1.000000,0.000000,0.000000,0.000000,0.000000,7.014494,24.821328,-0.855216
1649350667.823048,4798.000000,1649350667.822748,0.000000,0.000000,1.000000,0.000000,0.000000,0.000000,0.000000,7.009236,24.823772,-0.880696
1649350667.923976,4799.000000,1649350667.923202,0.000000,0.000000,1.000000,0.000000,0.000000,0.000000,0.000000,7.001160,24.827080,-0.906844
1649350668.023738,4800.000000,1649350668.023260,0.000000,0.000000,1.000000,0.000000,0.000000,0.000000,0.000000,6.992615,24.831198,-0.936844
1649350668.122587,4801.000000,1649350668.122310,0.000000,0.000000,1.000000,0.000000,0.000000,0.000000,0.000000,6.990185,24.832805,-0.955198
1649350668.226293,4802.000000,1649350668.225985,0.000000,0.000000,1.000000,0.000000,0.000000,0.000000,0.000000,6.994625,24.828767,-0.942216
1649350668.325844,4803.000000,1649350668.324843,0.000000,0.000000,1.000000,0.000000,0.000000,0.000000,0.000000,7.000082,24.825953,-0.941956
