__time,/dwm1001/id_458E/pose_kf/header/seq,/dwm1001/id_458E/pose_kf/header/stamp,/dwm1001/id_458E/pose_kf/pose/orientation/pitch_deg,/dwm1001/id_458E/pose_kf/pose/orientation/roll_deg,/dwm1001/id_458E/pose_kf/pose/orientation/w,/dwm1001/id_458E/pose_kf/pose/orientation/x,/dwm1001/id_458E/pose_kf/pose/orientation/y,/dwm1001/id_458E/pose_kf/pose/orientation/yaw_deg,/dwm1001/id_458E/pose_kf/pose/orientation/z,/dwm1001/id_458E/pose_kf/pose/position/x,/dwm1001/id_458E/pose_kf/pose/position/y,/dwm1001/id_458E/pose_kf/pose/position/z
1649345281.535420,12046.000000,1649345281.534501,0.000000,0.000000,1.000000,0.000000,0.000000,0.000000,0.000000,7.081829,12.301208,0.358763
1649345281.633623,12047.000000,1649345281.632698,0.000000,0.000000,1.000000,0.000000,0.000000,0.000000,0.000000,7.080609,12.301979,0.346547
1649345281.732610,12048.000000,1649345281.732423,0.000000,0.000000,1.000000,0.000000,0.000000,0.000000,0.000000,7.080484,12.300599,0.352460
1649345281.833267,12049.000000,1649345281.833001,0.000000,0.000000,1.000000,0.000000,0.000000,0.000000,0.000000,7.081397,12.298276,0.371733
1649345281.934836,12050.000000,1649345281.933792,0.000000,0.000000,1.000000,0.000000,0.000000,0.000000,0.000000,7.078930,12.302695,0.355412
1649345282.034242,12051.000000,1649345282.033700,0.000000,0.000000,1.000000,0.000000,0.000000,0.000000,0.000000,7.078731,12.304750,0.361418
1649345282.132610,12052.000000,1649345282.132308,0.000000,0.000000,1.000000,0.000000,0.000000,0.000000,0.000000,7.081769,12.302378,0.377554
1649345282.233401,12053.000000,1649345282.232997,0.000000,0.000000,1.000000,0.000000,0.000000,0.000000,0.000000,7.086772,12.300187,0.402583
1649345282.336014,12054.000000,1649345282.335231,0.000000,0.000000,1.000000,0.000000,0.000000,0.000000,0.000000,7.084896,12.304713,0.391754
1649345282.435999,12055.000000,1649345282.435157,0.000000,0.000000,1.000000,0.000000,0.000000,0.000000,0.000000,7.080888,12.310121,0.367507
1649345282.533240,12056.000000,1649345282.532795,0.000000,0.000000,1.000000,0.000000,0.000000,0.000000,0.000000,7.081420,12.310892,0.363494
1649345282.633540,12057.000000,1649345282.632897,0.000000,0.000000,1.000000,0.000000,0.000000,0.000000,0.000000,7.085157,12.308364,0.377298
1649345282.733033,12058.000000,1649345282.732761,0.000000,0.000000,1.000000,0.000000,0.000000,0.000000,0.000000,7.088643,12.303816,0.399309
1649345282.838709,12059.000000,1649345282.838152,0.000000,0.000000,1.000000,0.000000,0.000000,0.000000,0.000000,7.092973,12.298461,0.430777
1649345282.933792,12060.000000,1649345282.933402,0.000000,0.000000,1.000000,0.000000,0.000000,0.000000,0.000000,7.091550,12.298899,0.444660
1649345283.032991,12061.000000,1649345283.032615,0.000000,0.000000,1.000000,0.000000,0.000000,0.000000,0.000000,7.085784,12.304812,0.423910
1649345283.133342,12062.000000,1649345283.132990,0.000000,0.000000,1.000000,0.000000,0.000000,0.000000,0.000000,7.078115,12.312608,0.388514
1649345283.233067,12063.000000,1649345283.232697,0.000000,0.000000,1.000000,0.000000,0.000000,0.000000,0.000000,7.074125,12.315616,0.379452
1649345283.333850,12064.000000,1649345283.333284,0.000000,0.000000,1.000000,0.000000,0.000000,0.000000,0.000000,7.073627,12.316269,0.388425
1649345283.433433,12065.000000,1649345283.432930,0.000000,0.000000,1.000000,0.000000,0.000000,0.000000,0.000000,7.075341,12.315784,0.412273
1649345283.537596,12066.000000,1649345283.536396,0.000000,0.000000,1.000000,0.000000,0.000000,0.000000,0.000000,7.079141,12.314225,0.445521
1649345283.639391,12067.000000,1649345283.638291,0.000000,0.000000,1.000000,0.000000,0.000000,0.000000,0.000000,7.077268,12.319289,0.438546
1649345283.732995,12068.000000,1649345283.732417,0.000000,0.000000,1.000000,0.000000,0.000000,0.000000,0.000000,7.077672,12.320785,0.447827
1649345283.833012,12069.000000,1649345283.832698,0.000000,0.000000,1.000000,0.000000,0.000000,0.000000,0.000000,7.079138,12.319996,0.467860
1649345283.933675,12070.000000,1649345283.933047,0.000000,0.000000,1.000000,0.000000,0.000000,0.000000,0.000000,7.081602,12.318139,0.478831
1649345284.032639,12071.000000,1649345284.032389,0.000000,0.000000,1.000000,0.000000,0.000000,0.000000,0.000000,7.086094,12.315281,0.501255
1649345284.136220,12072.000000,1649345284.135364,0.000000,0.000000,1.000000,0.000000,0.000000,0.000000,0.000000,7.087038,12.316936,0.494319
1649345284.234209,12073.000000,1649345284.233320,0.000000,0.000000,1.000000,0.000000,0.000000,0.000000,0.000000,7.088988,12.317403,0.490678
1649345284.333145,12074.000000,1649345284.332848,0.000000,0.000000,1.000000,0.000000,0.000000,0.000000,0.000000,7.085343,12.322197,0.457958
1649345284.434078,12075.000000,1649345284.433568,0.000000,0.000000,1.000000,0.000000,0.000000,0.000000,0.000000,7.084054,12.322344,0.446586
1649345284.533782,12076.000000,1649345284.533269,0.000000,0.000000,1.000000,0.000000,0.000000,0.000000,0.000000,7.078456,12.326823,0.421051
1649345284.634865,12077.000000,1649345284.633855,0.000000,0.000000,1.000000,0.000000,0.000000,0.000000,0.000000,7.068801,12.335383,0.371487
1649345284.734725,12078.000000,1649345284.734253,0.000000,0.000000,1.000000,0.000000,0.000000,0.000000,0.000000,7.064065,12.339055,0.344917
1649345284.832447,12079.000000,1649345284.832258,0.000000,0.000000,1.000000,0.000000,0.000000,0.000000,0.000000,7.062902,12.339187,0.338844
1649345284.933580,12080.000000,1649345284.933200,0.000000,0.000000,1.000000,0.000000,0.000000,0.000000,0.000000,7.064029,12.337066,0.343580
1649345285.033595,12081.000000,1649345285.033219,0.000000,0.000000,1.000000,0.000000,0.000000,0.000000,0.000000,7.066223,12.333916,0.345773
1649345285.133296,12082.000000,1649345285.133015,0.000000,0.000000,1.000000,0.000000,0.000000,0.000000,0.000000,7.062876,12.336347,0.318100
1649345285.232984,12083.000000,1649345285.232689,0.000000,0.000000,1.000000,0.000000,0.000000,0.000000,0.000000,7.063021,12.335329,0.311810
1649345285.333519,12084.000000,1649345285.333194,0.000000,0.000000,1.000000,0.000000,0.000000,0.000000,0.000000,7.058833,12.338686,0.279273
1649345285.435088,12085.000000,1649345285.434125,0.000000,0.000000,1.000000,0.000000,0.000000,0.000000,0.000000,7.056010,12.338540,0.268371
1649345285.532943,12086.000000,1649345285.532599,0.000000,0.000000,1.000000,0.000000,0.000000,0.000000,0.000000,7.056665,12.333995,0.275017
1649345285.634877,12087.000000,1649345285.634477,0.000000,0.000000,1.000000,0.000000,0.000000,0.000000,0.000000,7.052972,12.337302,0.250907
1649345285.732652,12088.000000,1649345285.732352,0.000000,0.000000,1.000000,0.000000,0.000000,0.000000,0.000000,7.047355,12.341481,0.219087
1649345285.834027,12089.000000,1649345285.833459,0.000000,0.000000,1.000000,0.000000,0.000000,0.000000,0.000000,7.046478,12.341022,0.200882
1649345285.934763,12090.000000,1649345285.934235,0.000000,0.000000,1.000000,0.000000,0.000000,0.000000,0.000000,7.047899,12.337273,0.206248
1649345286.035302,12091.000000,1649345286.034267,0.000000,0.000000,1.000000,0.000000,0.000000,0.000000,0.000000,7.044943,12.340240,0.183409
1649345286.132837,12092.000000,1649345286.132409,0.000000,0.000000,1.000000,0.000000,0.000000,0.000000,0.000000,7.044396,12.338647,0.164176
1649345286.238892,12093.000000,1649345286.235210,0.000000,0.000000,1.000000,0.000000,0.000000,0.000000,0.000000,7.047215,12.334929,0.169392
1649345286.337303,12094.000000,1649345286.335891,0.000000,0.000000,1.000000,0.000000,0.000000,0.000000,0.000000,7.053204,12.330307,0.190793
1649345286.433602,12095.000000,1649345286.433308,0.000000,0.000000,1.000000,0.000000,0.000000,0.000000,0.000000,7.059988,12.322663,0.205099
1649345286.532813,12096.000000,1649345286.532501,0.000000,0.000000,1.000000,0.000000,0.000000,0.000000,0.000000,7.067500,12.312188,0.213368
1649345286.637282,12097.000000,1649345286.636189,0.000000,0.000000,1.000000,0.000000,0.000000,0.000000,0.000000,7.076767,12.302338,0.237597
1649345286.738506,12098.000000,1649345286.736716,0.000000,0.000000,1.000000,0.000000,0.000000,0.000000,0.000000,7.086575,12.292016,0.273868
1649345286.833174,12099.000000,1649345286.832747,0.000000,0.000000,1.000000,0.000000,0.000000,0.000000,0.000000,7.096866,12.281276,0.318403
1649345286.932635,12100.000000,1649345286.932356,0.000000,0.000000,1.000000,0.000000,0.000000,0.000000,0.000000,7.099952,12.278891,0.321599
1649345287.032502,12101.000000,1649345287.032243,0.000000,0.000000,1.000000,0.000000,0.000000,0.000000,0.000000,7.106037,12.274593,0.340763
1649345287.133282,12102.000000,1649345287.132753,0.000000,0.000000,1.000000,0.000000,0.000000,0.000000,0.000000,7.111671,12.269581,0.355058
1649345287.235131,12103.000000,1649345287.234048,0.000000,0.000000,1.000000,0.000000,0.000000,0.000000,0.000000,7.117960,12.262811,0.381595
1649345287.333888,12104.000000,1649345287.333441,0.000000,0.000000,1.000000,0.000000,0.000000,0.000000,0.000000,7.124856,12.254393,0.416613
1649345287.435414,12105.000000,1649345287.434376,0.000000,0.000000,1.000000,0.000000,0.000000,0.000000,0.000000,7.132311,12.246613,0.452459
1649345287.532874,12106.000000,1649345287.532469,0.000000,0.000000,1.000000,0.000000,0.000000,0.000000,0.000000,7.140280,12.237270,0.473722
1649345287.632987,12107.000000,1649345287.632606,0.000000,0.000000,1.000000,0.000000,0.000000,0.000000,0.000000,7.147631,12.228648,0.500320
1649345287.733258,12108.000000,1649345287.732742,0.000000,0.000000,1.000000,0.000000,0.000000,0.000000,0.000000,7.155474,12.220724,0.514261
1649345287.834781,12109.000000,1649345287.834126,0.000000,0.000000,1.000000,0.000000,0.000000,0.000000,0.000000,7.162679,12.213470,0.524915
1649345287.934339,12110.000000,1649345287.933618,0.000000,0.000000,1.000000,0.000000,0.000000,0.000000,0.000000,7.168180,12.206859,0.529183
1649345288.032869,12111.000000,1649345288.032421,0.000000,0.000000,1.000000,0.000000,0.000000,0.000000,0.000000,7.175337,12.201954,0.546685
1649345288.136430,12112.000000,1649345288.135673,0.000000,0.000000,1.000000,0.000000,0.000000,0.000000,0.000000,7.174235,12.206294,0.526062
1649345288.240636,12113.000000,1649345288.238978,0.000000,0.000000,1.000000,0.000000,0.000000,0.000000,0.000000,7.174066,12.208444,0.524545
1649345288.332939,12114.000000,1649345288.332597,0.000000,0.000000,1.000000,0.000000,0.000000,0.000000,0.000000,7.173701,12.208503,0.517185
1649345288.436981,12115.000000,1649345288.435373,0.000000,0.000000,1.000000,0.000000,0.000000,0.000000,0.000000,7.175344,12.208754,0.525209
1649345288.532634,12116.000000,1649345288.532361,0.000000,0.000000,1.000000,0.000000,0.000000,0.000000,0.000000,7.170169,12.216807,0.498798
1649345288.635479,12117.000000,1649345288.634730,0.000000,0.000000,1.000000,0.000000,0.000000,0.000000,0.000000,7.167298,12.220206,0.474880
1649345288.737006,12118.000000,1649345288.735881,0.000000,0.000000,1.000000,0.000000,0.000000,0.000000,0.000000,7.165533,12.222458,0.457434
1649345288.835814,12119.000000,1649345288.835114,0.000000,0.000000,1.000000,0.000000,0.000000,0.000000,0.000000,7.158284,12.232334,0.415591
1649345288.934835,12120.000000,1649345288.934304,0.000000,0.000000,1.000000,0.000000,0.000000,0.000000,0.000000,7.152424,12.238476,0.381053
1649345289.036881,12121.000000,1649345289.035460,0.000000,0.000000,1.000000,0.000000,0.000000,0.000000,0.000000,7.148990,12.242154,0.372941
1649345289.132915,12122.000000,1649345289.132719,0.000000,0.000000,1.000000,0.000000,0.000000,0.000000,0.000000,7.147867,12.243489,0.383751
1649345289.235641,12123.000000,1649345289.234660,0.000000,0.000000,1.000000,0.000000,0.000000,0.000000,0.000000,7.147844,12.243692,0.388505
1649345289.333147,12124.000000,1649345289.332950,0.000000,0.000000,1.000000,0.000000,0.000000,0.000000,0.000000,7.147774,12.241732,0.396310
1649345289.432867,12125.000000,1649345289.432499,0.000000,0.000000,1.000000,0.000000,0.000000,0.000000,0.000000,7.149843,12.239911,0.406223
1649345289.533756,12126.000000,1649345289.533215,0.000000,0.000000,1.000000,0.000000,0.000000,0.000000,0.000000,7.151751,12.238227,0.427819
1649345289.633414,12127.000000,1649345289.632899,0.000000,0.000000,1.000000,0.000000,0.000000,0.000000,0.000000,7.154593,12.236675,0.457366
1649345289.733457,12128.000000,1649345289.733140,0.000000,0.000000,1.000000,0.000000,0.000000,0.000000,0.000000,7.157222,12.234159,0.494494
1649345289.833349,12129.000000,1649345289.832673,0.000000,0.000000,1.000000,0.000000,0.000000,0.000000,0.000000,7.160735,12.229648,0.532388
1649345289.933531,12130.000000,1649345289.933140,0.000000,0.000000,1.000000,0.000000,0.000000,0.000000,0.000000,7.163987,12.224352,0.559669
1649345290.033968,12131.000000,1649345290.033426,0.000000,0.000000,1.000000,0.000000,0.000000,0.000000,0.000000,7.166984,12.219417,0.591244
1649345290.132675,12132.000000,1649345290.132419,0.000000,0.000000,1.000000,0.000000,0.000000,0.000000,0.000000,7.168647,12.214835,0.608348
1649345290.234398,12133.000000,1649345290.233418,0.000000,0.000000,1.000000,0.000000,0.000000,0.000000,0.000000,7.171227,12.210597,0.634129
1649345290.333268,12134.000000,1649345290.332845,0.000000,0.000000,1.000000,0.000000,0.000000,0.000000,0.000000,7.173580,12.206691,0.663367
1649345290.433599,12135.000000,1649345290.433113,0.000000,0.000000,1.000000,0.000000,0.000000,0.000000,0.000000,7.175718,12.203106,0.695888
1649345290.535197,12136.000000,1649345290.534435,0.000000,0.000000,1.000000,0.000000,0.000000,0.000000,0.000000,7.178740,12.199829,0.729908
1649345290.633986,12137.000000,1649345290.633725,0.000000,0.000000,1.000000,0.000000,0.000000,0.000000,0.000000,7.180413,12.197938,0.750809
1649345290.735578,12138.000000,1649345290.734081,0.000000,0.000000,1.000000,0.000000,0.000000,0.000000,0.000000,7.180810,12.197357,0.771202
1649345290.833139,12139.000000,1649345290.832804,0.000000,0.000000,1.000000,0.000000,0.000000,0.000000,0.000000,7.181096,12.198009,0.795930
1649345290.933423,12140.000000,1649345290.932973,0.000000,0.000000,1.000000,0.000000,0.000000,0.000000,0.000000,7.182372,12.197638,0.822378
1649345291.032940,12141.000000,1649345291.032713,0.000000,0.000000,1.000000,0.000000,0.000000,0.000000,0.000000,7.173680,12.206108,0.809324
1649345291.133392,12142.000000,1649345291.132958,0.000000,0.000000,1.000000,0.000000,0.000000,0.000000,0.000000,7.168680,12.210911,0.794695
1649345291.234245,12143.000000,1649345291.233405,0.000000,0.000000,1.000000,0.000000,0.000000,0.000000,0.000000,7.166100,12.213319,0.792310
1649345291.333651,12144.000000,1649345291.333195,0.000000,0.000000,1.000000,0.000000,0.000000,0.000000,0.000000,7.164727,12.214542,0.797665
1649345291.434398,12145.000000,1649345291.433819,0.000000,0.000000,1.000000,0.000000,0.000000,0.000000,0.000000,7.163412,12.214638,0.808038
1649345291.533195,12146.000000,1649345291.532922,0.000000,0.000000,1.000000,0.000000,0.000000,0.000000,0.000000,7.163245,12.213667,0.825646
1649345291.633219,12147.000000,1649345291.632859,0.000000,0.000000,1.000000,0.000000,0.000000,0.000000,0.000000,7.163077,12.213870,0.846152
1649345291.733345,12148.000000,1649345291.732859,0.000000,0.000000,1.000000,0.000000,0.000000,0.000000,0.000000,7.155275,12.221721,0.825068
1649345291.834984,12149.000000,1649345291.834321,0.000000,0.000000,1.000000,0.000000,0.000000,0.000000,0.000000,7.150093,12.226966,0.815736
1649345291.933371,12150.000000,1649345291.932950,0.000000,0.000000,1.000000,0.000000,0.000000,0.000000,0.000000,7.147405,12.229728,0.796749
1649345292.034518,12151.000000,1649345292.033996,0.000000,0.000000,1.000000,0.000000,0.000000,0.000000,0.000000,7.147082,12.231227,0.788703
1649345292.137509,12152.000000,1649345292.135922,0.000000,0.000000,1.000000,0.000000,0.000000,0.000000,0.000000,7.147902,12.232617,0.791183
1649345292.234934,12153.000000,1649345292.234511,0.000000,0.000000,1.000000,0.000000,0.000000,0.000000,0.000000,7.149800,12.231721,0.802968
1649345292.333833,12154.000000,1649345292.333320,0.000000,0.000000,1.000000,0.000000,0.000000,0.000000,0.000000,7.151617,12.230850,0.818028
1649345292.433492,12155.000000,1649345292.432961,0.000000,0.000000,1.000000,0.000000,0.000000,0.000000,0.000000,7.152262,12.231095,0.822508
1649345292.533182,12156.000000,1649345292.532885,0.000000,0.000000,1.000000,0.000000,0.000000,0.000000,0.000000,7.152885,12.230216,0.812000
1649345292.633269,12157.000000,1649345292.632908,0.000000,0.000000,1.000000,0.000000,0.000000,0.000000,0.000000,7.153485,12.228279,0.808913
1649345292.734358,12158.000000,1649345292.733515,0.000000,0.000000,1.000000,0.000000,0.000000,0.000000,0.000000,7.155151,12.226438,0.814576
1649345292.833216,12159.000000,1649345292.832850,0.000000,0.000000,1.000000,0.000000,0.000000,0.000000,0.000000,7.157819,12.223603,0.828639
1649345292.934996,12160.000000,1649345292.934243,0.000000,0.000000,1.000000,0.000000,0.000000,0.000000,0.000000,7.154884,12.228562,0.805586
1649345293.033632,12161.000000,1649345293.033251,0.000000,0.000000,1.000000,0.000000,0.000000,0.000000,0.000000,7.153203,12.236512,0.791320
1649345293.134701,12162.000000,1649345293.132803,0.000000,0.000000,1.000000,0.000000,0.000000,0.000000,0.000000,7.152712,12.242905,0.772615
1649345293.233254,12163.000000,1649345293.232921,0.000000,0.000000,1.000000,0.000000,0.000000,0.000000,0.000000,7.148987,12.253258,0.722270
1649345293.333330,12164.000000,1649345293.333034,0.000000,0.000000,1.000000,0.000000,0.000000,0.000000,0.000000,7.148756,12.267327,0.650522
1649345293.435497,12165.000000,1649345293.432767,0.000000,0.000000,1.000000,0.000000,0.000000,0.000000,0.000000,7.144197,12.283779,0.572874
1649345293.533360,12166.000000,1649345293.532984,0.000000,0.000000,1.000000,0.000000,0.000000,0.000000,0.000000,7.143191,12.293716,0.528402
1649345293.633446,12167.000000,1649345293.632971,0.000000,0.000000,1.000000,0.000000,0.000000,0.000000,0.000000,7.133552,12.294202,0.463416
1649345293.734435,12168.000000,1649345293.733876,0.000000,0.000000,1.000000,0.000000,0.000000,0.000000,0.000000,7.127772,12.293391,0.428034
1649345293.835296,12169.000000,1649345293.834430,0.000000,0.000000,1.000000,0.000000,0.000000,0.000000,0.000000,7.124565,12.290278,0.413044
1649345293.933841,12170.000000,1649345293.933329,0.000000,0.000000,1.000000,0.000000,0.000000,0.000000,0.000000,7.122707,12.287188,0.403921
1649345294.035105,12171.000000,1649345294.034532,0.000000,0.000000,1.000000,0.000000,0.000000,0.000000,0.000000,7.122124,12.281957,0.408492
1649345294.132890,12172.000000,1649345294.132639,0.000000,0.000000,1.000000,0.000000,0.000000,0.000000,0.000000,7.117294,12.283449,0.377792
1649345294.232736,12173.000000,1649345294.232227,0.000000,0.000000,1.000000,0.000000,0.000000,0.000000,0.000000,7.114999,12.283667,0.354407
1649345294.333738,12174.000000,1649345294.333276,0.000000,0.000000,1.000000,0.000000,0.000000,0.000000,0.000000,7.112922,12.282684,0.336450
1649345294.434331,12175.000000,1649345294.433247,0.000000,0.000000,1.000000,0.000000,0.000000,0.000000,0.000000,7.112144,12.279485,0.338231
1649345294.534606,12176.000000,1649345294.534070,0.000000,0.000000,1.000000,0.000000,0.000000,0.000000,0.000000,7.113682,12.275295,0.354093
1649345294.633841,12177.000000,1649345294.633385,0.000000,0.000000,1.000000,0.000000,0.000000,0.000000,0.000000,7.116307,12.269097,0.380196
1649345294.733235,12178.000000,1649345294.732820,0.000000,0.000000,1.000000,0.000000,0.000000,0.000000,0.000000,7.118858,12.264293,0.397519
1649345294.833102,12179.000000,1649345294.832851,0.000000,0.000000,1.000000,0.000000,0.000000,0.000000,0.000000,7.122418,12.258644,0.420887
1649345294.933124,12180.000000,1649345294.932842,0.000000,0.000000,1.000000,0.000000,0.000000,0.000000,0.000000,7.125826,12.252214,0.429846
1649345295.033414,12181.000000,1649345295.032934,0.000000,0.000000,1.000000,0.000000,0.000000,0.000000,0.000000,7.129077,12.246157,0.441077
1649345295.132654,12182.000000,1649345295.132394,0.000000,0.000000,1.000000,0.000000,0.000000,0.000000,0.000000,7.133259,12.240470,0.453657
1649345295.234482,12183.000000,1649345295.233785,0.000000,0.000000,1.000000,0.000000,0.000000,0.000000,0.000000,7.137216,12.234058,0.457016
1649345295.333793,12184.000000,1649345295.333427,0.000000,0.000000,1.000000,0.000000,0.000000,0.000000,0.000000,7.140947,12.225887,0.457160
1649345295.434094,12185.000000,1649345295.433247,0.000000,0.000000,1.000000,0.000000,0.000000,0.000000,0.000000,7.143365,12.220436,0.467922
1649345295.532944,12186.000000,1649345295.532405,0.000000,0.000000,1.000000,0.000000,0.000000,0.000000,0.000000,7.145623,12.215388,0.475139
1649345295.632727,12187.000000,1649345295.632390,0.000000,0.000000,1.000000,0.000000,0.000000,0.000000,0.000000,7.148816,12.210731,0.493454
1649345295.732528,12188.000000,1649345295.732229,0.000000,0.000000,1.000000,0.000000,0.000000,0.000000,0.000000,7.151794,12.207541,0.513514
1649345295.837348,12189.000000,1649345295.836107,0.000000,0.000000,1.000000,0.000000,0.000000,0.000000,0.000000,7.146930,12.213375,0.494887
1649345295.932639,12190.000000,1649345295.932390,0.000000,0.000000,1.000000,0.000000,0.000000,0.000000,0.000000,7.144481,12.217901,0.493198
1649345296.033989,12191.000000,1649345296.033465,0.000000,0.000000,1.000000,0.000000,0.000000,0.000000,0.000000,7.144326,12.218991,0.501311
1649345296.134364,12192.000000,1649345296.133744,0.000000,0.000000,1.000000,0.000000,0.000000,0.000000,0.000000,7.145251,12.219004,0.519622
1649345296.233056,12193.000000,1649345296.232720,0.000000,0.000000,1.000000,0.000000,0.000000,0.000000,0.000000,7.140653,12.224536,0.517849
1649345296.335925,12194.000000,1649345296.335228,0.000000,0.000000,1.000000,0.000000,0.000000,0.000000,0.000000,7.131939,12.235266,0.485513
1649345296.435569,12195.000000,1649345296.433772,0.000000,0.000000,1.000000,0.000000,0.000000,0.000000,0.000000,7.125903,12.241061,0.456965
1649345296.532752,12196.000000,1649345296.532459,0.000000,0.000000,1.000000,0.000000,0.000000,0.000000,0.000000,7.122418,12.244351,0.438550
1649345296.635745,12197.000000,1649345296.634882,0.000000,0.000000,1.000000,0.000000,0.000000,0.000000,0.000000,7.116990,12.252896,0.399240
1649345296.734347,12198.000000,1649345296.733570,0.000000,0.000000,1.000000,0.000000,0.000000,0.000000,0.000000,7.115193,12.256569,0.384294
1649345296.833434,12199.000000,1649345296.833060,0.000000,0.000000,1.000000,0.000000,0.000000,0.000000,0.000000,7.110288,12.264351,0.351617
1649345296.934051,12200.000000,1649345296.933530,0.000000,0.000000,1.000000,0.000000,0.000000,0.000000,0.000000,7.107908,12.267274,0.340681
1649345297.034012,12201.000000,1649345297.033476,0.000000,0.000000,1.000000,0.000000,0.000000,0.000000,0.000000,7.109009,12.267776,0.349003
1649345297.134206,12202.000000,1649345297.133666,0.000000,0.000000,1.000000,0.000000,0.000000,0.000000,0.000000,7.111212,12.267085,0.347556
1649345297.234169,12203.000000,1649345297.233408,0.000000,0.000000,1.000000,0.000000,0.000000,0.000000,0.000000,7.113356,12.266362,0.362533
1649345297.333676,12204.000000,1649345297.333226,0.000000,0.000000,1.000000,0.000000,0.000000,0.000000,0.000000,7.117615,12.264524,0.373075
1649345297.433329,12205.000000,1649345297.432855,0.000000,0.000000,1.000000,0.000000,0.000000,0.000000,0.000000,7.120586,12.261642,0.393850
1649345297.534395,12206.000000,1649345297.533848,0.000000,0.000000,1.000000,0.000000,0.000000,0.000000,0.000000,7.124508,12.258875,0.422791
1649345297.633595,12207.000000,1649345297.633036,0.000000,0.000000,1.000000,0.000000,0.000000,0.000000,0.000000,7.129317,12.254047,0.440158
1649345297.732349,12208.000000,1649345297.732116,0.000000,0.000000,1.000000,0.000000,0.000000,0.000000,0.000000,7.133857,12.248378,0.447193
1649345297.833385,12209.000000,1649345297.833008,0.000000,0.000000,1.000000,0.000000,0.000000,0.000000,0.000000,7.138129,12.241932,0.447524
1649345297.932938,12210.000000,1649345297.932715,0.000000,0.000000,1.000000,0.000000,0.000000,0.000000,0.000000,7.142136,12.235863,0.447870
1649345298.033674,12211.000000,1649345298.033100,0.000000,0.000000,1.000000,0.000000,0.000000,0.000000,0.000000,7.145882,12.232347,0.461133
1649345298.137694,12212.000000,1649345298.136037,0.000000,0.000000,1.000000,0.000000,0.000000,0.000000,0.000000,7.149371,12.230165,0.471445
1649345298.234671,12213.000000,1649345298.234271,0.000000,0.000000,1.000000,0.000000,0.000000,0.000000,0.000000,7.152609,12.228156,0.476489
1649345298.332909,12214.000000,1649345298.332612,0.000000,0.000000,1.000000,0.000000,0.000000,0.000000,0.000000,7.154513,12.225225,0.475662
1649345298.434165,12215.000000,1649345298.433835,0.000000,0.000000,1.000000,0.000000,0.000000,0.000000,0.000000,7.156244,12.223608,0.475656
1649345298.534135,12216.000000,1649345298.533896,0.000000,0.000000,1.000000,0.000000,0.000000,0.000000,0.000000,7.157811,12.219964,0.471598
1649345298.639375,12217.000000,1649345298.637510,0.000000,0.000000,1.000000,0.000000,0.000000,0.000000,0.000000,7.160310,12.216591,0.464467
1649345298.733788,12218.000000,1649345298.733294,0.000000,0.000000,1.000000,0.000000,0.000000,0.000000,0.000000,7.162598,12.212392,0.472141
1649345298.833845,12219.000000,1649345298.833398,0.000000,0.000000,1.000000,0.000000,0.000000,0.000000,0.000000,7.160321,12.216142,0.449655
1649345298.933873,12220.000000,1649345298.933486,0.000000,0.000000,1.000000,0.000000,0.000000,0.000000,0.000000,7.159193,12.217578,0.429715
1649345299.034079,12221.000000,1649345299.033251,0.000000,0.000000,1.000000,0.000000,0.000000,0.000000,0.000000,7.154795,12.224451,0.388864
1649345299.133710,12222.000000,1649345299.133422,0.000000,0.000000,1.000000,0.000000,0.000000,0.000000,0.000000,7.146233,12.235349,0.333657
1649345299.234618,12223.000000,1649345299.233983,0.000000,0.000000,1.000000,0.000000,0.000000,0.000000,0.000000,7.138126,12.245654,0.280889
1649345299.333426,12224.000000,1649345299.332954,0.000000,0.000000,1.000000,0.000000,0.000000,0.000000,0.000000,7.133745,12.252095,0.249899
1649345299.434918,12225.000000,1649345299.434237,0.000000,0.000000,1.000000,0.000000,0.000000,0.000000,0.000000,7.131810,12.253773,0.242266
1649345299.534456,12226.000000,1649345299.533710,0.000000,0.000000,1.000000,0.000000,0.000000,0.000000,0.000000,7.132192,12.253127,0.251405
1649345299.633261,12227.000000,1649345299.632943,0.000000,0.000000,1.000000,0.000000,0.000000,0.000000,0.000000,7.127130,12.257920,0.245157
1649345299.733621,12228.000000,1649345299.733181,0.000000,0.000000,1.000000,0.000000,0.000000,0.000000,0.000000,7.125657,12.259122,0.253980
1649345299.832495,12229.000000,1649345299.832229,0.000000,0.000000,1.000000,0.000000,0.000000,0.000000,0.000000,7.121038,12.265650,0.233689
1649345299.934592,12230.000000,1649345299.933785,0.000000,0.000000,1.000000,0.000000,0.000000,0.000000,0.000000,7.118909,12.267384,0.216933
1649345300.033230,12231.000000,1649345300.032839,0.000000,0.000000,1.000000,0.000000,0.000000,0.000000,0.000000,7.118046,12.266764,0.210037
1649345300.136222,12232.000000,1649345300.134684,0.000000,0.000000,1.000000,0.000000,0.000000,0.000000,0.000000,7.118379,12.263926,0.207763
1649345300.232839,12233.000000,1649345300.232607,0.000000,0.000000,1.000000,0.000000,0.000000,0.000000,0.000000,7.112207,12.268817,0.177658
1649345300.334151,12234.000000,1649345300.333134,0.000000,0.000000,1.000000,0.000000,0.000000,0.000000,0.000000,7.099900,12.279912,0.137816
1649345300.436095,12235.000000,1649345300.435087,0.000000,0.000000,1.000000,0.000000,0.000000,0.000000,0.000000,7.084008,12.294664,0.084652
1649345300.536107,12236.000000,1649345300.534684,0.000000,0.000000,1.000000,0.000000,0.000000,0.000000,0.000000,7.073493,12.304108,0.063131
1649345300.634179,12237.000000,1649345300.633780,0.000000,0.000000,1.000000,0.000000,0.000000,0.000000,0.000000,7.062634,12.317236,0.020381
1649345300.738067,12238.000000,1649345300.736780,0.000000,0.000000,1.000000,0.000000,0.000000,0.000000,0.000000,7.055837,12.324001,-0.009625
1649345300.833091,12239.000000,1649345300.832801,0.000000,0.000000,1.000000,0.000000,0.000000,0.000000,0.000000,7.052889,12.326921,-0.011243
1649345300.933525,12240.000000,1649345300.933071,0.000000,0.000000,1.000000,0.000000,0.000000,0.000000,0.000000,7.052488,12.327298,0.005490
1649345301.034453,12241.000000,1649345301.034104,0.000000,0.000000,1.000000,0.000000,0.000000,0.000000,0.000000,7.049033,12.331824,0.003492
1649345301.134269,12242.000000,1649345301.133298,0.000000,0.000000,1.000000,0.000000,0.000000,0.000000,0.000000,7.048141,12.334817,0.024632
1649345301.234266,12243.000000,1649345301.233958,0.000000,0.000000,1.000000,0.000000,0.000000,0.000000,0.000000,7.042033,12.341815,0.015500
1649345301.332412,12244.000000,1649345301.332150,0.000000,0.000000,1.000000,0.000000,0.000000,0.000000,0.000000,7.040813,12.343866,0.024896
1649345301.433387,12245.000000,1649345301.432852,0.000000,0.000000,1.000000,0.000000,0.000000,0.000000,0.000000,7.035485,12.352149,0.008491
1649345301.534149,12246.000000,1649345301.533650,0.000000,0.000000,1.000000,0.000000,0.000000,0.000000,0.000000,7.033912,12.355405,0.006852
1649345301.633576,12247.000000,1649345301.633208,0.000000,0.000000,1.000000,0.000000,0.000000,0.000000,0.000000,7.029341,12.362633,-0.020145
1649345301.734010,12248.000000,1649345301.733699,0.000000,0.000000,1.000000,0.000000,0.000000,0.000000,0.000000,7.028481,12.364884,-0.019029
1649345301.833063,12249.000000,1649345301.832753,0.000000,0.000000,1.000000,0.000000,0.000000,0.000000,0.000000,7.028940,12.365706,-0.016760
1649345301.932651,12250.000000,1649345301.932392,0.000000,0.000000,1.000000,0.000000,0.000000,0.000000,0.000000,7.031725,12.363005,0.006758
1649345302.032708,12251.000000,1649345302.032422,0.000000,0.000000,1.000000,0.000000,0.000000,0.000000,0.000000,7.036691,12.356994,0.037709
1649345302.133379,12252.000000,1649345302.132927,0.000000,0.000000,1.000000,0.000000,0.000000,0.000000,0.000000,7.043695,12.350063,0.080566
1649345302.235123,12253.000000,1649345302.234247,0.000000,0.000000,1.000000,0.000000,0.000000,0.000000,0.000000,7.043873,12.349926,0.088800
1649345302.333790,12254.000000,1649345302.333394,0.000000,0.000000,1.000000,0.000000,0.000000,0.000000,0.000000,7.040862,12.355131,0.068622
1649345302.435401,12255.000000,1649345302.434400,0.000000,0.000000,1.000000,0.000000,0.000000,0.000000,0.000000,7.041382,12.356654,0.072819
1649345302.534180,12256.000000,1649345302.533861,0.000000,0.000000,1.000000,0.000000,0.000000,0.000000,0.000000,7.038691,12.361240,0.056845
1649345302.634288,12257.000000,1649345302.633742,0.000000,0.000000,1.000000,0.000000,0.000000,0.000000,0.000000,7.032968,12.369806,0.020728
1649345302.732668,12258.000000,1649345302.732396,0.000000,0.000000,1.000000,0.000000,0.000000,0.000000,0.000000,7.033113,12.372301,0.016140
1649345302.834289,12259.000000,1649345302.833844,0.000000,0.000000,1.000000,0.000000,0.000000,0.000000,0.000000,7.034439,12.372329,0.032130
1649345302.933195,12260.000000,1649345302.932862,0.000000,0.000000,1.000000,0.000000,0.000000,0.000000,0.000000,7.031420,12.375485,0.018638
1649345303.032548,12261.000000,1649345303.032359,0.000000,0.000000,1.000000,0.000000,0.000000,0.000000,0.000000,7.029749,12.375054,0.012352
1649345303.134909,12262.000000,1649345303.134079,0.000000,0.000000,1.000000,0.000000,0.000000,0.000000,0.000000,7.027171,12.377783,-0.007179
1649345303.234246,12263.000000,1649345303.233473,0.000000,0.000000,1.000000,0.000000,0.000000,0.000000,0.000000,7.020467,12.384591,-0.045042
1649345303.333696,12264.000000,1649345303.333315,0.000000,0.000000,1.000000,0.000000,0.000000,0.000000,0.000000,7.013150,12.390879,-0.079475
1649345303.433649,12265.000000,1649345303.433072,0.000000,0.000000,1.000000,0.000000,0.000000,0.000000,0.000000,7.005268,12.397754,-0.109765
1649345303.532581,12266.000000,1649345303.532402,0.000000,0.000000,1.000000,0.000000,0.000000,0.000000,0.000000,7.003413,12.399722,-0.108622
1649345303.632978,12267.000000,1649345303.632707,0.000000,0.000000,1.000000,0.000000,0.000000,0.000000,0.000000,7.005073,12.397052,-0.083781
1649345303.734378,12268.000000,1649345303.733540,0.000000,0.000000,1.000000,0.000000,0.000000,0.000000,0.000000,7.008952,12.391106,-0.062869
1649345303.832801,12269.000000,1649345303.832538,0.000000,0.000000,1.000000,0.000000,0.000000,0.000000,0.000000,7.017091,12.382090,-0.026419
1649345303.933021,12270.000000,1649345303.932675,0.000000,0.000000,1.000000,0.000000,0.000000,0.000000,0.000000,7.027045,12.371297,0.007933
1649345304.032871,12271.000000,1649345304.032617,0.000000,0.000000,1.000000,0.000000,0.000000,0.000000,0.000000,7.038680,12.358862,0.053917
1649345304.133524,12272.000000,1649345304.132827,0.000000,0.000000,1.000000,0.000000,0.000000,0.000000,0.000000,7.050773,12.344918,0.109368
1649345304.238664,12273.000000,1649345304.237306,0.000000,0.000000,1.000000,0.000000,0.000000,0.000000,0.000000,7.063263,12.331770,0.171390
1649345304.336912,12274.000000,1649345304.336174,0.000000,0.000000,1.000000,0.000000,0.000000,0.000000,0.000000,7.076090,12.318326,0.232357
1649345304.433001,12275.000000,1649345304.432570,0.000000,0.000000,1.000000,0.000000,0.000000,0.000000,0.000000,7.088110,12.304638,0.297862
1649345304.532311,12276.000000,1649345304.532152,0.000000,0.000000,1.000000,0.000000,0.000000,0.000000,0.000000,7.099334,12.291848,0.363588
1649345304.635414,12277.000000,1649345304.634495,0.000000,0.000000,1.000000,0.000000,0.000000,0.000000,0.000000,7.109779,12.279936,0.414914
1649345304.732598,12278.000000,1649345304.732305,0.000000,0.000000,1.000000,0.000000,0.000000,0.000000,0.000000,7.119464,12.267794,0.450741
1649345304.832869,12279.000000,1649345304.832600,0.000000,0.000000,1.000000,0.000000,0.000000,0.000000,0.000000,7.129501,12.255458,0.491009
1649345304.932825,12280.000000,1649345304.932579,0.000000,0.000000,1.000000,0.000000,0.000000,0.000000,0.000000,7.138762,12.245146,0.537914
1649345305.033992,12281.000000,1649345305.033244,0.000000,0.000000,1.000000,0.000000,0.000000,0.000000,0.000000,7.147273,12.236764,0.588715
1649345305.134634,12282.000000,1649345305.133760,0.000000,0.000000,1.000000,0.000000,0.000000,0.000000,0.000000,7.155061,12.230219,0.641585
1649345305.233407,12283.000000,1649345305.232931,0.000000,0.000000,1.000000,0.000000,0.000000,0.000000,0.000000,7.154524,12.231955,0.647993
1649345305.334657,12284.000000,1649345305.334047,0.000000,0.000000,1.000000,0.000000,0.000000,0.000000,0.000000,7.154856,12.231687,0.667092
1649345305.435771,12285.000000,1649345305.435234,0.000000,0.000000,1.000000,0.000000,0.000000,0.000000,0.000000,7.157114,12.230599,0.694339
1649345305.533427,12286.000000,1649345305.532946,0.000000,0.000000,1.000000,0.000000,0.000000,0.000000,0.000000,7.159017,12.227633,0.721325
1649345305.632816,12287.000000,1649345305.632475,0.000000,0.000000,1.000000,0.000000,0.000000,0.000000,0.000000,7.162774,12.225069,0.754500
1649345305.733008,12288.000000,1649345305.732705,0.000000,0.000000,1.000000,0.000000,0.000000,0.000000,0.000000,7.158472,12.230511,0.744398
1649345305.834980,12289.000000,1649345305.834551,0.000000,0.000000,1.000000,0.000000,0.000000,0.000000,0.000000,7.157478,12.232588,0.748459
1649345305.933334,12290.000000,1649345305.932733,0.000000,0.000000,1.000000,0.000000,0.000000,0.000000,0.000000,7.158538,12.231467,0.759686
1649345306.034548,12291.000000,1649345306.034256,0.000000,0.000000,1.000000,0.000000,0.000000,0.000000,0.000000,7.159366,12.230584,0.763286
1649345306.133775,12292.000000,1649345306.133092,0.000000,0.000000,1.000000,0.000000,0.000000,0.000000,0.000000,7.161072,12.228829,0.775719
1649345306.233292,12293.000000,1649345306.232820,0.000000,0.000000,1.000000,0.000000,0.000000,0.000000,0.000000,7.163613,12.226246,0.779703
1649345306.335140,12294.000000,1649345306.334296,0.000000,0.000000,1.000000,0.000000,0.000000,0.000000,0.000000,7.165853,12.223968,0.794148
1649345306.432962,12295.000000,1649345306.432621,0.000000,0.000000,1.000000,0.000000,0.000000,0.000000,0.000000,7.168904,12.219795,0.814605
1649345306.534675,12296.000000,1649345306.533830,0.000000,0.000000,1.000000,0.000000,0.000000,0.000000,0.000000,7.171628,12.214925,0.838405
1649345306.643945,12297.000000,1649345306.638442,0.000000,0.000000,1.000000,0.000000,0.000000,0.000000,0.000000,7.175135,12.209402,0.862981
1649345306.733830,12298.000000,1649345306.733415,0.000000,0.000000,1.000000,0.000000,0.000000,0.000000,0.000000,7.178291,12.205450,0.890709
1649345306.832817,12299.000000,1649345306.832529,0.000000,0.000000,1.000000,0.000000,0.000000,0.000000,0.000000,7.181113,12.200804,0.919024
1649345306.934367,12300.000000,1649345306.933707,0.000000,0.000000,1.000000,0.000000,0.000000,0.000000,0.000000,7.183621,12.196596,0.946273
1649345307.033269,12301.000000,1649345307.032852,0.000000,0.000000,1.000000,0.000000,0.000000,0.000000,0.000000,7.185832,12.192806,0.974095
1649345307.133729,12302.000000,1649345307.133264,0.000000,0.000000,1.000000,0.000000,0.000000,0.000000,0.000000,7.187766,12.189411,1.001645
1649345307.233443,12303.000000,1649345307.233061,0.000000,0.000000,1.000000,0.000000,0.000000,0.000000,0.000000,7.189440,12.186391,1.020856
1649345307.334243,12304.000000,1649345307.333742,0.000000,0.000000,1.000000,0.000000,0.000000,0.000000,0.000000,7.191962,12.184812,1.031256
1649345307.434220,12305.000000,1649345307.433609,0.000000,0.000000,1.000000,0.000000,0.000000,0.000000,0.000000,7.194197,12.183502,1.046119
1649345307.533653,12306.000000,1649345307.533208,0.000000,0.000000,1.000000,0.000000,0.000000,0.000000,0.000000,7.195071,12.182438,1.049950
1649345307.636760,12307.000000,1649345307.635868,0.000000,0.000000,1.000000,0.000000,0.000000,0.000000,0.000000,7.194665,12.181600,1.043218
1649345307.734077,12308.000000,1649345307.732592,0.000000,0.000000,1.000000,0.000000,0.000000,0.000000,0.000000,7.195239,12.180970,1.043327
1649345307.834270,12309.000000,1649345307.833690,0.000000,0.000000,1.000000,0.000000,0.000000,0.000000,0.000000,7.195654,12.179438,1.028256
1649345307.933385,12310.000000,1649345307.932910,0.000000,0.000000,1.000000,0.000000,0.000000,0.000000,0.000000,7.190473,12.185772,0.978508
1649345308.034161,12311.000000,1649345308.033388,0.000000,0.000000,1.000000,0.000000,0.000000,0.000000,0.000000,7.187657,12.190792,0.948817
1649345308.134152,12312.000000,1649345308.133131,0.000000,0.000000,1.000000,0.000000,0.000000,0.000000,0.000000,7.184912,12.193457,0.915865
1649345308.233905,12313.000000,1649345308.233361,0.000000,0.000000,1.000000,0.000000,0.000000,0.000000,0.000000,7.183336,12.194970,0.890342
1649345308.333435,12314.000000,1649345308.332799,0.000000,0.000000,1.000000,0.000000,0.000000,0.000000,0.000000,7.183966,12.195386,0.876843
1649345308.433685,12315.000000,1649345308.433108,0.000000,0.000000,1.000000,0.000000,0.000000,0.000000,0.000000,7.183413,12.194758,0.856372
1649345308.538305,12316.000000,1649345308.537652,0.000000,0.000000,1.000000,0.000000,0.000000,0.000000,0.000000,7.183925,12.192050,0.846998
1649345308.636001,12317.000000,1649345308.635118,0.000000,0.000000,1.000000,0.000000,0.000000,0.000000,0.000000,7.184357,12.189562,0.825716
1649345308.733854,12318.000000,1649345308.733404,0.000000,0.000000,1.000000,0.000000,0.000000,0.000000,0.000000,7.183624,12.187285,0.805955
1649345308.833016,12319.000000,1649345308.832746,0.000000,0.000000,1.000000,0.000000,0.000000,0.000000,0.000000,7.175253,12.195024,0.753015
1649345308.933907,12320.000000,1649345308.933443,0.000000,0.000000,1.000000,0.000000,0.000000,0.000000,0.000000,7.168411,12.202391,0.720747
1649345309.034305,12321.000000,1649345309.033799,0.000000,0.000000,1.000000,0.000000,0.000000,0.000000,0.000000,7.156495,12.215923,0.660791
1649345309.134975,12322.000000,1649345309.134125,0.000000,0.000000,1.000000,0.000000,0.000000,0.000000,0.000000,7.146363,12.227606,0.610655
1649345309.232976,12323.000000,1649345309.232714,0.000000,0.000000,1.000000,0.000000,0.000000,0.000000,0.000000,7.133583,12.242959,0.551473
1649345309.335946,12324.000000,1649345309.335047,0.000000,0.000000,1.000000,0.000000,0.000000,0.000000,0.000000,7.124879,12.254102,0.515959
1649345309.432545,12325.000000,1649345309.432274,0.000000,0.000000,1.000000,0.000000,0.000000,0.000000,0.000000,7.118959,12.261237,0.482238
1649345309.534564,12326.000000,1649345309.533789,0.000000,0.000000,1.000000,0.000000,0.000000,0.000000,0.000000,7.108051,12.273290,0.442215
1649345309.633125,12327.000000,1649345309.632818,0.000000,0.000000,1.000000,0.000000,0.000000,0.000000,0.000000,7.101175,12.283421,0.426033
1649345309.734022,12328.000000,1649345309.733387,0.000000,0.000000,1.000000,0.000000,0.000000,0.000000,0.000000,7.092672,12.294985,0.390806
1649345309.833191,12329.000000,1649345309.832886,0.000000,0.000000,1.000000,0.000000,0.000000,0.000000,0.000000,7.087009,12.302425,0.357501
1649345309.938810,12330.000000,1649345309.935044,0.000000,0.000000,1.000000,0.000000,0.000000,0.000000,0.000000,7.084036,12.305956,0.330915
1649345310.033738,12331.000000,1649345310.033369,0.000000,0.000000,1.000000,0.000000,0.000000,0.000000,0.000000,7.081426,12.306885,0.324511
1649345310.134277,12332.000000,1649345310.133970,0.000000,0.000000,1.000000,0.000000,0.000000,0.000000,0.000000,7.081334,12.305361,0.313268
1649345310.235935,12333.000000,1649345310.234990,0.000000,0.000000,1.000000,0.000000,0.000000,0.000000,0.000000,7.077072,12.309171,0.278828
1649345310.333351,12334.000000,1649345310.332959,0.000000,0.000000,1.000000,0.000000,0.000000,0.000000,0.000000,7.077591,12.309299,0.268131
1649345310.436109,12335.000000,1649345310.434761,0.000000,0.000000,1.000000,0.000000,0.000000,0.000000,0.000000,7.071715,12.315771,0.231018
1649345310.534981,12336.000000,1649345310.534540,0.000000,0.000000,1.000000,0.000000,0.000000,0.000000,0.000000,7.063073,12.326052,0.173433
1649345310.633786,12337.000000,1649345310.633236,0.000000,0.000000,1.000000,0.000000,0.000000,0.000000,0.000000,7.054011,12.337731,0.106756
1649345310.734831,12338.000000,1649345310.734003,0.000000,0.000000,1.000000,0.000000,0.000000,0.000000,0.000000,7.048931,12.343078,0.068536
1649345310.833335,12339.000000,1649345310.832848,0.000000,0.000000,1.000000,0.000000,0.000000,0.000000,0.000000,7.048711,12.345704,0.059270
1649345310.934678,12340.000000,1649345310.933516,0.000000,0.000000,1.000000,0.000000,0.000000,0.000000,0.000000,7.050892,12.344673,0.070515
1649345311.032869,12341.000000,1649345311.032387,0.000000,0.000000,1.000000,0.000000,0.000000,0.000000,0.000000,7.055325,12.342384,0.095748
1649345311.133895,12342.000000,1649345311.133242,0.000000,0.000000,1.000000,0.000000,0.000000,0.000000,0.000000,7.060773,12.336743,0.111750
1649345311.232985,12343.000000,1649345311.232539,0.000000,0.000000,1.000000,0.000000,0.000000,0.000000,0.000000,7.059519,12.338867,0.096259
1649345311.333284,12344.000000,1649345311.332864,0.000000,0.000000,1.000000,0.000000,0.000000,0.000000,0.000000,7.060649,12.342885,0.096511
1649345311.432534,12345.000000,1649345311.432382,0.000000,0.000000,1.000000,0.000000,0.000000,0.000000,0.000000,7.062931,12.344328,0.115880
1649345311.532487,12346.000000,1649345311.532226,0.000000,0.000000,1.000000,0.000000,0.000000,0.000000,0.000000,7.066288,12.342253,0.132570
1649345311.633445,12347.000000,1649345311.633078,0.000000,0.000000,1.000000,0.000000,0.000000,0.000000,0.000000,7.065192,12.343409,0.129703
1649345311.736200,12348.000000,1649345311.735489,0.000000,0.000000,1.000000,0.000000,0.000000,0.000000,0.000000,7.058794,12.348717,0.101601
1649345311.834519,12349.000000,1649345311.833762,0.000000,0.000000,1.000000,0.000000,0.000000,0.000000,0.000000,7.056121,12.348127,0.083986
1649345311.935081,12350.000000,1649345311.934158,0.000000,0.000000,1.000000,0.000000,0.000000,0.000000,0.000000,7.050429,12.351787,0.043381
1649345312.032888,12351.000000,1649345312.032421,0.000000,0.000000,1.000000,0.000000,0.000000,0.000000,0.000000,7.041896,12.359461,-0.009561
1649345312.135486,12352.000000,1649345312.134937,0.000000,0.000000,1.000000,0.000000,0.000000,0.000000,0.000000,7.038328,12.362191,-0.031535
1649345312.232920,12353.000000,1649345312.232622,0.000000,0.000000,1.000000,0.000000,0.000000,0.000000,0.000000,7.037277,12.360248,-0.046358
1649345312.340897,12354.000000,1649345312.337405,0.000000,0.000000,1.000000,0.000000,0.000000,0.000000,0.000000,7.039692,12.354993,-0.034964
1649345312.434414,12355.000000,1649345312.433453,0.000000,0.000000,1.000000,0.000000,0.000000,0.000000,0.000000,7.035555,12.356445,-0.045229
1649345312.532783,12356.000000,1649345312.532359,0.000000,0.000000,1.000000,0.000000,0.000000,0.000000,0.000000,7.035043,12.355516,-0.031932
1649345312.633208,12357.000000,1649345312.632845,0.000000,0.000000,1.000000,0.000000,0.000000,0.000000,0.000000,7.037951,12.351257,-0.017037
1649345312.733250,12358.000000,1649345312.732841,0.000000,0.000000,1.000000,0.000000,0.000000,0.000000,0.000000,7.041898,12.346050,0.010634
1649345312.834948,12359.000000,1649345312.834554,0.000000,0.000000,1.000000,0.000000,0.000000,0.000000,0.000000,7.047897,12.338877,0.048082
1649345312.933416,12360.000000,1649345312.932945,0.000000,0.000000,1.000000,0.000000,0.000000,0.000000,0.000000,7.055814,12.328781,0.092411
1649345313.034110,12361.000000,1649345313.033397,0.000000,0.000000,1.000000,0.000000,0.000000,0.000000,0.000000,7.063335,12.320318,0.140836
1649345313.132723,12362.000000,1649345313.132348,0.000000,0.000000,1.000000,0.000000,0.000000,0.000000,0.000000,7.071545,12.311245,0.194713
1649345313.234353,12363.000000,1649345313.233852,0.000000,0.000000,1.000000,0.000000,0.000000,0.000000,0.000000,7.079291,12.300532,0.235982
1649345313.334870,12364.000000,1649345313.334141,0.000000,0.000000,1.000000,0.000000,0.000000,0.000000,0.000000,7.087665,12.289390,0.285241
1649345313.433562,12365.000000,1649345313.432825,0.000000,0.000000,1.000000,0.000000,0.000000,0.000000,0.000000,7.095518,12.278964,0.323538
1649345313.534823,12366.000000,1649345313.534221,0.000000,0.000000,1.000000,0.000000,0.000000,0.000000,0.000000,7.102858,12.269240,0.364156
1649345313.633473,12367.000000,1649345313.632914,0.000000,0.000000,1.000000,0.000000,0.000000,0.000000,0.000000,7.109693,12.260204,0.407747
1649345313.734063,12368.000000,1649345313.733568,0.000000,0.000000,1.000000,0.000000,0.000000,0.000000,0.000000,7.109495,12.260560,0.408966
1649345313.835218,12369.000000,1649345313.834290,0.000000,0.000000,1.000000,0.000000,0.000000,0.000000,0.000000,7.111377,12.259972,0.424368
1649345313.933206,12370.000000,1649345313.932774,0.000000,0.000000,1.000000,0.000000,0.000000,0.000000,0.000000,7.114135,12.256304,0.444497
1649345314.039868,12371.000000,1649345314.039521,0.000000,0.000000,1.000000,0.000000,0.000000,0.000000,0.000000,7.118810,12.251905,0.473981
1649345314.133271,12372.000000,1649345314.132740,0.000000,0.000000,1.000000,0.000000,0.000000,0.000000,0.000000,7.124199,12.246820,0.510792
1649345314.234115,12373.000000,1649345314.233562,0.000000,0.000000,1.000000,0.000000,0.000000,0.000000,0.000000,7.123711,12.247637,0.523941
1649345314.336268,12374.000000,1649345314.335477,0.000000,0.000000,1.000000,0.000000,0.000000,0.000000,0.000000,7.125307,12.245296,0.549056
1649345314.433654,12375.000000,1649345314.433150,0.000000,0.000000,1.000000,0.000000,0.000000,0.000000,0.000000,7.128877,12.241060,0.579984
1649345314.535026,12376.000000,1649345314.534340,0.000000,0.000000,1.000000,0.000000,0.000000,0.000000,0.000000,7.132128,12.237216,0.603551
1649345314.634816,12377.000000,1649345314.633707,0.000000,0.000000,1.000000,0.000000,0.000000,0.000000,0.000000,7.136164,12.232655,0.633745
1649345314.733183,12378.000000,1649345314.732828,0.000000,0.000000,1.000000,0.000000,0.000000,0.000000,0.000000,7.140937,12.227421,0.656558
1649345314.835690,12379.000000,1649345314.835162,0.000000,0.000000,1.000000,0.000000,0.000000,0.000000,0.000000,7.145310,12.221559,0.666626
1649345314.933342,12380.000000,1649345314.932923,0.000000,0.000000,1.000000,0.000000,0.000000,0.000000,0.000000,7.149299,12.215109,0.675757
1649345315.033320,12381.000000,1649345315.032838,0.000000,0.000000,1.000000,0.000000,0.000000,0.000000,0.000000,7.154010,12.210295,0.694481
1649345315.132804,12382.000000,1649345315.132627,0.000000,0.000000,1.000000,0.000000,0.000000,0.000000,0.000000,7.160489,12.205941,0.715949
1649345315.233336,12383.000000,1649345315.232869,0.000000,0.000000,1.000000,0.000000,0.000000,0.000000,0.000000,7.166448,12.202025,0.743263
1649345315.333100,12384.000000,1649345315.332610,0.000000,0.000000,1.000000,0.000000,0.000000,0.000000,0.000000,7.172995,12.197432,0.772131
1649345315.433301,12385.000000,1649345315.432959,0.000000,0.000000,1.000000,0.000000,0.000000,0.000000,0.000000,7.178998,12.194384,0.804079
1649345315.532958,12386.000000,1649345315.532704,0.000000,0.000000,1.000000,0.000000,0.000000,0.000000,0.000000,7.183388,12.191704,0.821211
1649345315.633569,12387.000000,1649345315.633038,0.000000,0.000000,1.000000,0.000000,0.000000,0.000000,0.000000,7.186251,12.190458,0.831381
1649345315.732905,12388.000000,1649345315.732560,0.000000,0.000000,1.000000,0.000000,0.000000,0.000000,0.000000,7.188763,12.187290,0.834877
1649345315.833812,12389.000000,1649345315.833372,0.000000,0.000000,1.000000,0.000000,0.000000,0.000000,0.000000,7.190945,12.184485,0.831988
1649345315.936219,12390.000000,1649345315.935375,0.000000,0.000000,1.000000,0.000000,0.000000,0.000000,0.000000,7.192821,12.183111,0.839938
1649345316.032498,12391.000000,1649345316.032224,0.000000,0.000000,1.000000,0.000000,0.000000,0.000000,0.000000,7.195502,12.180903,0.853462
1649345316.135351,12392.000000,1649345316.134181,0.000000,0.000000,1.000000,0.000000,0.000000,0.000000,0.000000,7.190223,12.187715,0.825560
1649345316.234584,12393.000000,1649345316.233869,0.000000,0.000000,1.000000,0.000000,0.000000,0.000000,0.000000,7.186168,12.193213,0.813619
1649345316.335208,12394.000000,1649345316.334038,0.000000,0.000000,1.000000,0.000000,0.000000,0.000000,0.000000,7.184383,12.195260,0.800907
1649345316.435475,12395.000000,1649345316.434218,0.000000,0.000000,1.000000,0.000000,0.000000,0.000000,0.000000,7.182576,12.196211,0.781044
1649345316.532779,12396.000000,1649345316.532461,0.000000,0.000000,1.000000,0.000000,0.000000,0.000000,0.000000,7.181851,12.198300,0.760820
1649345316.633215,12397.000000,1649345316.632886,0.000000,0.000000,1.000000,0.000000,0.000000,0.000000,0.000000,7.181068,12.199269,0.738686
1649345316.737654,12398.000000,1649345316.736409,0.000000,0.000000,1.000000,0.000000,0.000000,0.000000,0.000000,7.180238,12.198083,0.730899
1649345316.834389,12399.000000,1649345316.833996,0.000000,0.000000,1.000000,0.000000,0.000000,0.000000,0.000000,7.180461,12.197038,0.735291
1649345316.933393,12400.000000,1649345316.932979,0.000000,0.000000,1.000000,0.000000,0.000000,0.000000,0.000000,7.181685,12.196126,0.747342
1649345317.034392,12401.000000,1649345317.033739,0.000000,0.000000,1.000000,0.000000,0.000000,0.000000,0.000000,7.182764,12.195337,0.765118
1649345317.134176,12402.000000,1649345317.133471,0.000000,0.000000,1.000000,0.000000,0.000000,0.000000,0.000000,7.182618,12.193574,0.777080
1649345317.234817,12403.000000,1649345317.234115,0.000000,0.000000,1.000000,0.000000,0.000000,0.000000,0.000000,7.183499,12.190889,0.795549
1649345317.333217,12404.000000,1649345317.332903,0.000000,0.000000,1.000000,0.000000,0.000000,0.000000,0.000000,7.184262,12.188429,0.817822
1649345317.432710,12405.000000,1649345317.432384,0.000000,0.000000,1.000000,0.000000,0.000000,0.000000,0.000000,7.184915,12.186185,0.841302
1649345317.534677,12406.000000,1649345317.534201,0.000000,0.000000,1.000000,0.000000,0.000000,0.000000,0.000000,7.185465,12.184146,0.865108
1649345317.632589,12407.000000,1649345317.632269,0.000000,0.000000,1.000000,0.000000,0.000000,0.000000,0.000000,7.184831,12.182303,0.874683
1649345317.734785,12408.000000,1649345317.733864,0.000000,0.000000,1.000000,0.000000,0.000000,0.000000,0.000000,7.185263,12.181737,0.886730
1649345317.833311,12409.000000,1649345317.832865,0.000000,0.000000,1.000000,0.000000,0.000000,0.000000,0.000000,7.185615,12.181285,0.902757
1649345317.932956,12410.000000,1649345317.932652,0.000000,0.000000,1.000000,0.000000,0.000000,0.000000,0.000000,7.185893,12.179846,0.912108
1649345318.033317,12411.000000,1649345318.032984,0.000000,0.000000,1.000000,0.000000,0.000000,0.000000,0.000000,7.185014,12.178566,0.907794
1649345318.134589,12412.000000,1649345318.133785,0.000000,0.000000,1.000000,0.000000,0.000000,0.000000,0.000000,7.183045,12.178524,0.911358
1649345318.233559,12413.000000,1649345318.233010,0.000000,0.000000,1.000000,0.000000,0.000000,0.000000,0.000000,7.181146,12.178559,0.920072
1649345318.333221,12414.000000,1649345318.332858,0.000000,0.000000,1.000000,0.000000,0.000000,0.000000,0.000000,7.172779,12.186295,0.899050
1649345318.433214,12415.000000,1649345318.432754,0.000000,0.000000,1.000000,0.000000,0.000000,0.000000,0.000000,7.159414,12.200194,0.844704
1649345318.532714,12416.000000,1649345318.532473,0.000000,0.000000,1.000000,0.000000,0.000000,0.000000,0.000000,7.150089,12.212241,0.810899
1649345318.637716,12417.000000,1649345318.636038,0.000000,0.000000,1.000000,0.000000,0.000000,0.000000,0.000000,7.143521,12.221408,0.793649
1649345318.733495,12418.000000,1649345318.732870,0.000000,0.000000,1.000000,0.000000,0.000000,0.000000,0.000000,7.139576,12.228917,0.789901
1649345318.834080,12419.000000,1649345318.833717,0.000000,0.000000,1.000000,0.000000,0.000000,0.000000,0.000000,7.131576,12.241381,0.749122
1649345318.935667,12420.000000,1649345318.934029,0.000000,0.000000,1.000000,0.000000,0.000000,0.000000,0.000000,7.118672,12.256314,0.684166
1649345319.033936,12421.000000,1649345319.033150,0.000000,0.000000,1.000000,0.000000,0.000000,0.000000,0.000000,7.110978,12.264820,0.646120
1649345319.133329,12422.000000,1649345319.132961,0.000000,0.000000,1.000000,0.000000,0.000000,0.000000,0.000000,7.107137,12.270502,0.625088
1649345319.232799,12423.000000,1649345319.232438,0.000000,0.000000,1.000000,0.000000,0.000000,0.000000,0.000000,7.097127,12.282229,0.577671
1649345319.333173,12424.000000,1649345319.332792,0.000000,0.000000,1.000000,0.000000,0.000000,0.000000,0.000000,7.092211,12.290924,0.555006
1649345319.435886,12425.000000,1649345319.435179,0.000000,0.000000,1.000000,0.000000,0.000000,0.000000,0.000000,7.089935,12.295644,0.547251
1649345319.533316,12426.000000,1649345319.533015,0.000000,0.000000,1.000000,0.000000,0.000000,0.000000,0.000000,7.090151,12.297697,0.551388
1649345319.633487,12427.000000,1649345319.633009,0.000000,0.000000,1.000000,0.000000,0.000000,0.000000,0.000000,7.092712,12.298325,0.565304
1649345319.734997,12428.000000,1649345319.734242,0.000000,0.000000,1.000000,0.000000,0.000000,0.000000,0.000000,7.089840,12.304157,0.547442
1649345319.833669,12429.000000,1649345319.833212,0.000000,0.000000,1.000000,0.000000,0.000000,0.000000,0.000000,7.087282,12.308363,0.540232
1649345319.932498,12430.000000,1649345319.932226,0.000000,0.000000,1.000000,0.000000,0.000000,0.000000,0.000000,7.086110,12.308849,0.527923
1649345320.033611,12431.000000,1649345320.033077,0.000000,0.000000,1.000000,0.000000,0.000000,0.000000,0.000000,7.081882,12.313463,0.492990
1649345320.134334,12432.000000,1649345320.133318,0.000000,0.000000,1.000000,0.000000,0.000000,0.000000,0.000000,7.080221,12.314343,0.465424
1649345320.235526,12433.000000,1649345320.234764,0.000000,0.000000,1.000000,0.000000,0.000000,0.000000,0.000000,7.079894,12.312794,0.454639
1649345320.341510,12434.000000,1649345320.339980,0.000000,0.000000,1.000000,0.000000,0.000000,0.000000,0.000000,7.080818,12.310053,0.456738
1649345320.433496,12435.000000,1649345320.433212,0.000000,0.000000,1.000000,0.000000,0.000000,0.000000,0.000000,7.082916,12.306206,0.471182
1649345320.532387,12436.000000,1649345320.532146,0.000000,0.000000,1.000000,0.000000,0.000000,0.000000,0.000000,7.079567,12.307877,0.453081
1649345320.635499,12437.000000,1649345320.634621,0.000000,0.000000,1.000000,0.000000,0.000000,0.000000,0.000000,7.079794,12.308226,0.449731
1649345320.735516,12438.000000,1649345320.734587,0.000000,0.000000,1.000000,0.000000,0.000000,0.000000,0.000000,7.082304,12.305151,0.441177
1649345320.833185,12439.000000,1649345320.832812,0.000000,0.000000,1.000000,0.000000,0.000000,0.000000,0.000000,7.077145,12.310850,0.404243
1649345320.933181,12440.000000,1649345320.932609,0.000000,0.000000,1.000000,0.000000,0.000000,0.000000,0.000000,7.075649,12.312840,0.389316
1649345321.032937,12441.000000,1649345321.032641,0.000000,0.000000,1.000000,0.000000,0.000000,0.000000,0.000000,7.075433,12.313504,0.389873
1649345321.132502,12442.000000,1649345321.132292,0.000000,0.000000,1.000000,0.000000,0.000000,0.000000,0.000000,7.076424,12.311831,0.403662
1649345321.240736,12443.000000,1649345321.238328,0.000000,0.000000,1.000000,0.000000,0.000000,0.000000,0.000000,7.079635,12.309049,0.426079
1649345321.332980,12444.000000,1649345321.332631,0.000000,0.000000,1.000000,0.000000,0.000000,0.000000,0.000000,7.083840,12.304144,0.449468
1649345321.432950,12445.000000,1649345321.432565,0.000000,0.000000,1.000000,0.000000,0.000000,0.000000,0.000000,7.081336,12.307066,0.440672
1649345321.535064,12446.000000,1649345321.534231,0.000000,0.000000,1.000000,0.000000,0.000000,0.000000,0.000000,7.074671,12.314112,0.418738
1649345321.632705,12447.000000,1649345321.632477,0.000000,0.000000,1.000000,0.000000,0.000000,0.000000,0.000000,7.072814,12.317408,0.414869
1649345321.733974,12448.000000,1649345321.733444,0.000000,0.000000,1.000000,0.000000,0.000000,0.000000,0.000000,7.066779,12.323695,0.396075
1649345321.832848,12449.000000,1649345321.832590,0.000000,0.000000,1.000000,0.000000,0.000000,0.000000,0.000000,7.064443,12.326253,0.396043
1649345321.933232,12450.000000,1649345321.932821,0.000000,0.000000,1.000000,0.000000,0.000000,0.000000,0.000000,7.065604,12.324194,0.392232
1649345322.033030,12451.000000,1649345322.032730,0.000000,0.000000,1.000000,0.000000,0.000000,0.000000,0.000000,7.062431,12.328687,0.357371
1649345322.135233,12452.000000,1649345322.134517,0.000000,0.000000,1.000000,0.000000,0.000000,0.000000,0.000000,7.055164,12.337186,0.302437
1649345322.235361,12453.000000,1649345322.234906,0.000000,0.000000,1.000000,0.000000,0.000000,0.000000,0.000000,7.052767,12.339639,0.258159
1649345322.338437,12454.000000,1649345322.336835,0.000000,0.000000,1.000000,0.000000,0.000000,0.000000,0.000000,7.053885,12.338555,0.241102
1649345322.433255,12455.000000,1649345322.432949,0.000000,0.000000,1.000000,0.000000,0.000000,0.000000,0.000000,7.057226,12.335229,0.242921
1649345322.538538,12456.000000,1649345322.536322,0.000000,0.000000,1.000000,0.000000,0.000000,0.000000,0.000000,7.055020,12.338523,0.218480
1649345322.633354,12457.000000,1649345322.632875,0.000000,0.000000,1.000000,0.000000,0.000000,0.000000,0.000000,7.055204,12.339350,0.218053
1649345322.735998,12458.000000,1649345322.735031,0.000000,0.000000,1.000000,0.000000,0.000000,0.000000,0.000000,7.057641,12.335666,0.214042
1649345322.833407,12459.000000,1649345322.833031,0.000000,0.000000,1.000000,0.000000,0.000000,0.000000,0.000000,7.055655,12.336458,0.194482
1649345322.933389,12460.000000,1649345322.932955,0.000000,0.000000,1.000000,0.000000,0.000000,0.000000,0.000000,7.056031,12.334942,0.194694
1649345323.032806,12461.000000,1649345323.032345,0.000000,0.000000,1.000000,0.000000,0.000000,0.000000,0.000000,7.059725,12.330163,0.211443
1649345323.134106,12462.000000,1649345323.133462,0.000000,0.000000,1.000000,0.000000,0.000000,0.000000,0.000000,7.064359,12.323409,0.237565
1649345323.239902,12463.000000,1649345323.237991,0.000000,0.000000,1.000000,0.000000,0.000000,0.000000,0.000000,7.068776,12.318083,0.274235
1649345323.332726,12464.000000,1649345323.332467,0.000000,0.000000,1.000000,0.000000,0.000000,0.000000,0.000000,7.074061,12.310854,0.297565
1649345323.436059,12465.000000,1649345323.434803,0.000000,0.000000,1.000000,0.000000,0.000000,0.000000,0.000000,7.074697,12.309483,0.293527
1649345323.532815,12466.000000,1649345323.532525,0.000000,0.000000,1.000000,0.000000,0.000000,0.000000,0.000000,7.077478,12.306020,0.305967
1649345323.632874,12467.000000,1649345323.632489,0.000000,0.000000,1.000000,0.000000,0.000000,0.000000,0.000000,7.075736,12.307133,0.302738
1649345323.734924,12468.000000,1649345323.734272,0.000000,0.000000,1.000000,0.000000,0.000000,0.000000,0.000000,7.076265,12.306025,0.312697
1649345323.833351,12469.000000,1649345323.832998,0.000000,0.000000,1.000000,0.000000,0.000000,0.000000,0.000000,7.080032,12.303909,0.337710
