__time,/dwm1001/id_458E/pose_kf/header/seq,/dwm1001/id_458E/pose_kf/header/stamp,/dwm1001/id_458E/pose_kf/pose/orientation/pitch_deg,/dwm1001/id_458E/pose_kf/pose/orientation/roll_deg,/dwm1001/id_458E/pose_kf/pose/orientation/w,/dwm1001/id_458E/pose_kf/pose/orientation/x,/dwm1001/id_458E/pose_kf/pose/orientation/y,/dwm1001/id_458E/pose_kf/pose/orientation/yaw_deg,/dwm1001/id_458E/pose_kf/pose/orientation/z,/dwm1001/id_458E/pose_kf/pose/position/x,/dwm1001/id_458E/pose_kf/pose/position/y,/dwm1001/id_458E/pose_kf/pose/position/z
1650625356.307224,3006.000000,1650625356.306973,0.000000,0.000000,1.000000,0.000000,0.000000,0.000000,0.000000,1.535201,14.534991,0.993163
1650625356.407209,3007.000000,1650625356.406973,0.000000,0.000000,1.000000,0.000000,0.000000,0.000000,0.000000,1.542644,14.533465,0.952108
1650625356.507565,3008.000000,1650625356.507258,0.000000,0.000000,1.000000,0.000000,0.000000,0.000000,0.000000,1.550727,14.533111,0.926371
1650625356.607184,3009.000000,1650625356.606952,0.000000,0.000000,1.000000,0.000000,0.000000,0.000000,0.000000,1.559392,14.532775,0.922640
1650625356.707270,3010.000000,1650625356.707011,0.000000,0.000000,1.000000,0.000000,0.000000,0.000000,0.000000,1.563133,14.531369,0.927935
1650625356.807232,3011.000000,1650625356.806903,0.000000,0.000000,1.000000,0.000000,0.000000,0.000000,0.000000,1.567661,14.531135,0.926563
1650625356.907206,3012.000000,1650625356.906968,0.000000,0.000000,1.000000,0.000000,0.000000,0.000000,0.000000,1.570747,14.530919,0.930890
1650625357.007205,3013.000000,1650625357.006937,0.000000,0.000000,1.000000,0.000000,0.000000,0.000000,0.000000,1.571373,14.530720,0.946325
1650625357.107146,3014.000000,1650625357.106912,0.000000,0.000000,1.000000,0.000000,0.000000,0.000000,0.000000,1.574040,14.529449,0.963523
1650625357.207202,3015.000000,1650625357.206946,0.000000,0.000000,1.000000,0.000000,0.000000,0.000000,0.000000,1.572092,14.529347,0.984806
1650625357.307644,3016.000000,1650625357.307317,0.000000,0.000000,1.000000,0.000000,0.000000,0.000000,0.000000,1.572336,14.527080,0.992232
1650625357.407131,3017.000000,1650625357.406909,0.000000,0.000000,1.000000,0.000000,0.000000,0.000000,0.000000,1.573566,14.524952,1.003287
1650625357.507143,3018.000000,1650625357.506909,0.000000,0.000000,1.000000,0.000000,0.000000,0.000000,0.000000,1.574639,14.524053,1.012972
1650625357.607130,3019.000000,1650625357.606909,0.000000,0.000000,1.000000,0.000000,0.000000,0.000000,0.000000,1.571204,14.524316,1.032622
1650625357.707153,3020.000000,1650625357.706882,0.000000,0.000000,1.000000,0.000000,0.000000,0.000000,0.000000,1.573337,14.522406,1.051321
1650625357.807161,3021.000000,1650625357.806946,0.000000,0.000000,1.000000,0.000000,0.000000,0.000000,0.000000,1.572008,14.521716,1.072311
1650625357.907149,3022.000000,1650625357.906892,0.000000,0.000000,1.000000,0.000000,0.000000,0.000000,0.000000,1.563052,14.522182,1.083372
1650625358.007112,3023.000000,1650625358.006888,0.000000,0.000000,1.000000,0.000000,0.000000,0.000000,0.000000,1.558912,14.522645,1.094575
1650625358.107467,3024.000000,1650625358.107196,0.000000,0.000000,1.000000,0.000000,0.000000,0.000000,0.000000,1.553888,14.523105,1.110740
1650625358.207135,3025.000000,1650625358.206896,0.000000,0.000000,1.000000,0.000000,0.000000,0.000000,0.000000,1.548046,14.523557,1.130845
1650625358.307535,3026.000000,1650625358.307295,0.000000,0.000000,1.000000,0.000000,0.000000,0.000000,0.000000,1.541447,14.524001,1.149062
1650625358.407189,3027.000000,1650625358.406935,0.000000,0.000000,1.000000,0.000000,0.000000,0.000000,0.000000,1.536335,14.524434,1.163834
1650625358.507148,3028.000000,1650625358.506905,0.000000,0.000000,1.000000,0.000000,0.000000,0.000000,0.000000,1.530461,14.524855,1.169642
1650625358.607153,3029.000000,1650625358.606903,0.000000,0.000000,1.000000,0.000000,0.000000,0.000000,0.000000,1.523883,14.527444,1.185400
1650625358.707150,3030.000000,1650625358.706896,0.000000,0.000000,1.000000,0.000000,0.000000,0.000000,0.000000,1.516656,14.529892,1.200207
1650625358.807119,3031.000000,1650625358.806899,0.000000,0.000000,1.000000,0.000000,0.000000,0.000000,0.000000,1.511013,14.531109,1.218929
1650625358.907444,3032.000000,1650625358.907168,0.000000,0.000000,1.000000,0.000000,0.000000,0.000000,0.000000,1.504700,14.532249,1.234939
1650625359.007194,3033.000000,1650625359.006943,0.000000,0.000000,1.000000,0.000000,0.000000,0.000000,0.000000,1.501038,14.534405,1.237850
1650625359.107140,3034.000000,1650625359.106897,0.000000,0.000000,1.000000,0.000000,0.000000,0.000000,0.000000,1.499886,14.536423,1.241102
1650625359.207169,3035.000000,1650625359.206923,0.000000,0.000000,1.000000,0.000000,0.000000,0.000000,0.000000,1.502195,14.538307,1.239852
1650625359.307164,3036.000000,1650625359.306933,0.000000,0.000000,1.000000,0.000000,0.000000,0.000000,0.000000,1.501219,14.540059,1.243976
1650625359.407093,3037.000000,1650625359.406913,0.000000,0.000000,1.000000,0.000000,0.000000,0.000000,0.000000,1.498224,14.542772,1.236328
1650625359.507080,3038.000000,1650625359.506862,0.000000,0.000000,1.000000,0.000000,0.000000,0.000000,0.000000,1.499865,14.545299,1.235151
1650625359.607144,3039.000000,1650625359.606911,0.000000,0.000000,1.000000,0.000000,0.000000,0.000000,0.000000,1.498245,14.548732,1.245843
1650625359.707033,3040.000000,1650625359.706785,0.000000,0.000000,1.000000,0.000000,0.000000,0.000000,0.000000,1.500085,14.550835,1.251790
1650625359.806671,3041.000000,1650625359.806471,0.000000,0.000000,1.000000,0.000000,0.000000,0.000000,0.000000,1.499731,14.552766,1.257217
1650625359.906748,3042.000000,1650625359.906563,0.000000,0.000000,1.000000,0.000000,0.000000,0.000000,0.000000,1.514746,14.551261,1.202471
1650625360.006759,3043.000000,1650625360.006575,0.000000,0.000000,1.000000,0.000000,0.000000,0.000000,0.000000,1.522433,14.550877,1.149758
1650625360.106814,3044.000000,1650625360.106640,0.000000,0.000000,1.000000,0.000000,0.000000,0.000000,0.000000,1.522073,14.550466,1.107965
1650625360.206740,3045.000000,1650625360.206562,0.000000,0.000000,1.000000,0.000000,0.000000,0.000000,0.000000,1.515198,14.551125,1.089628
1650625360.306715,3046.000000,1650625360.306505,0.000000,0.000000,1.000000,0.000000,0.000000,0.000000,0.000000,1.517448,14.551704,1.079318
1650625360.406690,3047.000000,1650625360.406486,0.000000,0.000000,1.000000,0.000000,0.000000,0.000000,0.000000,1.522866,14.551119,1.078340
1650625360.506955,3048.000000,1650625360.506686,0.000000,0.000000,1.000000,0.000000,0.000000,0.000000,0.000000,1.524718,14.551619,1.079865
1650625360.606788,3049.000000,1650625360.606598,0.000000,0.000000,1.000000,0.000000,0.000000,0.000000,0.000000,1.530827,14.552054,1.076531
1650625360.706923,3050.000000,1650625360.706690,0.000000,0.000000,1.000000,0.000000,0.000000,0.000000,0.000000,1.533307,14.554609,1.073376
1650625360.806886,3051.000000,1650625360.806622,0.000000,0.000000,1.000000,0.000000,0.000000,0.000000,0.000000,1.537803,14.554802,1.080879
1650625360.906782,3052.000000,1650625360.906555,0.000000,0.000000,1.000000,0.000000,0.000000,0.000000,0.000000,1.559457,14.551672,1.035695
1650625361.006809,3053.000000,1650625361.006565,0.000000,0.000000,1.000000,0.000000,0.000000,0.000000,0.000000,1.576553,14.549775,1.008569
1650625361.106815,3054.000000,1650625361.106606,0.000000,0.000000,1.000000,0.000000,0.000000,0.000000,0.000000,1.587109,14.546869,0.998815
1650625361.206730,3055.000000,1650625361.206497,0.000000,0.000000,1.000000,0.000000,0.000000,0.000000,0.000000,1.593638,14.544112,0.994453
1650625361.306969,3056.000000,1650625361.306710,0.000000,0.000000,1.000000,0.000000,0.000000,0.000000,0.000000,1.596351,14.540413,1.004944
1650625361.406809,3057.000000,1650625361.406598,0.000000,0.000000,1.000000,0.000000,0.000000,0.000000,0.000000,1.594366,14.536926,1.022407
1650625361.506848,3058.000000,1650625361.506636,0.000000,0.000000,1.000000,0.000000,0.000000,0.000000,0.000000,1.598861,14.532559,0.984428
1650625361.606819,3059.000000,1650625361.606625,0.000000,0.000000,1.000000,0.000000,0.000000,0.000000,0.000000,1.602935,14.529554,0.962657
1650625361.706854,3060.000000,1650625361.706660,0.000000,0.000000,1.000000,0.000000,0.000000,0.000000,0.000000,1.605520,14.526754,0.949213
1650625361.806835,3061.000000,1650625361.806635,0.000000,0.000000,1.000000,0.000000,0.000000,0.000000,0.000000,1.604516,14.525244,0.943775
1650625361.907164,3062.000000,1650625361.906948,0.000000,0.000000,1.000000,0.000000,0.000000,0.000000,0.000000,1.596863,14.524955,0.937956
1650625362.007135,3063.000000,1650625362.006895,0.000000,0.000000,1.000000,0.000000,0.000000,0.000000,0.000000,1.587317,14.526911,0.946289
1650625362.107458,3064.000000,1650625362.107173,0.000000,0.000000,1.000000,0.000000,0.000000,0.000000,0.000000,1.580380,14.527709,0.964955
1650625362.207099,3065.000000,1650625362.206913,0.000000,0.000000,1.000000,0.000000,0.000000,0.000000,0.000000,1.574847,14.528497,0.977369
1650625362.307148,3066.000000,1650625362.306942,0.000000,0.000000,1.000000,0.000000,0.000000,0.000000,0.000000,1.569572,14.529271,0.996659
1650625362.407135,3067.000000,1650625362.406923,0.000000,0.000000,1.000000,0.000000,0.000000,0.000000,0.000000,1.565651,14.530029,1.015253
1650625362.506784,3068.000000,1650625362.506601,0.000000,0.000000,1.000000,0.000000,0.000000,0.000000,0.000000,1.560843,14.530766,1.034755
1650625362.606755,3069.000000,1650625362.606580,0.000000,0.000000,1.000000,0.000000,0.000000,0.000000,0.000000,1.548669,14.532572,1.062353
1650625362.706725,3070.000000,1650625362.706552,0.000000,0.000000,1.000000,0.000000,0.000000,0.000000,0.000000,1.539382,14.533200,1.089609
1650625362.806751,3071.000000,1650625362.806572,0.000000,0.000000,1.000000,0.000000,0.000000,0.000000,0.000000,1.533943,14.533802,1.110846
1650625362.906837,3072.000000,1650625362.906594,0.000000,0.000000,1.000000,0.000000,0.000000,0.000000,0.000000,1.543058,14.534378,1.073049
1650625363.006828,3073.000000,1650625363.006611,0.000000,0.000000,1.000000,0.000000,0.000000,0.000000,0.000000,1.551726,14.534926,1.050440
1650625363.106768,3074.000000,1650625363.106506,0.000000,0.000000,1.000000,0.000000,0.000000,0.000000,0.000000,1.555580,14.535447,1.031964
1650625363.206741,3075.000000,1650625363.206503,0.000000,0.000000,1.000000,0.000000,0.000000,0.000000,0.000000,1.558141,14.534849,1.027968
1650625363.307086,3076.000000,1650625363.306841,0.000000,0.000000,1.000000,0.000000,0.000000,0.000000,0.000000,1.561649,14.533195,1.030618
1650625363.406768,3077.000000,1650625363.406507,0.000000,0.000000,1.000000,0.000000,0.000000,0.000000,0.000000,1.563864,14.532729,1.042865
1650625363.506711,3078.000000,1650625363.506495,0.000000,0.000000,1.000000,0.000000,0.000000,0.000000,0.000000,1.564848,14.529025,1.061075
1650625363.606717,3079.000000,1650625363.606504,0.000000,0.000000,1.000000,0.000000,0.000000,0.000000,0.000000,1.559215,14.525543,1.076911
1650625363.707117,3080.000000,1650625363.706771,0.000000,0.000000,1.000000,0.000000,0.000000,0.000000,0.000000,1.548434,14.524460,1.101735
1650625363.806858,3081.000000,1650625363.806634,0.000000,0.000000,1.000000,0.000000,0.000000,0.000000,0.000000,1.541544,14.524558,1.114176
1650625363.906877,3082.000000,1650625363.906655,0.000000,0.000000,1.000000,0.000000,0.000000,0.000000,0.000000,1.535080,14.525770,1.121167
1650625364.006849,3083.000000,1650625364.006595,0.000000,0.000000,1.000000,0.000000,0.000000,0.000000,0.000000,1.529038,14.525849,1.138244
1650625364.106829,3084.000000,1650625364.106630,0.000000,0.000000,1.000000,0.000000,0.000000,0.000000,0.000000,1.522318,14.525945,1.159331
1650625364.206794,3085.000000,1650625364.206572,0.000000,0.000000,1.000000,0.000000,0.000000,0.000000,0.000000,1.518246,14.526056,1.170527
1650625364.306839,3086.000000,1650625364.306617,0.000000,0.000000,1.000000,0.000000,0.000000,0.000000,0.000000,1.512322,14.527270,1.172218
1650625364.406847,3087.000000,1650625364.406610,0.000000,0.000000,1.000000,0.000000,0.000000,0.000000,0.000000,1.526468,14.525161,1.122857
1650625364.506969,3088.000000,1650625364.506699,0.000000,0.000000,1.000000,0.000000,0.000000,0.000000,0.000000,1.535550,14.525368,1.076205
1650625364.606803,3089.000000,1650625364.606564,0.000000,0.000000,1.000000,0.000000,0.000000,0.000000,0.000000,1.543082,14.524490,1.050785
1650625364.706828,3090.000000,1650625364.706625,0.000000,0.000000,1.000000,0.000000,0.000000,0.000000,0.000000,1.548034,14.523680,1.043365
1650625364.806862,3091.000000,1650625364.806644,0.000000,0.000000,1.000000,0.000000,0.000000,0.000000,0.000000,1.546167,14.524026,1.030650
1650625364.906788,3092.000000,1650625364.906590,0.000000,0.000000,1.000000,0.000000,0.000000,0.000000,0.000000,1.546583,14.525461,1.021743
1650625365.006801,3093.000000,1650625365.006621,0.000000,0.000000,1.000000,0.000000,0.000000,0.000000,0.000000,1.544795,14.526832,1.022148
1650625365.106857,3094.000000,1650625365.106679,0.000000,0.000000,1.000000,0.000000,0.000000,0.000000,0.000000,1.544199,14.529227,1.022614
1650625365.206822,3095.000000,1650625365.206644,0.000000,0.000000,1.000000,0.000000,0.000000,0.000000,0.000000,1.542550,14.531491,1.019911
1650625365.307019,3096.000000,1650625365.306679,0.000000,0.000000,1.000000,0.000000,0.000000,0.000000,0.000000,1.541003,14.534715,1.013359
1650625365.406775,3097.000000,1650625365.406588,0.000000,0.000000,1.000000,0.000000,0.000000,0.000000,0.000000,1.537374,14.537747,1.001510
1650625365.506763,3098.000000,1650625365.506571,0.000000,0.000000,1.000000,0.000000,0.000000,0.000000,0.000000,1.535060,14.537317,0.999109
1650625365.606859,3099.000000,1650625365.606660,0.000000,0.000000,1.000000,0.000000,0.000000,0.000000,0.000000,1.533993,14.533616,1.010614
1650625365.706872,3100.000000,1650625365.706643,0.000000,0.000000,1.000000,0.000000,0.000000,0.000000,0.000000,1.534108,14.532289,1.025765
1650625365.806827,3101.000000,1650625365.806626,0.000000,0.000000,1.000000,0.000000,0.000000,0.000000,0.000000,1.525524,14.534300,1.047610
1650625365.906776,3102.000000,1650625365.906586,0.000000,0.000000,1.000000,0.000000,0.000000,0.000000,0.000000,1.517464,14.536190,1.065357
1650625366.007162,3103.000000,1650625366.006951,0.000000,0.000000,1.000000,0.000000,0.000000,0.000000,0.000000,1.512102,14.539052,1.077528
1650625366.107487,3104.000000,1650625366.107234,0.000000,0.000000,1.000000,0.000000,0.000000,0.000000,0.000000,1.508213,14.541733,1.081908
1650625366.207283,3105.000000,1650625366.207012,0.000000,0.000000,1.000000,0.000000,0.000000,0.000000,0.000000,1.505723,14.543147,1.089290
1650625366.306907,3106.000000,1650625366.306674,0.000000,0.000000,1.000000,0.000000,0.000000,0.000000,0.000000,1.501289,14.545540,1.092284
1650625366.406835,3107.000000,1650625366.406628,0.000000,0.000000,1.000000,0.000000,0.000000,0.000000,0.000000,1.499385,14.547763,1.091064
1650625366.506799,3108.000000,1650625366.506595,0.000000,0.000000,1.000000,0.000000,0.000000,0.000000,0.000000,1.494421,14.548730,1.093870
1650625366.606722,3109.000000,1650625366.606528,0.000000,0.000000,1.000000,0.000000,0.000000,0.000000,0.000000,1.488754,14.550690,1.097311
1650625366.706717,3110.000000,1650625366.706525,0.000000,0.000000,1.000000,0.000000,0.000000,0.000000,0.000000,1.486795,14.551405,1.107002
1650625366.806775,3111.000000,1650625366.806581,0.000000,0.000000,1.000000,0.000000,0.000000,0.000000,0.000000,1.490523,14.548762,1.123486
1650625366.907059,3112.000000,1650625366.906686,0.000000,0.000000,1.000000,0.000000,0.000000,0.000000,0.000000,1.487612,14.546226,1.140011
1650625367.006802,3113.000000,1650625367.006604,0.000000,0.000000,1.000000,0.000000,0.000000,0.000000,0.000000,1.480610,14.544892,1.142842
1650625367.106801,3114.000000,1650625367.106615,0.000000,0.000000,1.000000,0.000000,0.000000,0.000000,0.000000,1.474115,14.544700,1.137371
1650625367.206805,3115.000000,1650625367.206612,0.000000,0.000000,1.000000,0.000000,0.000000,0.000000,0.000000,1.467024,14.545589,1.131205
1650625367.306801,3116.000000,1650625367.306603,0.000000,0.000000,1.000000,0.000000,0.000000,0.000000,0.000000,1.463744,14.544229,1.132451
1650625367.406782,3117.000000,1650625367.406581,0.000000,0.000000,1.000000,0.000000,0.000000,0.000000,0.000000,1.461889,14.542927,1.131941
1650625367.506992,3118.000000,1650625367.506786,0.000000,0.000000,1.000000,0.000000,0.000000,0.000000,0.000000,1.460287,14.541687,1.135397
1650625367.606816,3119.000000,1650625367.606621,0.000000,0.000000,1.000000,0.000000,0.000000,0.000000,0.000000,1.458920,14.541598,1.137010
1650625367.707249,3120.000000,1650625367.706808,0.000000,0.000000,1.000000,0.000000,0.000000,0.000000,0.000000,1.459953,14.542599,1.136050
1650625367.806789,3121.000000,1650625367.806603,0.000000,0.000000,1.000000,0.000000,0.000000,0.000000,0.000000,1.458882,14.544628,1.127787
1650625367.906811,3122.000000,1650625367.906626,0.000000,0.000000,1.000000,0.000000,0.000000,0.000000,0.000000,1.463450,14.545442,1.119792
1650625368.006797,3123.000000,1650625368.006584,0.000000,0.000000,1.000000,0.000000,0.000000,0.000000,0.000000,1.465694,14.546196,1.115294
1650625368.106818,3124.000000,1650625368.106621,0.000000,0.000000,1.000000,0.000000,0.000000,0.000000,0.000000,1.469000,14.545801,1.117390
1650625368.207336,3125.000000,1650625368.207035,0.000000,0.000000,1.000000,0.000000,0.000000,0.000000,0.000000,1.472204,14.546504,1.116134
1650625368.307571,3126.000000,1650625368.307298,0.000000,0.000000,1.000000,0.000000,0.000000,0.000000,0.000000,1.470935,14.546061,1.111664
1650625368.407119,3127.000000,1650625368.406895,0.000000,0.000000,1.000000,0.000000,0.000000,0.000000,0.000000,1.473069,14.545629,1.117024
1650625368.507244,3128.000000,1650625368.507011,0.000000,0.000000,1.000000,0.000000,0.000000,0.000000,0.000000,1.477321,14.545208,1.131001
1650625368.607195,3129.000000,1650625368.606952,0.000000,0.000000,1.000000,0.000000,0.000000,0.000000,0.000000,1.477016,14.544800,1.144357
1650625368.707213,3130.000000,1650625368.706957,0.000000,0.000000,1.000000,0.000000,0.000000,0.000000,0.000000,1.473492,14.544407,1.143386
1650625368.807117,3131.000000,1650625368.806898,0.000000,0.000000,1.000000,0.000000,0.000000,0.000000,0.000000,1.466933,14.545119,1.134315
1650625368.907116,3132.000000,1650625368.906923,0.000000,0.000000,1.000000,0.000000,0.000000,0.000000,0.000000,1.468427,14.544693,1.139264
1650625369.007161,3133.000000,1650625369.006927,0.000000,0.000000,1.000000,0.000000,0.000000,0.000000,0.000000,1.472075,14.543195,1.145565
1650625369.107139,3134.000000,1650625369.106908,0.000000,0.000000,1.000000,0.000000,0.000000,0.000000,0.000000,1.475563,14.540686,1.162026
1650625369.207128,3135.000000,1650625369.206894,0.000000,0.000000,1.000000,0.000000,0.000000,0.000000,0.000000,1.475617,14.539411,1.162407
1650625369.307093,3136.000000,1650625369.306834,0.000000,0.000000,1.000000,0.000000,0.000000,0.000000,0.000000,1.477873,14.539306,1.169939
1650625369.406781,3137.000000,1650625369.406609,0.000000,0.000000,1.000000,0.000000,0.000000,0.000000,0.000000,1.477841,14.539217,1.169809
1650625369.506826,3138.000000,1650625369.506649,0.000000,0.000000,1.000000,0.000000,0.000000,0.000000,0.000000,1.477827,14.539143,1.171201
1650625369.606820,3139.000000,1650625369.606644,0.000000,0.000000,1.000000,0.000000,0.000000,0.000000,0.000000,1.478918,14.539082,1.170830
1650625369.706856,3140.000000,1650625369.706687,0.000000,0.000000,1.000000,0.000000,0.000000,0.000000,0.000000,1.482141,14.540124,1.165546
1650625369.806804,3141.000000,1650625369.806633,0.000000,0.000000,1.000000,0.000000,0.000000,0.000000,0.000000,1.484097,14.541114,1.167656
1650625369.906855,3142.000000,1650625369.906662,0.000000,0.000000,1.000000,0.000000,0.000000,0.000000,0.000000,1.490302,14.542053,1.170411
1650625370.006774,3143.000000,1650625370.006594,0.000000,0.000000,1.000000,0.000000,0.000000,0.000000,0.000000,1.497233,14.541848,1.169750
1650625370.107151,3144.000000,1650625370.106925,0.000000,0.000000,1.000000,0.000000,0.000000,0.000000,0.000000,1.511373,14.540564,1.173880
1650625370.206824,3145.000000,1650625370.206615,0.000000,0.000000,1.000000,0.000000,0.000000,0.000000,0.000000,1.525745,14.540444,1.174540
1650625370.306846,3146.000000,1650625370.306648,0.000000,0.000000,1.000000,0.000000,0.000000,0.000000,0.000000,1.537025,14.537063,1.181548
1650625370.406772,3147.000000,1650625370.406572,0.000000,0.000000,1.000000,0.000000,0.000000,0.000000,0.000000,1.551897,14.533881,1.185771
1650625370.506752,3148.000000,1650625370.506555,0.000000,0.000000,1.000000,0.000000,0.000000,0.000000,0.000000,1.565764,14.531985,1.184896
1650625370.606791,3149.000000,1650625370.606595,0.000000,0.000000,1.000000,0.000000,0.000000,0.000000,0.000000,1.576468,14.531311,1.190425
1650625370.706736,3150.000000,1650625370.706551,0.000000,0.000000,1.000000,0.000000,0.000000,0.000000,0.000000,1.584161,14.531793,1.189998
1650625370.806735,3151.000000,1650625370.806527,0.000000,0.000000,1.000000,0.000000,0.000000,0.000000,0.000000,1.603172,14.529003,1.133051
1650625370.906959,3152.000000,1650625370.906667,0.000000,0.000000,1.000000,0.000000,0.000000,0.000000,0.000000,1.612122,14.527488,1.092931
1650625371.007174,3153.000000,1650625371.006954,0.000000,0.000000,1.000000,0.000000,0.000000,0.000000,0.000000,1.611549,14.527181,1.075480
1650625371.107155,3154.000000,1650625371.106947,0.000000,0.000000,1.000000,0.000000,0.000000,0.000000,0.000000,1.608533,14.526925,1.067711
1650625371.207195,3155.000000,1650625371.206936,0.000000,0.000000,1.000000,0.000000,0.000000,0.000000,0.000000,1.608686,14.526717,1.062793
1650625371.307125,3156.000000,1650625371.306890,0.000000,0.000000,1.000000,0.000000,0.000000,0.000000,0.000000,1.609669,14.527642,1.059001
1650625371.407209,3157.000000,1650625371.406950,0.000000,0.000000,1.000000,0.000000,0.000000,0.000000,0.000000,1.603816,14.529635,1.055484
1650625371.507093,3158.000000,1650625371.506883,0.000000,0.000000,1.000000,0.000000,0.000000,0.000000,0.000000,1.606797,14.530448,1.058684
1650625371.607134,3159.000000,1650625371.606913,0.000000,0.000000,1.000000,0.000000,0.000000,0.000000,0.000000,1.605048,14.531233,1.069932
1650625371.707454,3160.000000,1650625371.707010,0.000000,0.000000,1.000000,0.000000,0.000000,0.000000,0.000000,1.599936,14.533077,1.081622
1650625371.807175,3161.000000,1650625371.806890,0.000000,0.000000,1.000000,0.000000,0.000000,0.000000,0.000000,1.594940,14.533737,1.089680
1650625371.907242,3162.000000,1650625371.906938,0.000000,0.000000,1.000000,0.000000,0.000000,0.000000,0.000000,1.585720,14.534364,1.101495
1650625372.007124,3163.000000,1650625372.006831,0.000000,0.000000,1.000000,0.000000,0.000000,0.000000,0.000000,1.584535,14.534958,1.120924
1650625372.107203,3164.000000,1650625372.106934,0.000000,0.000000,1.000000,0.000000,0.000000,0.000000,0.000000,1.575692,14.536610,1.137145
1650625372.207205,3165.000000,1650625372.206959,0.000000,0.000000,1.000000,0.000000,0.000000,0.000000,0.000000,1.565093,14.538165,1.152677
1650625372.307179,3166.000000,1650625372.306942,0.000000,0.000000,1.000000,0.000000,0.000000,0.000000,0.000000,1.561594,14.538535,1.169136
1650625372.407163,3167.000000,1650625372.406967,0.000000,0.000000,1.000000,0.000000,0.000000,0.000000,0.000000,1.560459,14.537784,1.188880
1650625372.507447,3168.000000,1650625372.507054,0.000000,0.000000,1.000000,0.000000,0.000000,0.000000,0.000000,1.558291,14.537066,1.203680
1650625372.607171,3169.000000,1650625372.606932,0.000000,0.000000,1.000000,0.000000,0.000000,0.000000,0.000000,1.552973,14.537471,1.211298
1650625372.707155,3170.000000,1650625372.706945,0.000000,0.000000,1.000000,0.000000,0.000000,0.000000,0.000000,1.542513,14.536758,1.224112
1650625372.807151,3171.000000,1650625372.806917,0.000000,0.000000,1.000000,0.000000,0.000000,0.000000,0.000000,1.528312,14.537171,1.222541
1650625372.907257,3172.000000,1650625372.907032,0.000000,0.000000,1.000000,0.000000,0.000000,0.000000,0.000000,1.514979,14.537557,1.215240
1650625373.007199,3173.000000,1650625373.006907,0.000000,0.000000,1.000000,0.000000,0.000000,0.000000,0.000000,1.503592,14.535735,1.216975
1650625373.107107,3174.000000,1650625373.106920,0.000000,0.000000,1.000000,0.000000,0.000000,0.000000,0.000000,1.499525,14.534012,1.210447
1650625373.207127,3175.000000,1650625373.206936,0.000000,0.000000,1.000000,0.000000,0.000000,0.000000,0.000000,1.494752,14.532390,1.195200
1650625373.307728,3176.000000,1650625373.307502,0.000000,0.000000,1.000000,0.000000,0.000000,0.000000,0.000000,1.488226,14.530866,1.186939
1650625373.407159,3177.000000,1650625373.406937,0.000000,0.000000,1.000000,0.000000,0.000000,0.000000,0.000000,1.483324,14.530530,1.177335
1650625373.507237,3178.000000,1650625373.506949,0.000000,0.000000,1.000000,0.000000,0.000000,0.000000,0.000000,1.479963,14.530228,1.174525
1650625373.607138,3179.000000,1650625373.606946,0.000000,0.000000,1.000000,0.000000,0.000000,0.000000,0.000000,1.476969,14.529957,1.172598
1650625373.707190,3180.000000,1650625373.706973,0.000000,0.000000,1.000000,0.000000,0.000000,0.000000,0.000000,1.477591,14.529716,1.175554
1650625373.807118,3181.000000,1650625373.806925,0.000000,0.000000,1.000000,0.000000,0.000000,0.000000,0.000000,1.480531,14.529503,1.181580
1650625373.907102,3182.000000,1650625373.906915,0.000000,0.000000,1.000000,0.000000,0.000000,0.000000,0.000000,1.481280,14.530407,1.185706
1650625374.007113,3183.000000,1650625374.006883,0.000000,0.000000,1.000000,0.000000,0.000000,0.000000,0.000000,1.484309,14.531273,1.188808
1650625374.107492,3184.000000,1650625374.107057,0.000000,0.000000,1.000000,0.000000,0.000000,0.000000,0.000000,1.487296,14.532099,1.188507
1650625374.207212,3185.000000,1650625374.206951,0.000000,0.000000,1.000000,0.000000,0.000000,0.000000,0.000000,1.492406,14.532885,1.184134
1650625374.307117,3186.000000,1650625374.306885,0.000000,0.000000,1.000000,0.000000,0.000000,0.000000,0.000000,1.499502,14.532539,1.175865
1650625374.407162,3187.000000,1650625374.406937,0.000000,0.000000,1.000000,0.000000,0.000000,0.000000,0.000000,1.502997,14.532216,1.176775
1650625374.507102,3188.000000,1650625374.506876,0.000000,0.000000,1.000000,0.000000,0.000000,0.000000,0.000000,1.510705,14.531913,1.188106
1650625374.607107,3189.000000,1650625374.606860,0.000000,0.000000,1.000000,0.000000,0.000000,0.000000,0.000000,1.518009,14.530541,1.197323
1650625374.707136,3190.000000,1650625374.706896,0.000000,0.000000,1.000000,0.000000,0.000000,0.000000,0.000000,1.523816,14.530343,1.209338
1650625374.807114,3191.000000,1650625374.806887,0.000000,0.000000,1.000000,0.000000,0.000000,0.000000,0.000000,1.519467,14.530164,1.228857
1650625374.907475,3192.000000,1650625374.907180,0.000000,0.000000,1.000000,0.000000,0.000000,0.000000,0.000000,1.514254,14.530004,1.241032
1650625375.007144,3193.000000,1650625375.006929,0.000000,0.000000,1.000000,0.000000,0.000000,0.000000,0.000000,1.509330,14.530951,1.242917
1650625375.107151,3194.000000,1650625375.106927,0.000000,0.000000,1.000000,0.000000,0.000000,0.000000,0.000000,1.504696,14.531852,1.230897
1650625375.207240,3195.000000,1650625375.207048,0.000000,0.000000,1.000000,0.000000,0.000000,0.000000,0.000000,1.505801,14.529435,1.230557
1650625375.307166,3196.000000,1650625375.306980,0.000000,0.000000,1.000000,0.000000,0.000000,0.000000,0.000000,1.523230,14.524979,1.172882
1650625375.407119,3197.000000,1650625375.406935,0.000000,0.000000,1.000000,0.000000,0.000000,0.000000,0.000000,1.533141,14.524059,1.142544
1650625375.507161,3198.000000,1650625375.506945,0.000000,0.000000,1.000000,0.000000,0.000000,0.000000,0.000000,1.548996,14.519943,1.065104
1650625375.607120,3199.000000,1650625375.606937,0.000000,0.000000,1.000000,0.000000,0.000000,0.000000,0.000000,1.549709,14.520449,1.022428
1650625375.707415,3200.000000,1650625375.707147,0.000000,0.000000,1.000000,0.000000,0.000000,0.000000,0.000000,1.550284,14.519870,1.004309
1650625375.807174,3201.000000,1650625375.806958,0.000000,0.000000,1.000000,0.000000,0.000000,0.000000,0.000000,1.555092,14.518264,1.002518
1650625375.907183,3202.000000,1650625375.906988,0.000000,0.000000,1.000000,0.000000,0.000000,0.000000,0.000000,1.555172,14.518962,0.992196
1650625376.007159,3203.000000,1650625376.006946,0.000000,0.000000,1.000000,0.000000,0.000000,0.000000,0.000000,1.558418,14.520744,0.992240
1650625376.107137,3204.000000,1650625376.106910,0.000000,0.000000,1.000000,0.000000,0.000000,0.000000,0.000000,1.558112,14.521362,0.991738
1650625376.207116,3205.000000,1650625376.206906,0.000000,0.000000,1.000000,0.000000,0.000000,0.000000,0.000000,1.556635,14.521967,0.993121
1650625376.307120,3206.000000,1650625376.306924,0.000000,0.000000,1.000000,0.000000,0.000000,0.000000,0.000000,1.552971,14.523647,1.000332
1650625376.407111,3207.000000,1650625376.406897,0.000000,0.000000,1.000000,0.000000,0.000000,0.000000,0.000000,1.559249,14.523066,0.951017
1650625376.507434,3208.000000,1650625376.507038,0.000000,0.000000,1.000000,0.000000,0.000000,0.000000,0.000000,1.555286,14.524710,0.928174
1650625376.607187,3209.000000,1650625376.606960,0.000000,0.000000,1.000000,0.000000,0.000000,0.000000,0.000000,1.553651,14.526271,0.925118
1650625376.707177,3210.000000,1650625376.706930,0.000000,0.000000,1.000000,0.000000,0.000000,0.000000,0.000000,1.547684,14.528838,0.904752
1650625376.807171,3211.000000,1650625376.806911,0.000000,0.000000,1.000000,0.000000,0.000000,0.000000,0.000000,1.540914,14.532349,0.889571
1650625376.907135,3212.000000,1650625376.906909,0.000000,0.000000,1.000000,0.000000,0.000000,0.000000,0.000000,1.533408,14.534561,0.880182
1650625377.007112,3213.000000,1650625377.006888,0.000000,0.000000,1.000000,0.000000,0.000000,0.000000,0.000000,1.528503,14.536629,0.873129
1650625377.107171,3214.000000,1650625377.106924,0.000000,0.000000,1.000000,0.000000,0.000000,0.000000,0.000000,1.526071,14.535284,0.877186
1650625377.207138,3215.000000,1650625377.206925,0.000000,0.000000,1.000000,0.000000,0.000000,0.000000,0.000000,1.540158,14.531809,0.827368
1650625377.307561,3216.000000,1650625377.307253,0.000000,0.000000,1.000000,0.000000,0.000000,0.000000,0.000000,1.545832,14.529603,0.792046
1650625377.407148,3217.000000,1650625377.406956,0.000000,0.000000,1.000000,0.000000,0.000000,0.000000,0.000000,1.551164,14.528605,0.780356
1650625377.507144,3218.000000,1650625377.506952,0.000000,0.000000,1.000000,0.000000,0.000000,0.000000,0.000000,1.549617,14.528752,0.773607
1650625377.607165,3219.000000,1650625377.606971,0.000000,0.000000,1.000000,0.000000,0.000000,0.000000,0.000000,1.552477,14.527800,0.774817
1650625377.707248,3220.000000,1650625377.707004,0.000000,0.000000,1.000000,0.000000,0.000000,0.000000,0.000000,1.556226,14.526903,0.778807
1650625377.807214,3221.000000,1650625377.806910,0.000000,0.000000,1.000000,0.000000,0.000000,0.000000,0.000000,1.560806,14.527151,0.784635
1650625377.907088,3222.000000,1650625377.906901,0.000000,0.000000,1.000000,0.000000,0.000000,0.000000,0.000000,1.560708,14.528480,0.790587
1650625378.007112,3223.000000,1650625378.006924,0.000000,0.000000,1.000000,0.000000,0.000000,0.000000,0.000000,1.556193,14.529736,0.797440
1650625378.107477,3224.000000,1650625378.107129,0.000000,0.000000,1.000000,0.000000,0.000000,0.000000,0.000000,1.554060,14.530920,0.813196
1650625378.207144,3225.000000,1650625378.206922,0.000000,0.000000,1.000000,0.000000,0.000000,0.000000,0.000000,1.546556,14.533123,0.814876
1650625378.307498,3226.000000,1650625378.307279,0.000000,0.000000,1.000000,0.000000,0.000000,0.000000,0.000000,1.542722,14.535191,0.824002
1650625378.406802,3227.000000,1650625378.406629,0.000000,0.000000,1.000000,0.000000,0.000000,0.000000,0.000000,1.542372,14.536037,0.831375
1650625378.506799,3228.000000,1650625378.506615,0.000000,0.000000,1.000000,0.000000,0.000000,0.000000,0.000000,1.540955,14.537906,0.836238
1650625378.606787,3229.000000,1650625378.606565,0.000000,0.000000,1.000000,0.000000,0.000000,0.000000,0.000000,1.540714,14.539647,0.849159
1650625378.706728,3230.000000,1650625378.706570,0.000000,0.000000,1.000000,0.000000,0.000000,0.000000,0.000000,1.538314,14.541264,0.864945
1650625378.806748,3231.000000,1650625378.806589,0.000000,0.000000,1.000000,0.000000,0.000000,0.000000,0.000000,1.536060,14.543850,0.882640
1650625378.906904,3232.000000,1650625378.906689,0.000000,0.000000,1.000000,0.000000,0.000000,0.000000,0.000000,1.529589,14.546255,0.894067
1650625379.006850,3233.000000,1650625379.006680,0.000000,0.000000,1.000000,0.000000,0.000000,0.000000,0.000000,1.522422,14.548484,0.906714
1650625379.106854,3234.000000,1650625379.106675,0.000000,0.000000,1.000000,0.000000,0.000000,0.000000,0.000000,1.515706,14.550543,0.916476
1650625379.206820,3235.000000,1650625379.206636,0.000000,0.000000,1.000000,0.000000,0.000000,0.000000,0.000000,1.509435,14.552437,0.925063
1650625379.306840,3236.000000,1650625379.306656,0.000000,0.000000,1.000000,0.000000,0.000000,0.000000,0.000000,1.501419,14.554172,0.932506
1650625379.406827,3237.000000,1650625379.406614,0.000000,0.000000,1.000000,0.000000,0.000000,0.000000,0.000000,1.499405,14.554664,0.945291
1650625379.506727,3238.000000,1650625379.506556,0.000000,0.000000,1.000000,0.000000,0.000000,0.000000,0.000000,1.495433,14.555073,0.969632
1650625379.606722,3239.000000,1650625379.606562,0.000000,0.000000,1.000000,0.000000,0.000000,0.000000,0.000000,1.496160,14.552135,0.997766
1650625379.706821,3240.000000,1650625379.706644,0.000000,0.000000,1.000000,0.000000,0.000000,0.000000,0.000000,1.487143,14.552586,1.024655
1650625379.806858,3241.000000,1650625379.806684,0.000000,0.000000,1.000000,0.000000,0.000000,0.000000,0.000000,1.475479,14.552971,1.047083
1650625379.906741,3242.000000,1650625379.906527,0.000000,0.000000,1.000000,0.000000,0.000000,0.000000,0.000000,1.464612,14.553296,1.068425
1650625380.006754,3243.000000,1650625380.006576,0.000000,0.000000,1.000000,0.000000,0.000000,0.000000,0.000000,1.452342,14.555745,1.094340
1650625380.106762,3244.000000,1650625380.106517,0.000000,0.000000,1.000000,0.000000,0.000000,0.000000,0.000000,1.444226,14.556926,1.110899
1650625380.206763,3245.000000,1650625380.206547,0.000000,0.000000,1.000000,0.000000,0.000000,0.000000,0.000000,1.432419,14.557998,1.116849
1650625380.306762,3246.000000,1650625380.306597,0.000000,0.000000,1.000000,0.000000,0.000000,0.000000,0.000000,1.429138,14.557876,1.131974
1650625380.406773,3247.000000,1650625380.406569,0.000000,0.000000,1.000000,0.000000,0.000000,0.000000,0.000000,1.430645,14.557717,1.151856
1650625380.507174,3248.000000,1650625380.506826,0.000000,0.000000,1.000000,0.000000,0.000000,0.000000,0.000000,1.434480,14.557527,1.167411
1650625380.606858,3249.000000,1650625380.606692,0.000000,0.000000,1.000000,0.000000,0.000000,0.000000,0.000000,1.437218,14.558400,1.170736
1650625380.706820,3250.000000,1650625380.706639,0.000000,0.000000,1.000000,0.000000,0.000000,0.000000,0.000000,1.435628,14.560279,1.184910
1650625380.806840,3251.000000,1650625380.806664,0.000000,0.000000,1.000000,0.000000,0.000000,0.000000,0.000000,1.437573,14.562014,1.198196
1650625380.906840,3252.000000,1650625380.906654,0.000000,0.000000,1.000000,0.000000,0.000000,0.000000,0.000000,1.430850,14.564701,1.198524
1650625381.006819,3253.000000,1650625381.006634,0.000000,0.000000,1.000000,0.000000,0.000000,0.000000,0.000000,1.425756,14.565010,1.200944
1650625381.106811,3254.000000,1650625381.106625,0.000000,0.000000,1.000000,0.000000,0.000000,0.000000,0.000000,1.440745,14.563073,1.153768
1650625381.206767,3255.000000,1650625381.206607,0.000000,0.000000,1.000000,0.000000,0.000000,0.000000,0.000000,1.455039,14.562293,1.117961
1650625381.307196,3256.000000,1650625381.306964,0.000000,0.000000,1.000000,0.000000,0.000000,0.000000,0.000000,1.466444,14.560430,1.088293
1650625381.406816,3257.000000,1650625381.406643,0.000000,0.000000,1.000000,0.000000,0.000000,0.000000,0.000000,1.475075,14.558641,1.067799
1650625381.506763,3258.000000,1650625381.506587,0.000000,0.000000,1.000000,0.000000,0.000000,0.000000,0.000000,1.482146,14.556930,1.058569
1650625381.606873,3259.000000,1650625381.606666,0.000000,0.000000,1.000000,0.000000,0.000000,0.000000,0.000000,1.485540,14.556390,1.052907
1650625381.706785,3260.000000,1650625381.706575,0.000000,0.000000,1.000000,0.000000,0.000000,0.000000,0.000000,1.487626,14.554778,1.062777
1650625381.806875,3261.000000,1650625381.806672,0.000000,0.000000,1.000000,0.000000,0.000000,0.000000,0.000000,1.486292,14.553249,1.073827
1650625381.906810,3262.000000,1650625381.906591,0.000000,0.000000,1.000000,0.000000,0.000000,0.000000,0.000000,1.490453,14.548532,1.090025
1650625382.006711,3263.000000,1650625382.006513,0.000000,0.000000,1.000000,0.000000,0.000000,0.000000,0.000000,1.492166,14.545177,1.101461
1650625382.107028,3264.000000,1650625382.106805,0.000000,0.000000,1.000000,0.000000,0.000000,0.000000,0.000000,1.491560,14.543120,1.112343
1650625382.206882,3265.000000,1650625382.206707,0.000000,0.000000,1.000000,0.000000,0.000000,0.000000,0.000000,1.490947,14.541204,1.125097
1650625382.306777,3266.000000,1650625382.306617,0.000000,0.000000,1.000000,0.000000,0.000000,0.000000,0.000000,1.492513,14.539427,1.139632
1650625382.406796,3267.000000,1650625382.406627,0.000000,0.000000,1.000000,0.000000,0.000000,0.000000,0.000000,1.495046,14.535604,1.146984
1650625382.506937,3268.000000,1650625382.506725,0.000000,0.000000,1.000000,0.000000,0.000000,0.000000,0.000000,1.495216,14.532037,1.160342
1650625382.606886,3269.000000,1650625382.606701,0.000000,0.000000,1.000000,0.000000,0.000000,0.000000,0.000000,1.490973,14.529810,1.172994
1650625382.706815,3270.000000,1650625382.706637,0.000000,0.000000,1.000000,0.000000,0.000000,0.000000,0.000000,1.491297,14.526674,1.188180
1650625382.806825,3271.000000,1650625382.806644,0.000000,0.000000,1.000000,0.000000,0.000000,0.000000,0.000000,1.490486,14.524865,1.200941
1650625382.907215,3272.000000,1650625382.906855,0.000000,0.000000,1.000000,0.000000,0.000000,0.000000,0.000000,1.486427,14.524313,1.205718
1650625383.006814,3273.000000,1650625383.006611,0.000000,0.000000,1.000000,0.000000,0.000000,0.000000,0.000000,1.486943,14.523857,1.209283
1650625383.106822,3274.000000,1650625383.106644,0.000000,0.000000,1.000000,0.000000,0.000000,0.000000,0.000000,1.479789,14.525671,1.218947
1650625383.206730,3275.000000,1650625383.206548,0.000000,0.000000,1.000000,0.000000,0.000000,0.000000,0.000000,1.471949,14.527439,1.219133
1650625383.307173,3276.000000,1650625383.306934,0.000000,0.000000,1.000000,0.000000,0.000000,0.000000,0.000000,1.467844,14.530248,1.217492
1650625383.406810,3277.000000,1650625383.406594,0.000000,0.000000,1.000000,0.000000,0.000000,0.000000,0.000000,1.468374,14.531847,1.219752
1650625383.506756,3278.000000,1650625383.506545,0.000000,0.000000,1.000000,0.000000,0.000000,0.000000,0.000000,1.474371,14.532295,1.223342
1650625383.606726,3279.000000,1650625383.606532,0.000000,0.000000,1.000000,0.000000,0.000000,0.000000,0.000000,1.483335,14.529472,1.230629
1650625383.707031,3280.000000,1650625383.706733,0.000000,0.000000,1.000000,0.000000,0.000000,0.000000,0.000000,1.491804,14.529015,1.229364
1650625383.806833,3281.000000,1650625383.806659,0.000000,0.000000,1.000000,0.000000,0.000000,0.000000,0.000000,1.500870,14.529704,1.227966
1650625383.906899,3282.000000,1650625383.906692,0.000000,0.000000,1.000000,0.000000,0.000000,0.000000,0.000000,1.509381,14.530383,1.227256
1650625384.006787,3283.000000,1650625384.006590,0.000000,0.000000,1.000000,0.000000,0.000000,0.000000,0.000000,1.514075,14.531048,1.229636
1650625384.106796,3284.000000,1650625384.106605,0.000000,0.000000,1.000000,0.000000,0.000000,0.000000,0.000000,1.510788,14.532788,1.224499
1650625384.206798,3285.000000,1650625384.206601,0.000000,0.000000,1.000000,0.000000,0.000000,0.000000,0.000000,1.513054,14.534446,1.218615
1650625384.306875,3286.000000,1650625384.306678,0.000000,0.000000,1.000000,0.000000,0.000000,0.000000,0.000000,1.515117,14.536021,1.213645
1650625384.406809,3287.000000,1650625384.406603,0.000000,0.000000,1.000000,0.000000,0.000000,0.000000,0.000000,1.520257,14.537513,1.210370
1650625384.506913,3288.000000,1650625384.506680,0.000000,0.000000,1.000000,0.000000,0.000000,0.000000,0.000000,1.526114,14.538920,1.193412
1650625384.606898,3289.000000,1650625384.606696,0.000000,0.000000,1.000000,0.000000,0.000000,0.000000,0.000000,1.527184,14.540244,1.177063
1650625384.706788,3290.000000,1650625384.706587,0.000000,0.000000,1.000000,0.000000,0.000000,0.000000,0.000000,1.527002,14.541485,1.169396
1650625384.806800,3291.000000,1650625384.806585,0.000000,0.000000,1.000000,0.000000,0.000000,0.000000,0.000000,1.525642,14.543734,1.153945
1650625384.906796,3292.000000,1650625384.906583,0.000000,0.000000,1.000000,0.000000,0.000000,0.000000,0.000000,1.520998,14.545841,1.147182
1650625385.006755,3293.000000,1650625385.006549,0.000000,0.000000,1.000000,0.000000,0.000000,0.000000,0.000000,1.525263,14.543445,1.085057
1650625385.106756,3294.000000,1650625385.106550,0.000000,0.000000,1.000000,0.000000,0.000000,0.000000,0.000000,1.531399,14.541163,1.045713
1650625385.206787,3295.000000,1650625385.206581,0.000000,0.000000,1.000000,0.000000,0.000000,0.000000,0.000000,1.538199,14.540087,1.025068
1650625385.307089,3296.000000,1650625385.306698,0.000000,0.000000,1.000000,0.000000,0.000000,0.000000,0.000000,1.537978,14.539065,1.013526
1650625385.406893,3297.000000,1650625385.406674,0.000000,0.000000,1.000000,0.000000,0.000000,0.000000,0.000000,1.531127,14.540278,0.995407
1650625385.506828,3298.000000,1650625385.506629,0.000000,0.000000,1.000000,0.000000,0.000000,0.000000,0.000000,1.522393,14.541420,0.979869
1650625385.606822,3299.000000,1650625385.606635,0.000000,0.000000,1.000000,0.000000,0.000000,0.000000,0.000000,1.527179,14.540311,0.917631
1650625385.706903,3300.000000,1650625385.706713,0.000000,0.000000,1.000000,0.000000,0.000000,0.000000,0.000000,1.543643,14.535987,0.818734
1650625385.806952,3301.000000,1650625385.806752,0.000000,0.000000,1.000000,0.000000,0.000000,0.000000,0.000000,1.552565,14.532998,0.751745
1650625385.906860,3302.000000,1650625385.906674,0.000000,0.000000,1.000000,0.000000,0.000000,0.000000,0.000000,1.559785,14.530190,0.706600
1650625386.006882,3303.000000,1650625386.006689,0.000000,0.000000,1.000000,0.000000,0.000000,0.000000,0.000000,1.569742,14.527561,0.691339
1650625386.107038,3304.000000,1650625386.106751,0.000000,0.000000,1.000000,0.000000,0.000000,0.000000,0.000000,1.578992,14.526199,0.690242
1650625386.206885,3305.000000,1650625386.206695,0.000000,0.000000,1.000000,0.000000,0.000000,0.000000,0.000000,1.582103,14.526037,0.690615
1650625386.306950,3306.000000,1650625386.306676,0.000000,0.000000,1.000000,0.000000,0.000000,0.000000,0.000000,1.588133,14.527008,0.708502
1650625386.406917,3307.000000,1650625386.406670,0.000000,0.000000,1.000000,0.000000,0.000000,0.000000,0.000000,1.605637,14.524683,0.672979
1650625386.506889,3308.000000,1650625386.506637,0.000000,0.000000,1.000000,0.000000,0.000000,0.000000,0.000000,1.614319,14.523610,0.657206
1650625386.606967,3309.000000,1650625386.606754,0.000000,0.000000,1.000000,0.000000,0.000000,0.000000,0.000000,1.621189,14.522631,0.661195
1650625386.706892,3310.000000,1650625386.706682,0.000000,0.000000,1.000000,0.000000,0.000000,0.000000,0.000000,1.625247,14.520652,0.676860
1650625386.806949,3311.000000,1650625386.806716,0.000000,0.000000,1.000000,0.000000,0.000000,0.000000,0.000000,1.624468,14.521003,0.685134
1650625386.907114,3312.000000,1650625386.906756,0.000000,0.000000,1.000000,0.000000,0.000000,0.000000,0.000000,1.616952,14.521372,0.708052
1650625387.006803,3313.000000,1650625387.006611,0.000000,0.000000,1.000000,0.000000,0.000000,0.000000,0.000000,1.606375,14.520665,0.732064
1650625387.106874,3314.000000,1650625387.106671,0.000000,0.000000,1.000000,0.000000,0.000000,0.000000,0.000000,1.592947,14.520030,0.756261
1650625387.206837,3315.000000,1650625387.206649,0.000000,0.000000,1.000000,0.000000,0.000000,0.000000,0.000000,1.579056,14.520555,0.780580
1650625387.306811,3316.000000,1650625387.306617,0.000000,0.000000,1.000000,0.000000,0.000000,0.000000,0.000000,1.561506,14.522173,0.798511
1650625387.406788,3317.000000,1650625387.406595,0.000000,0.000000,1.000000,0.000000,0.000000,0.000000,0.000000,1.546007,14.524816,0.814303
1650625387.506783,3318.000000,1650625387.506597,0.000000,0.000000,1.000000,0.000000,0.000000,0.000000,0.000000,1.532496,14.528421,0.831234
1650625387.606889,3319.000000,1650625387.606688,0.000000,0.000000,1.000000,0.000000,0.000000,0.000000,0.000000,1.519812,14.532921,0.841964
1650625387.707003,3320.000000,1650625387.706688,0.000000,0.000000,1.000000,0.000000,0.000000,0.000000,0.000000,1.502495,14.537164,0.866880
1650625387.806833,3321.000000,1650625387.806643,0.000000,0.000000,1.000000,0.000000,0.000000,0.000000,0.000000,1.490657,14.541151,0.883590
1650625387.906889,3322.000000,1650625387.906683,0.000000,0.000000,1.000000,0.000000,0.000000,0.000000,0.000000,1.481845,14.544885,0.899652
1650625388.006808,3323.000000,1650625388.006582,0.000000,0.000000,1.000000,0.000000,0.000000,0.000000,0.000000,1.480273,14.547279,0.926355
1650625388.106941,3324.000000,1650625388.106736,0.000000,0.000000,1.000000,0.000000,0.000000,0.000000,0.000000,1.478997,14.549493,0.928546
1650625388.206832,3325.000000,1650625388.206565,0.000000,0.000000,1.000000,0.000000,0.000000,0.000000,0.000000,1.477992,14.550440,0.931406
1650625388.307180,3326.000000,1650625388.306970,0.000000,0.000000,1.000000,0.000000,0.000000,0.000000,0.000000,1.480507,14.549101,0.937324
1650625388.406820,3327.000000,1650625388.406561,0.000000,0.000000,1.000000,0.000000,0.000000,0.000000,0.000000,1.486330,14.546697,0.957460
1650625388.507127,3328.000000,1650625388.506736,0.000000,0.000000,1.000000,0.000000,0.000000,0.000000,0.000000,1.491981,14.544388,0.979111
1650625388.606812,3329.000000,1650625388.606596,0.000000,0.000000,1.000000,0.000000,0.000000,0.000000,0.000000,1.493083,14.544357,1.008637
1650625388.706812,3330.000000,1650625388.706553,0.000000,0.000000,1.000000,0.000000,0.000000,0.000000,0.000000,1.493143,14.544303,1.030351
1650625388.806778,3331.000000,1650625388.806545,0.000000,0.000000,1.000000,0.000000,0.000000,0.000000,0.000000,1.509659,14.540956,0.993733
1650625388.906837,3332.000000,1650625388.906555,0.000000,0.000000,1.000000,0.000000,0.000000,0.000000,0.000000,1.524230,14.537779,0.981042
1650625389.006893,3333.000000,1650625389.006655,0.000000,0.000000,1.000000,0.000000,0.000000,0.000000,0.000000,1.532551,14.534774,0.980858
1650625389.106844,3334.000000,1650625389.106628,0.000000,0.000000,1.000000,0.000000,0.000000,0.000000,0.000000,1.538209,14.533031,0.980584
1650625389.206825,3335.000000,1650625389.206639,0.000000,0.000000,1.000000,0.000000,0.000000,0.000000,0.000000,1.543513,14.530306,0.994745
1650625389.307239,3336.000000,1650625389.306783,0.000000,0.000000,1.000000,0.000000,0.000000,0.000000,0.000000,1.552829,14.528840,1.004190
1650625389.406903,3337.000000,1650625389.406675,0.000000,0.000000,1.000000,0.000000,0.000000,0.000000,0.000000,1.549558,14.528569,1.021195
1650625389.506889,3338.000000,1650625389.506686,0.000000,0.000000,1.000000,0.000000,0.000000,0.000000,0.000000,1.551847,14.528337,1.042206
1650625389.606795,3339.000000,1650625389.606591,0.000000,0.000000,1.000000,0.000000,0.000000,0.000000,0.000000,1.548486,14.528140,1.063805
1650625389.706855,3340.000000,1650625389.706674,0.000000,0.000000,1.000000,0.000000,0.000000,0.000000,0.000000,1.541978,14.527977,1.081102
1650625389.806826,3341.000000,1650625389.806587,0.000000,0.000000,1.000000,0.000000,0.000000,0.000000,0.000000,1.548874,14.525663,1.038604
1650625389.906818,3342.000000,1650625389.906624,0.000000,0.000000,1.000000,0.000000,0.000000,0.000000,0.000000,1.557520,14.523503,1.017835
1650625390.006805,3343.000000,1650625390.006606,0.000000,0.000000,1.000000,0.000000,0.000000,0.000000,0.000000,1.560166,14.522584,1.003443
1650625390.106968,3344.000000,1650625390.106734,0.000000,0.000000,1.000000,0.000000,0.000000,0.000000,0.000000,1.559313,14.521749,1.003267
1650625390.206854,3345.000000,1650625390.206637,0.000000,0.000000,1.000000,0.000000,0.000000,0.000000,0.000000,1.558432,14.522084,1.008671
1650625390.306880,3346.000000,1650625390.306650,0.000000,0.000000,1.000000,0.000000,0.000000,0.000000,0.000000,1.555350,14.521342,1.022650
1650625390.406847,3347.000000,1650625390.406627,0.000000,0.000000,1.000000,0.000000,0.000000,0.000000,0.000000,1.551291,14.520673,1.037581
1650625390.506831,3348.000000,1650625390.506613,0.000000,0.000000,1.000000,0.000000,0.000000,0.000000,0.000000,1.541963,14.521163,1.059048
1650625390.606914,3349.000000,1650625390.606693,0.000000,0.000000,1.000000,0.000000,0.000000,0.000000,0.000000,1.548402,14.519474,1.024660
1650625390.706894,3350.000000,1650625390.706671,0.000000,0.000000,1.000000,0.000000,0.000000,0.000000,0.000000,1.553373,14.520091,0.997217
1650625390.806945,3351.000000,1650625390.806764,0.000000,0.000000,1.000000,0.000000,0.000000,0.000000,0.000000,1.565665,14.517431,0.923264
1650625390.907068,3352.000000,1650625390.906787,0.000000,0.000000,1.000000,0.000000,0.000000,0.000000,0.000000,1.577211,14.516042,0.878994
1650625391.006852,3353.000000,1650625391.006662,0.000000,0.000000,1.000000,0.000000,0.000000,0.000000,0.000000,1.588019,14.511496,0.860059
1650625391.106923,3354.000000,1650625391.106726,0.000000,0.000000,1.000000,0.000000,0.000000,0.000000,0.000000,1.587197,14.508337,0.849332
1650625391.206830,3355.000000,1650625391.206615,0.000000,0.000000,1.000000,0.000000,0.000000,0.000000,0.000000,1.581932,14.507588,0.848106
1650625391.306900,3356.000000,1650625391.306710,0.000000,0.000000,1.000000,0.000000,0.000000,0.000000,0.000000,1.571400,14.509117,0.846314
1650625391.406844,3357.000000,1650625391.406601,0.000000,0.000000,1.000000,0.000000,0.000000,0.000000,0.000000,1.581004,14.507339,0.795588
1650625391.506793,3358.000000,1650625391.506597,0.000000,0.000000,1.000000,0.000000,0.000000,0.000000,0.000000,1.579092,14.507890,0.760073
1650625391.606842,3359.000000,1650625391.606647,0.000000,0.000000,1.000000,0.000000,0.000000,0.000000,0.000000,1.584838,14.507367,0.745659
1650625391.707069,3360.000000,1650625391.706751,0.000000,0.000000,1.000000,0.000000,0.000000,0.000000,0.000000,1.603264,14.504736,0.691022
1650625391.806873,3361.000000,1650625391.806658,0.000000,0.000000,1.000000,0.000000,0.000000,0.000000,0.000000,1.618360,14.503390,0.665604
1650625391.906780,3362.000000,1650625391.906597,0.000000,0.000000,1.000000,0.000000,0.000000,0.000000,0.000000,1.628088,14.503260,0.656963
1650625392.006804,3363.000000,1650625392.006550,0.000000,0.000000,1.000000,0.000000,0.000000,0.000000,0.000000,1.633810,14.503186,0.667645
1650625392.106823,3364.000000,1650625392.106555,0.000000,0.000000,1.000000,0.000000,0.000000,0.000000,0.000000,1.630288,14.504254,0.676675
1650625392.206813,3365.000000,1650625392.206591,0.000000,0.000000,1.000000,0.000000,0.000000,0.000000,0.000000,1.626770,14.506394,0.692151
1650625392.306790,3366.000000,1650625392.306565,0.000000,0.000000,1.000000,0.000000,0.000000,0.000000,0.000000,1.625460,14.507360,0.696837
1650625392.406849,3367.000000,1650625392.406630,0.000000,0.000000,1.000000,0.000000,0.000000,0.000000,0.000000,1.621888,14.509390,0.699211
1650625392.506988,3368.000000,1650625392.506732,0.000000,0.000000,1.000000,0.000000,0.000000,0.000000,0.000000,1.617289,14.512419,0.707414
1650625392.606861,3369.000000,1650625392.606674,0.000000,0.000000,1.000000,0.000000,0.000000,0.000000,0.000000,1.607379,14.516381,0.715541
1650625392.706843,3370.000000,1650625392.706653,0.000000,0.000000,1.000000,0.000000,0.000000,0.000000,0.000000,1.599027,14.520123,0.732441
1650625392.806823,3371.000000,1650625392.806638,0.000000,0.000000,1.000000,0.000000,0.000000,0.000000,0.000000,1.588908,14.523645,0.749658
1650625392.906892,3372.000000,1650625392.906699,0.000000,0.000000,1.000000,0.000000,0.000000,0.000000,0.000000,1.571700,14.526949,0.761496
1650625393.006882,3373.000000,1650625393.006677,0.000000,0.000000,1.000000,0.000000,0.000000,0.000000,0.000000,1.576194,14.527857,0.725404
1650625393.106832,3374.000000,1650625393.106651,0.000000,0.000000,1.000000,0.000000,0.000000,0.000000,0.000000,1.573931,14.529769,0.700627
1650625393.206825,3375.000000,1650625393.206639,0.000000,0.000000,1.000000,0.000000,0.000000,0.000000,0.000000,1.569647,14.530448,0.701260
1650625393.307455,3376.000000,1650625393.307220,0.000000,0.000000,1.000000,0.000000,0.000000,0.000000,0.000000,1.555829,14.532139,0.706108
1650625393.406856,3377.000000,1650625393.406633,0.000000,0.000000,1.000000,0.000000,0.000000,0.000000,0.000000,1.549395,14.530425,0.722241
1650625393.506896,3378.000000,1650625393.506662,0.000000,0.000000,1.000000,0.000000,0.000000,0.000000,0.000000,1.545595,14.528769,0.749976
1650625393.606893,3379.000000,1650625393.606664,0.000000,0.000000,1.000000,0.000000,0.000000,0.000000,0.000000,1.539931,14.529356,0.789597
1650625393.706831,3380.000000,1650625393.706655,0.000000,0.000000,1.000000,0.000000,0.000000,0.000000,0.000000,1.530334,14.529884,0.824427
1650625393.806861,3381.000000,1650625393.806645,0.000000,0.000000,1.000000,0.000000,0.000000,0.000000,0.000000,1.529037,14.528173,0.860241
1650625393.906879,3382.000000,1650625393.906649,0.000000,0.000000,1.000000,0.000000,0.000000,0.000000,0.000000,1.525769,14.527625,0.892103
1650625394.006833,3383.000000,1650625394.006624,0.000000,0.000000,1.000000,0.000000,0.000000,0.000000,0.000000,1.525002,14.528180,0.921735
1650625394.107147,3384.000000,1650625394.106882,0.000000,0.000000,1.000000,0.000000,0.000000,0.000000,0.000000,1.515690,14.529776,0.935472
1650625394.206910,3385.000000,1650625394.206685,0.000000,0.000000,1.000000,0.000000,0.000000,0.000000,0.000000,1.512495,14.531262,0.949262
1650625394.306931,3386.000000,1650625394.306697,0.000000,0.000000,1.000000,0.000000,0.000000,0.000000,0.000000,1.496548,14.534822,0.973572
1650625394.406889,3387.000000,1650625394.406664,0.000000,0.000000,1.000000,0.000000,0.000000,0.000000,0.000000,1.482760,14.537061,0.999074
1650625394.506876,3388.000000,1650625394.506654,0.000000,0.000000,1.000000,0.000000,0.000000,0.000000,0.000000,1.476497,14.538048,1.025688
1650625394.606897,3389.000000,1650625394.606666,0.000000,0.000000,1.000000,0.000000,0.000000,0.000000,0.000000,1.477355,14.536758,0.994464
1650625394.706884,3390.000000,1650625394.706655,0.000000,0.000000,1.000000,0.000000,0.000000,0.000000,0.000000,1.475117,14.536594,0.983606
1650625394.806885,3391.000000,1650625394.806661,0.000000,0.000000,1.000000,0.000000,0.000000,0.000000,0.000000,1.474307,14.535316,0.986678
1650625394.907072,3392.000000,1650625394.906758,0.000000,0.000000,1.000000,0.000000,0.000000,0.000000,0.000000,1.466114,14.535172,0.988605
1650625395.006840,3393.000000,1650625395.006648,0.000000,0.000000,1.000000,0.000000,0.000000,0.000000,0.000000,1.460768,14.536101,0.988633
1650625395.106848,3394.000000,1650625395.106628,0.000000,0.000000,1.000000,0.000000,0.000000,0.000000,0.000000,1.459208,14.536953,1.000556
1650625395.206897,3395.000000,1650625395.206654,0.000000,0.000000,1.000000,0.000000,0.000000,0.000000,0.000000,1.459040,14.536641,1.012594
1650625395.306802,3396.000000,1650625395.306588,0.000000,0.000000,1.000000,0.000000,0.000000,0.000000,0.000000,1.456904,14.536321,1.033601
1650625395.406846,3397.000000,1650625395.406605,0.000000,0.000000,1.000000,0.000000,0.000000,0.000000,0.000000,1.451812,14.537087,1.050285
1650625395.506798,3398.000000,1650625395.506571,0.000000,0.000000,1.000000,0.000000,0.000000,0.000000,0.000000,1.469009,14.533426,1.007966
1650625395.606830,3399.000000,1650625395.606638,0.000000,0.000000,1.000000,0.000000,0.000000,0.000000,0.000000,1.483226,14.531044,0.982490
1650625395.707155,3400.000000,1650625395.706815,0.000000,0.000000,1.000000,0.000000,0.000000,0.000000,0.000000,1.494572,14.529880,0.967586
1650625395.806811,3401.000000,1650625395.806583,0.000000,0.000000,1.000000,0.000000,0.000000,0.000000,0.000000,1.509707,14.528781,0.964470
1650625395.906829,3402.000000,1650625395.906641,0.000000,0.000000,1.000000,0.000000,0.000000,0.000000,0.000000,1.520740,14.527746,0.977515
1650625396.006851,3403.000000,1650625396.006609,0.000000,0.000000,1.000000,0.000000,0.000000,0.000000,0.000000,1.528950,14.526776,0.990731
1650625396.106831,3404.000000,1650625396.106630,0.000000,0.000000,1.000000,0.000000,0.000000,0.000000,0.000000,1.535560,14.526959,1.008124
1650625396.206831,3405.000000,1650625396.206627,0.000000,0.000000,1.000000,0.000000,0.000000,0.000000,0.000000,1.534095,14.530412,1.027082
1650625396.306821,3406.000000,1650625396.306645,0.000000,0.000000,1.000000,0.000000,0.000000,0.000000,0.000000,1.532639,14.532585,1.047517
1650625396.406827,3407.000000,1650625396.406649,0.000000,0.000000,1.000000,0.000000,0.000000,0.000000,0.000000,1.529018,14.535720,1.067728
1650625396.507244,3408.000000,1650625396.506978,0.000000,0.000000,1.000000,0.000000,0.000000,0.000000,0.000000,1.525547,14.539757,1.077217
1650625396.606839,3409.000000,1650625396.606658,0.000000,0.000000,1.000000,0.000000,0.000000,0.000000,0.000000,1.521140,14.543544,1.084472
1650625396.706785,3410.000000,1650625396.706632,0.000000,0.000000,1.000000,0.000000,0.000000,0.000000,0.000000,1.513683,14.545994,1.092808
1650625396.806882,3411.000000,1650625396.806733,0.000000,0.000000,1.000000,0.000000,0.000000,0.000000,0.000000,1.506639,14.547175,1.106209
1650625396.906842,3412.000000,1650625396.906632,0.000000,0.000000,1.000000,0.000000,0.000000,0.000000,0.000000,1.504368,14.547155,1.122846
1650625397.006879,3413.000000,1650625397.006660,0.000000,0.000000,1.000000,0.000000,0.000000,0.000000,0.000000,1.497892,14.549272,1.145796
1650625397.106817,3414.000000,1650625397.106641,0.000000,0.000000,1.000000,0.000000,0.000000,0.000000,0.000000,1.516901,14.547955,1.111874
1650625397.206884,3415.000000,1650625397.206704,0.000000,0.000000,1.000000,0.000000,0.000000,0.000000,0.000000,1.545766,14.543397,1.040379
1650625397.307101,3416.000000,1650625397.306772,0.000000,0.000000,1.000000,0.000000,0.000000,0.000000,0.000000,1.565326,14.540154,0.984568
1650625397.406861,3417.000000,1650625397.406647,0.000000,0.000000,1.000000,0.000000,0.000000,0.000000,0.000000,1.576030,14.538165,0.947134
1650625397.506824,3418.000000,1650625397.506618,0.000000,0.000000,1.000000,0.000000,0.000000,0.000000,0.000000,1.587061,14.537369,0.924174
1650625397.606843,3419.000000,1650625397.606634,0.000000,0.000000,1.000000,0.000000,0.000000,0.000000,0.000000,1.595103,14.535523,0.921594
1650625397.706910,3420.000000,1650625397.706688,0.000000,0.000000,1.000000,0.000000,0.000000,0.000000,0.000000,1.592675,14.534871,0.934538
1650625397.806848,3421.000000,1650625397.806638,0.000000,0.000000,1.000000,0.000000,0.000000,0.000000,0.000000,1.592361,14.534259,0.950259
1650625397.906859,3422.000000,1650625397.906657,0.000000,0.000000,1.000000,0.000000,0.000000,0.000000,0.000000,1.595149,14.530416,0.975874
1650625398.006851,3423.000000,1650625398.006645,0.000000,0.000000,1.000000,0.000000,0.000000,0.000000,0.000000,1.595420,14.527891,1.002066
1650625398.107130,3424.000000,1650625398.106899,0.000000,0.000000,1.000000,0.000000,0.000000,0.000000,0.000000,1.591139,14.526619,1.014253
1650625398.206804,3425.000000,1650625398.206641,0.000000,0.000000,1.000000,0.000000,0.000000,0.000000,0.000000,1.583670,14.527625,1.012981
1650625398.307214,3426.000000,1650625398.307005,0.000000,0.000000,1.000000,0.000000,0.000000,0.000000,0.000000,1.580850,14.528600,1.023796
1650625398.406800,3427.000000,1650625398.406635,0.000000,0.000000,1.000000,0.000000,0.000000,0.000000,0.000000,1.579170,14.528449,1.041356
1650625398.506820,3428.000000,1650625398.506661,0.000000,0.000000,1.000000,0.000000,0.000000,0.000000,0.000000,1.576400,14.528324,1.058913
1650625398.606902,3429.000000,1650625398.606731,0.000000,0.000000,1.000000,0.000000,0.000000,0.000000,0.000000,1.578065,14.529314,1.074021
1650625398.706811,3430.000000,1650625398.706618,0.000000,0.000000,1.000000,0.000000,0.000000,0.000000,0.000000,1.574108,14.531354,1.081920
1650625398.806786,3431.000000,1650625398.806573,0.000000,0.000000,1.000000,0.000000,0.000000,0.000000,0.000000,1.569215,14.533289,1.082893
1650625398.906861,3432.000000,1650625398.906659,0.000000,0.000000,1.000000,0.000000,0.000000,0.000000,0.000000,1.569997,14.535118,1.093354
