__time,/dwm1001/id_458E/pose_kf/header/seq,/dwm1001/id_458E/pose_kf/header/stamp,/dwm1001/id_458E/pose_kf/pose/orientation/pitch_deg,/dwm1001/id_458E/pose_kf/pose/orientation/roll_deg,/dwm1001/id_458E/pose_kf/pose/orientation/w,/dwm1001/id_458E/pose_kf/pose/orientation/x,/dwm1001/id_458E/pose_kf/pose/orientation/y,/dwm1001/id_458E/pose_kf/pose/orientation/yaw_deg,/dwm1001/id_458E/pose_kf/pose/orientation/z,/dwm1001/id_458E/pose_kf/pose/position/x,/dwm1001/id_458E/pose_kf/pose/position/y,/dwm1001/id_458E/pose_kf/pose/position/z
1650624982.406569,602.000000,1650624982.406346,0.000000,0.000000,1.000000,0.000000,0.000000,0.000000,0.000000,3.383282,4.861344,-0.624586
1650624982.506603,603.000000,1650624982.506288,0.000000,0.000000,1.000000,0.000000,0.000000,0.000000,0.000000,3.382476,4.859421,-0.657082
1650624982.606517,604.000000,1650624982.606270,0.000000,0.000000,1.000000,0.000000,0.000000,0.000000,0.000000,3.380651,4.857585,-0.691313
1650624982.706544,605.000000,1650624982.706274,0.000000,0.000000,1.000000,0.000000,0.000000,0.000000,0.000000,3.377868,4.858020,-0.721512
1650624982.806532,606.000000,1650624982.806288,0.000000,0.000000,1.000000,0.000000,0.000000,0.000000,0.000000,3.374186,4.859510,-0.746187
1650624982.906902,607.000000,1650624982.906382,0.000000,0.000000,1.000000,0.000000,0.000000,0.000000,0.000000,3.371843,4.860904,-0.775208
1650624983.006572,608.000000,1650624983.006279,0.000000,0.000000,1.000000,0.000000,0.000000,0.000000,0.000000,3.370772,4.860022,-0.760784
1650624983.106735,609.000000,1650624983.106456,0.000000,0.000000,1.000000,0.000000,0.000000,0.000000,0.000000,3.369812,4.860264,-0.759541
1650624983.206614,610.000000,1650624983.206335,0.000000,0.000000,1.000000,0.000000,0.000000,0.000000,0.000000,3.368959,4.861568,-0.751610
1650624983.306785,611.000000,1650624983.306602,0.000000,0.000000,1.000000,0.000000,0.000000,0.000000,0.000000,3.368205,4.862783,-0.738898
1650624983.406491,612.000000,1650624983.406294,0.000000,0.000000,1.000000,0.000000,0.000000,0.000000,0.000000,3.367544,4.862820,-0.730501
1650624983.506524,613.000000,1650624983.506258,0.000000,0.000000,1.000000,0.000000,0.000000,0.000000,0.000000,3.368062,4.861746,-0.723044
1650624983.606613,614.000000,1650624983.606365,0.000000,0.000000,1.000000,0.000000,0.000000,0.000000,0.000000,3.367507,4.860714,-0.715703
1650624983.706641,615.000000,1650624983.706378,0.000000,0.000000,1.000000,0.000000,0.000000,0.000000,0.000000,3.368120,4.860818,-0.717365
1650624983.806477,616.000000,1650624983.806214,0.000000,0.000000,1.000000,0.000000,0.000000,0.000000,0.000000,3.367649,4.859815,-0.709930
1650624983.906433,617.000000,1650624983.906215,0.000000,0.000000,1.000000,0.000000,0.000000,0.000000,0.000000,3.368336,4.858860,-0.714750
1650624984.006538,618.000000,1650624984.006258,0.000000,0.000000,1.000000,0.000000,0.000000,0.000000,0.000000,3.370111,4.857953,-0.712782
1650624984.106516,619.000000,1650624984.106328,0.000000,0.000000,1.000000,0.000000,0.000000,0.000000,0.000000,3.376179,4.854914,-0.679308
1650624984.206530,620.000000,1650624984.206329,0.000000,0.000000,1.000000,0.000000,0.000000,0.000000,0.000000,3.383015,4.853140,-0.662435
1650624984.306552,621.000000,1650624984.306293,0.000000,0.000000,1.000000,0.000000,0.000000,0.000000,0.000000,3.386193,4.852568,-0.660718
1650624984.406547,622.000000,1650624984.406310,0.000000,0.000000,1.000000,0.000000,0.000000,0.000000,0.000000,3.388084,4.852041,-0.667100
1650624984.506819,623.000000,1650624984.506377,0.000000,0.000000,1.000000,0.000000,0.000000,0.000000,0.000000,3.387662,4.850469,-0.633665
1650624984.606525,624.000000,1650624984.606287,0.000000,0.000000,1.000000,0.000000,0.000000,0.000000,0.000000,3.387239,4.847912,-0.621753
1650624984.706530,625.000000,1650624984.706307,0.000000,0.000000,1.000000,0.000000,0.000000,0.000000,0.000000,3.393358,4.844430,-0.586161
1650624984.806538,626.000000,1650624984.806303,0.000000,0.000000,1.000000,0.000000,0.000000,0.000000,0.000000,3.396923,4.841175,-0.573871
1650624984.906481,627.000000,1650624984.906278,0.000000,0.000000,1.000000,0.000000,0.000000,0.000000,0.000000,3.398064,4.840322,-0.573476
1650624985.006461,628.000000,1650624985.006237,0.000000,0.000000,1.000000,0.000000,0.000000,0.000000,0.000000,3.396912,4.839560,-0.586106
1650624985.106471,629.000000,1650624985.106243,0.000000,0.000000,1.000000,0.000000,0.000000,0.000000,0.000000,3.394688,4.839974,-0.590243
1650624985.206552,630.000000,1650624985.206267,0.000000,0.000000,1.000000,0.000000,0.000000,0.000000,0.000000,3.395823,4.837135,-0.556379
1650624985.306527,631.000000,1650624985.306280,0.000000,0.000000,1.000000,0.000000,0.000000,0.000000,0.000000,3.394679,4.835588,-0.544166
1650624985.406526,632.000000,1650624985.406313,0.000000,0.000000,1.000000,0.000000,0.000000,0.000000,0.000000,3.393568,4.833084,-0.541455
1650624985.506497,633.000000,1650624985.506284,0.000000,0.000000,1.000000,0.000000,0.000000,0.000000,0.000000,3.393583,4.831862,-0.536573
1650624985.606574,634.000000,1650624985.606366,0.000000,0.000000,1.000000,0.000000,0.000000,0.000000,0.000000,3.391393,4.831851,-0.523963
1650624985.706550,635.000000,1650624985.706329,0.000000,0.000000,1.000000,0.000000,0.000000,0.000000,0.000000,3.390398,4.832983,-0.524115
1650624985.806346,636.000000,1650624985.806104,0.000000,0.000000,1.000000,0.000000,0.000000,0.000000,0.000000,3.389446,4.834099,-0.534894
1650624985.906243,637.000000,1650624985.906033,0.000000,0.000000,1.000000,0.000000,0.000000,0.000000,0.000000,3.398351,4.831922,-0.506654
1650624986.006240,638.000000,1650624986.006061,0.000000,0.000000,1.000000,0.000000,0.000000,0.000000,0.000000,3.404556,4.832088,-0.493429
1650624986.106334,639.000000,1650624986.106111,0.000000,0.000000,1.000000,0.000000,0.000000,0.000000,0.000000,3.407099,4.832286,-0.497855
1650624986.206217,640.000000,1650624986.206014,0.000000,0.000000,1.000000,0.000000,0.000000,0.000000,0.000000,3.408355,4.833601,-0.498239
1650624986.306164,641.000000,1650624986.305996,0.000000,0.000000,1.000000,0.000000,0.000000,0.000000,0.000000,3.407304,4.833785,-0.504412
1650624986.406527,642.000000,1650624986.406279,0.000000,0.000000,1.000000,0.000000,0.000000,0.000000,0.000000,3.407349,4.835079,-0.520963
1650624986.506572,643.000000,1650624986.506355,0.000000,0.000000,1.000000,0.000000,0.000000,0.000000,0.000000,3.407343,4.836326,-0.544214
1650624986.606554,644.000000,1650624986.606315,0.000000,0.000000,1.000000,0.000000,0.000000,0.000000,0.000000,3.405111,4.838613,-0.570625
1650624986.706511,645.000000,1650624986.706332,0.000000,0.000000,1.000000,0.000000,0.000000,0.000000,0.000000,3.402964,4.840786,-0.601634
1650624986.806509,646.000000,1650624986.806329,0.000000,0.000000,1.000000,0.000000,0.000000,0.000000,0.000000,3.401997,4.842842,-0.621679
1650624986.906645,647.000000,1650624986.906409,0.000000,0.000000,1.000000,0.000000,0.000000,0.000000,0.000000,3.399969,4.844782,-0.645687
1650624987.006296,648.000000,1650624987.006059,0.000000,0.000000,1.000000,0.000000,0.000000,0.000000,0.000000,3.396947,4.848788,-0.668621
1650624987.106180,649.000000,1650624987.106004,0.000000,0.000000,1.000000,0.000000,0.000000,0.000000,0.000000,3.394085,4.851462,-0.696135
1650624987.206116,650.000000,1650624987.205962,0.000000,0.000000,1.000000,0.000000,0.000000,0.000000,0.000000,3.393563,4.853961,-0.726390
1650624987.306183,651.000000,1650624987.306011,0.000000,0.000000,1.000000,0.000000,0.000000,0.000000,0.000000,3.393077,4.856289,-0.739072
1650624987.406224,652.000000,1650624987.406057,0.000000,0.000000,1.000000,0.000000,0.000000,0.000000,0.000000,3.390443,4.858450,-0.748586
1650624987.506158,653.000000,1650624987.505939,0.000000,0.000000,1.000000,0.000000,0.000000,0.000000,0.000000,3.386877,4.859357,-0.759893
1650624987.606208,654.000000,1650624987.606038,0.000000,0.000000,1.000000,0.000000,0.000000,0.000000,0.000000,3.384622,4.859079,-0.763233
1650624987.706182,655.000000,1650624987.706009,0.000000,0.000000,1.000000,0.000000,0.000000,0.000000,0.000000,3.381430,4.859864,-0.757320
1650624987.806178,656.000000,1650624987.806009,0.000000,0.000000,1.000000,0.000000,0.000000,0.000000,0.000000,3.379541,4.859474,-0.765129
1650624987.906184,657.000000,1650624987.905997,0.000000,0.000000,1.000000,0.000000,0.000000,0.000000,0.000000,3.377799,4.857977,-0.782069
1650624988.006154,658.000000,1650624988.005996,0.000000,0.000000,1.000000,0.000000,0.000000,0.000000,0.000000,3.380559,4.854349,-0.757755
1650624988.106177,659.000000,1650624988.105978,0.000000,0.000000,1.000000,0.000000,0.000000,0.000000,0.000000,3.377751,4.848720,-0.699544
1650624988.206724,660.000000,1650624988.206420,0.000000,0.000000,1.000000,0.000000,0.000000,0.000000,0.000000,3.377319,4.846669,-0.654879
1650624988.306890,661.000000,1650624988.306714,0.000000,0.000000,1.000000,0.000000,0.000000,0.000000,0.000000,3.378040,4.844737,-0.620874
1650624988.406562,662.000000,1650624988.406336,0.000000,0.000000,1.000000,0.000000,0.000000,0.000000,0.000000,3.379849,4.841832,-0.601190
1650624988.506659,663.000000,1650624988.506403,0.000000,0.000000,1.000000,0.000000,0.000000,0.000000,0.000000,3.380497,4.840197,-0.589635
1650624988.606540,664.000000,1650624988.606278,0.000000,0.000000,1.000000,0.000000,0.000000,0.000000,0.000000,3.383315,4.840857,-0.586705
1650624988.706618,665.000000,1650624988.706340,0.000000,0.000000,1.000000,0.000000,0.000000,0.000000,0.000000,3.382723,4.842593,-0.592053
1650624988.806572,666.000000,1650624988.806344,0.000000,0.000000,1.000000,0.000000,0.000000,0.000000,0.000000,3.379997,4.844250,-0.603720
1650624988.906613,667.000000,1650624988.906393,0.000000,0.000000,1.000000,0.000000,0.000000,0.000000,0.000000,3.377443,4.845824,-0.604491
1650624989.006510,668.000000,1650624989.006280,0.000000,0.000000,1.000000,0.000000,0.000000,0.000000,0.000000,3.377238,4.847317,-0.618997
1650624989.106527,669.000000,1650624989.106304,0.000000,0.000000,1.000000,0.000000,0.000000,0.000000,0.000000,3.379253,4.848726,-0.639398
1650624989.206214,670.000000,1650624989.206020,0.000000,0.000000,1.000000,0.000000,0.000000,0.000000,0.000000,3.380089,4.848962,-0.665421
1650624989.306420,671.000000,1650624989.306140,0.000000,0.000000,1.000000,0.000000,0.000000,0.000000,0.000000,3.378716,4.849179,-0.683086
1650624989.406191,672.000000,1650624989.405995,0.000000,0.000000,1.000000,0.000000,0.000000,0.000000,0.000000,3.377437,4.849378,-0.701572
1650624989.506166,673.000000,1650624989.505979,0.000000,0.000000,1.000000,0.000000,0.000000,0.000000,0.000000,3.377341,4.849558,-0.725659
1650624989.606192,674.000000,1650624989.606000,0.000000,0.000000,1.000000,0.000000,0.000000,0.000000,0.000000,3.379454,4.850813,-0.747018
1650624989.706257,675.000000,1650624989.706046,0.000000,0.000000,1.000000,0.000000,0.000000,0.000000,0.000000,3.382555,4.850897,-0.773794
1650624989.806641,676.000000,1650624989.806425,0.000000,0.000000,1.000000,0.000000,0.000000,0.000000,0.000000,3.384401,4.850967,-0.802506
1650624989.906556,677.000000,1650624989.906357,0.000000,0.000000,1.000000,0.000000,0.000000,0.000000,0.000000,3.391596,4.849933,-0.791099
1650624990.006589,678.000000,1650624990.006345,0.000000,0.000000,1.000000,0.000000,0.000000,0.000000,0.000000,3.398373,4.847859,-0.793640
1650624990.106601,679.000000,1650624990.106380,0.000000,0.000000,1.000000,0.000000,0.000000,0.000000,0.000000,3.402556,4.849170,-0.799088
1650624990.206578,680.000000,1650624990.206359,0.000000,0.000000,1.000000,0.000000,0.000000,0.000000,0.000000,3.405365,4.849315,-0.814583
1650624990.306461,681.000000,1650624990.306277,0.000000,0.000000,1.000000,0.000000,0.000000,0.000000,0.000000,3.406869,4.849449,-0.830027
1650624990.406429,682.000000,1650624990.406197,0.000000,0.000000,1.000000,0.000000,0.000000,0.000000,0.000000,3.408229,4.850663,-0.833307
1650624990.506492,683.000000,1650624990.506318,0.000000,0.000000,1.000000,0.000000,0.000000,0.000000,0.000000,3.408362,4.850712,-0.846694
1650624990.606628,684.000000,1650624990.606351,0.000000,0.000000,1.000000,0.000000,0.000000,0.000000,0.000000,3.407337,4.849661,-0.865735
1650624990.706272,685.000000,1650624990.706062,0.000000,0.000000,1.000000,0.000000,0.000000,0.000000,0.000000,3.406314,4.849754,-0.866795
1650624990.806221,686.000000,1650624990.806037,0.000000,0.000000,1.000000,0.000000,0.000000,0.000000,0.000000,3.399849,4.847658,-0.826413
1650624990.906250,687.000000,1650624990.906064,0.000000,0.000000,1.000000,0.000000,0.000000,0.000000,0.000000,3.394802,4.846770,-0.797953
1650624991.006174,688.000000,1650624991.006005,0.000000,0.000000,1.000000,0.000000,0.000000,0.000000,0.000000,3.388934,4.845936,-0.784217
1650624991.106169,689.000000,1650624991.106004,0.000000,0.000000,1.000000,0.000000,0.000000,0.000000,0.000000,3.384487,4.845155,-0.784640
1650624991.206163,690.000000,1650624991.205992,0.000000,0.000000,1.000000,0.000000,0.000000,0.000000,0.000000,3.381399,4.845518,-0.791397
1650624991.306243,691.000000,1650624991.306059,0.000000,0.000000,1.000000,0.000000,0.000000,0.000000,0.000000,3.377423,4.846959,-0.802613
1650624991.406319,692.000000,1650624991.406109,0.000000,0.000000,1.000000,0.000000,0.000000,0.000000,0.000000,3.374798,4.847236,-0.820512
1650624991.506336,693.000000,1650624991.506141,0.000000,0.000000,1.000000,0.000000,0.000000,0.000000,0.000000,3.373456,4.848589,-0.835930
1650624991.606250,694.000000,1650624991.606002,0.000000,0.000000,1.000000,0.000000,0.000000,0.000000,0.000000,3.370058,4.848777,-0.844913
1650624991.706294,695.000000,1650624991.706103,0.000000,0.000000,1.000000,0.000000,0.000000,0.000000,0.000000,3.367995,4.850042,-0.841262
1650624991.806281,696.000000,1650624991.806084,0.000000,0.000000,1.000000,0.000000,0.000000,0.000000,0.000000,3.365016,4.851232,-0.844854
1650624991.906233,697.000000,1650624991.906041,0.000000,0.000000,1.000000,0.000000,0.000000,0.000000,0.000000,3.361178,4.852347,-0.837656
1650624992.006315,698.000000,1650624992.006150,0.000000,0.000000,1.000000,0.000000,0.000000,0.000000,0.000000,3.358714,4.853389,-0.841896
1650624992.106286,699.000000,1650624992.106117,0.000000,0.000000,1.000000,0.000000,0.000000,0.000000,0.000000,3.357555,4.854359,-0.854693
1650624992.206274,700.000000,1650624992.206095,0.000000,0.000000,1.000000,0.000000,0.000000,0.000000,0.000000,3.359809,4.856349,-0.863589
1650624992.306257,701.000000,1650624992.306073,0.000000,0.000000,1.000000,0.000000,0.000000,0.000000,0.000000,3.362007,4.858208,-0.874378
1650624992.406248,702.000000,1650624992.406064,0.000000,0.000000,1.000000,0.000000,0.000000,0.000000,0.000000,3.361961,4.859939,-0.875682
1650624992.506329,703.000000,1650624992.506099,0.000000,0.000000,1.000000,0.000000,0.000000,0.000000,0.000000,3.361970,4.860453,-0.871922
1650624992.606283,704.000000,1650624992.606092,0.000000,0.000000,1.000000,0.000000,0.000000,0.000000,0.000000,3.363120,4.861999,-0.870572
1650624992.706311,705.000000,1650624992.706117,0.000000,0.000000,1.000000,0.000000,0.000000,0.000000,0.000000,3.363159,4.862337,-0.873158
1650624992.806163,706.000000,1650624992.805999,0.000000,0.000000,1.000000,0.000000,0.000000,0.000000,0.000000,3.367599,4.859352,-0.840007
1650624992.906245,707.000000,1650624992.906065,0.000000,0.000000,1.000000,0.000000,0.000000,0.000000,0.000000,3.370732,4.857598,-0.822622
1650624993.006230,708.000000,1650624993.006064,0.000000,0.000000,1.000000,0.000000,0.000000,0.000000,0.000000,3.374797,4.855924,-0.817175
1650624993.106233,709.000000,1650624993.106067,0.000000,0.000000,1.000000,0.000000,0.000000,0.000000,0.000000,3.377550,4.854333,-0.819163
1650624993.206221,710.000000,1650624993.206053,0.000000,0.000000,1.000000,0.000000,0.000000,0.000000,0.000000,3.377964,4.853915,-0.807318
1650624993.306713,711.000000,1650624993.306500,0.000000,0.000000,1.000000,0.000000,0.000000,0.000000,0.000000,3.378345,4.854609,-0.789477
1650624993.406289,712.000000,1650624993.406102,0.000000,0.000000,1.000000,0.000000,0.000000,0.000000,0.000000,3.378695,4.854171,-0.777204
1650624993.506150,713.000000,1650624993.505973,0.000000,0.000000,1.000000,0.000000,0.000000,0.000000,0.000000,3.381196,4.851573,-0.772713
1650624993.606160,714.000000,1650624993.605994,0.000000,0.000000,1.000000,0.000000,0.000000,0.000000,0.000000,3.381362,4.849123,-0.767634
1650624993.706225,715.000000,1650624993.706073,0.000000,0.000000,1.000000,0.000000,0.000000,0.000000,0.000000,3.380411,4.846820,-0.758770
1650624993.806326,716.000000,1650624993.806141,0.000000,0.000000,1.000000,0.000000,0.000000,0.000000,0.000000,3.380588,4.844662,-0.750320
1650624993.906260,717.000000,1650624993.906067,0.000000,0.000000,1.000000,0.000000,0.000000,0.000000,0.000000,3.380742,4.842647,-0.746311
1650624994.006222,718.000000,1650624994.005986,0.000000,0.000000,1.000000,0.000000,0.000000,0.000000,0.000000,3.379785,4.840772,-0.743343
1650624994.106298,719.000000,1650624994.106126,0.000000,0.000000,1.000000,0.000000,0.000000,0.000000,0.000000,3.377779,4.839034,-0.749441
1650624994.206266,720.000000,1650624994.206118,0.000000,0.000000,1.000000,0.000000,0.000000,0.000000,0.000000,3.376971,4.838519,-0.763418
1650624994.306146,721.000000,1650624994.305982,0.000000,0.000000,1.000000,0.000000,0.000000,0.000000,0.000000,3.376208,4.839160,-0.780092
1650624994.406159,722.000000,1650624994.405996,0.000000,0.000000,1.000000,0.000000,0.000000,0.000000,0.000000,3.374398,4.840889,-0.794486
1650624994.506324,723.000000,1650624994.506143,0.000000,0.000000,1.000000,0.000000,0.000000,0.000000,0.000000,3.372695,4.841460,-0.801829
1650624994.606193,724.000000,1650624994.606023,0.000000,0.000000,1.000000,0.000000,0.000000,0.000000,0.000000,3.371097,4.840932,-0.817716
1650624994.706212,725.000000,1650624994.706058,0.000000,0.000000,1.000000,0.000000,0.000000,0.000000,0.000000,3.369604,4.840455,-0.837744
1650624994.806241,726.000000,1650624994.806082,0.000000,0.000000,1.000000,0.000000,0.000000,0.000000,0.000000,3.367123,4.841119,-0.844780
1650624994.906339,727.000000,1650624994.906150,0.000000,0.000000,1.000000,0.000000,0.000000,0.000000,0.000000,3.366986,4.841765,-0.847403
1650624995.006121,728.000000,1650624995.005955,0.000000,0.000000,1.000000,0.000000,0.000000,0.000000,0.000000,3.369063,4.842393,-0.853856
1650624995.106230,729.000000,1650624995.106045,0.000000,0.000000,1.000000,0.000000,0.000000,0.000000,0.000000,3.372136,4.843001,-0.859945
1650624995.206256,730.000000,1650624995.206090,0.000000,0.000000,1.000000,0.000000,0.000000,0.000000,0.000000,3.375049,4.843586,-0.872130
1650624995.306609,731.000000,1650624995.306371,0.000000,0.000000,1.000000,0.000000,0.000000,0.000000,0.000000,3.376711,4.845238,-0.883699
1650624995.406590,732.000000,1650624995.406365,0.000000,0.000000,1.000000,0.000000,0.000000,0.000000,0.000000,3.378276,4.846803,-0.898693
1650624995.506580,733.000000,1650624995.506350,0.000000,0.000000,1.000000,0.000000,0.000000,0.000000,0.000000,3.377563,4.849370,-0.912116
1650624995.606586,734.000000,1650624995.606322,0.000000,0.000000,1.000000,0.000000,0.000000,0.000000,0.000000,3.377970,4.850698,-0.917565
1650624995.706730,735.000000,1650624995.706366,0.000000,0.000000,1.000000,0.000000,0.000000,0.000000,0.000000,3.378346,4.850848,-0.922616
1650624995.806628,736.000000,1650624995.806415,0.000000,0.000000,1.000000,0.000000,0.000000,0.000000,0.000000,3.376510,4.850977,-0.934543
1650624995.906490,737.000000,1650624995.906236,0.000000,0.000000,1.000000,0.000000,0.000000,0.000000,0.000000,3.375862,4.849995,-0.949831
1650624996.006488,738.000000,1650624996.006232,0.000000,0.000000,1.000000,0.000000,0.000000,0.000000,0.000000,3.375246,4.849058,-0.966712
1650624996.106551,739.000000,1650624996.106349,0.000000,0.000000,1.000000,0.000000,0.000000,0.000000,0.000000,3.375756,4.848165,-0.974619
1650624996.206679,740.000000,1650624996.206458,0.000000,0.000000,1.000000,0.000000,0.000000,0.000000,0.000000,3.376236,4.848409,-0.969071
1650624996.306621,741.000000,1650624996.306376,0.000000,0.000000,1.000000,0.000000,0.000000,0.000000,0.000000,3.376688,4.847546,-0.972404
1650624996.406569,742.000000,1650624996.406378,0.000000,0.000000,1.000000,0.000000,0.000000,0.000000,0.000000,3.377112,4.846730,-0.980231
1650624996.506700,743.000000,1650624996.506464,0.000000,0.000000,1.000000,0.000000,0.000000,0.000000,0.000000,3.375326,4.845960,-0.992366
1650624996.606612,744.000000,1650624996.606385,0.000000,0.000000,1.000000,0.000000,0.000000,0.000000,0.000000,3.375820,4.844146,-1.007819
1650624996.706477,745.000000,1650624996.706259,0.000000,0.000000,1.000000,0.000000,0.000000,0.000000,0.000000,3.369744,4.841351,-0.978050
1650624996.806436,746.000000,1650624996.806231,0.000000,0.000000,1.000000,0.000000,0.000000,0.000000,0.000000,3.366198,4.841997,-0.954137
1650624996.906534,747.000000,1650624996.906341,0.000000,0.000000,1.000000,0.000000,0.000000,0.000000,0.000000,3.362874,4.842623,-0.922990
1650624997.006584,748.000000,1650624997.006362,0.000000,0.000000,1.000000,0.000000,0.000000,0.000000,0.000000,3.361949,4.843228,-0.906732
1650624997.106543,749.000000,1650624997.106348,0.000000,0.000000,1.000000,0.000000,0.000000,0.000000,0.000000,3.363294,4.842718,-0.902375
1650624997.206542,750.000000,1650624997.206319,0.000000,0.000000,1.000000,0.000000,0.000000,0.000000,0.000000,3.363506,4.842247,-0.906222
1650624997.306581,751.000000,1650624997.306391,0.000000,0.000000,1.000000,0.000000,0.000000,0.000000,0.000000,3.364827,4.842904,-0.896163
1650624997.406615,752.000000,1650624997.406372,0.000000,0.000000,1.000000,0.000000,0.000000,0.000000,0.000000,3.363918,4.843534,-0.879230
1650624997.506466,753.000000,1650624997.506230,0.000000,0.000000,1.000000,0.000000,0.000000,0.000000,0.000000,3.361994,4.841955,-0.871859
1650624997.606536,754.000000,1650624997.606267,0.000000,0.000000,1.000000,0.000000,0.000000,0.000000,0.000000,3.360204,4.843744,-0.867223
1650624997.706580,755.000000,1650624997.706368,0.000000,0.000000,1.000000,0.000000,0.000000,0.000000,0.000000,3.358545,4.845440,-0.854737
1650624997.806562,756.000000,1650624997.806343,0.000000,0.000000,1.000000,0.000000,0.000000,0.000000,0.000000,3.355922,4.848133,-0.847640
1650624997.906217,757.000000,1650624997.906005,0.000000,0.000000,1.000000,0.000000,0.000000,0.000000,0.000000,3.354576,4.850671,-0.835240
1650624998.006257,758.000000,1650624998.006078,0.000000,0.000000,1.000000,0.000000,0.000000,0.000000,0.000000,3.353348,4.853053,-0.812932
1650624998.106395,759.000000,1650624998.106142,0.000000,0.000000,1.000000,0.000000,0.000000,0.000000,0.000000,3.351142,4.855282,-0.788408
1650624998.206198,760.000000,1650624998.205968,0.000000,0.000000,1.000000,0.000000,0.000000,0.000000,0.000000,3.349106,4.857361,-0.774697
1650624998.306526,761.000000,1650624998.306356,0.000000,0.000000,1.000000,0.000000,0.000000,0.000000,0.000000,3.346145,4.859292,-0.763316
1650624998.406199,762.000000,1650624998.405995,0.000000,0.000000,1.000000,0.000000,0.000000,0.000000,0.000000,3.343405,4.862171,-0.741279
1650624998.506304,763.000000,1650624998.506129,0.000000,0.000000,1.000000,0.000000,0.000000,0.000000,0.000000,3.341970,4.864848,-0.717918
1650624998.606205,764.000000,1650624998.606009,0.000000,0.000000,1.000000,0.000000,0.000000,0.000000,0.000000,3.340679,4.866238,-0.701382
1650624998.706178,765.000000,1650624998.705994,0.000000,0.000000,1.000000,0.000000,0.000000,0.000000,0.000000,3.341705,4.867500,-0.695445
1650624998.806175,766.000000,1650624998.805990,0.000000,0.000000,1.000000,0.000000,0.000000,0.000000,0.000000,3.343825,4.868641,-0.697260
1650624998.906337,767.000000,1650624998.906093,0.000000,0.000000,1.000000,0.000000,0.000000,0.000000,0.000000,3.346969,4.868575,-0.708921
1650624999.006218,768.000000,1650624999.006034,0.000000,0.000000,1.000000,0.000000,0.000000,0.000000,0.000000,3.351068,4.867372,-0.727581
1650624999.106209,769.000000,1650624999.106028,0.000000,0.000000,1.000000,0.000000,0.000000,0.000000,0.000000,3.353875,4.867281,-0.746466
1650624999.206136,770.000000,1650624999.205980,0.000000,0.000000,1.000000,0.000000,0.000000,0.000000,0.000000,3.354360,4.866064,-0.770367
1650624999.306201,771.000000,1650624999.306026,0.000000,0.000000,1.000000,0.000000,0.000000,0.000000,0.000000,3.353736,4.863788,-0.796616
1650624999.406223,772.000000,1650624999.406032,0.000000,0.000000,1.000000,0.000000,0.000000,0.000000,0.000000,3.352067,4.861610,-0.824263
1650624999.506249,773.000000,1650624999.506078,0.000000,0.000000,1.000000,0.000000,0.000000,0.000000,0.000000,3.350504,4.861715,-0.832237
1650624999.606174,774.000000,1650624999.606012,0.000000,0.000000,1.000000,0.000000,0.000000,0.000000,0.000000,3.351226,4.860707,-0.830188
1650624999.706185,775.000000,1650624999.706015,0.000000,0.000000,1.000000,0.000000,0.000000,0.000000,0.000000,3.350834,4.860833,-0.814491
1650624999.806180,776.000000,1650624999.805956,0.000000,0.000000,1.000000,0.000000,0.000000,0.000000,0.000000,3.351570,4.859848,-0.761532
1650624999.906175,777.000000,1650624999.906019,0.000000,0.000000,1.000000,0.000000,0.000000,0.000000,0.000000,3.351188,4.857819,-0.733386
1650625000.006230,778.000000,1650625000.006055,0.000000,0.000000,1.000000,0.000000,0.000000,0.000000,0.000000,3.350841,4.856990,-0.708127
1650625000.106284,779.000000,1650625000.106113,0.000000,0.000000,1.000000,0.000000,0.000000,0.000000,0.000000,3.351616,4.857297,-0.699387
1650625000.206222,780.000000,1650625000.205988,0.000000,0.000000,1.000000,0.000000,0.000000,0.000000,0.000000,3.350179,4.855407,-0.654894
1650625000.306227,781.000000,1650625000.306064,0.000000,0.000000,1.000000,0.000000,0.000000,0.000000,0.000000,3.351016,4.854716,-0.633415
1650625000.406211,782.000000,1650625000.406034,0.000000,0.000000,1.000000,0.000000,0.000000,0.000000,0.000000,3.353998,4.854071,-0.630823
1650625000.506242,783.000000,1650625000.506075,0.000000,0.000000,1.000000,0.000000,0.000000,0.000000,0.000000,3.357909,4.853471,-0.624573
1650625000.606127,784.000000,1650625000.605970,0.000000,0.000000,1.000000,0.000000,0.000000,0.000000,0.000000,3.360506,4.851824,-0.630137
1650625000.706251,785.000000,1650625000.706077,0.000000,0.000000,1.000000,0.000000,0.000000,0.000000,0.000000,3.361851,4.850282,-0.629274
1650625000.806235,786.000000,1650625000.806066,0.000000,0.000000,1.000000,0.000000,0.000000,0.000000,0.000000,3.367463,4.846663,-0.596429
1650625000.906254,787.000000,1650625000.906057,0.000000,0.000000,1.000000,0.000000,0.000000,0.000000,0.000000,3.373821,4.844361,-0.576484
1650625001.006235,788.000000,1650625001.006047,0.000000,0.000000,1.000000,0.000000,0.000000,0.000000,0.000000,3.377595,4.843310,-0.560070
1650625001.106216,789.000000,1650625001.106052,0.000000,0.000000,1.000000,0.000000,0.000000,0.000000,0.000000,3.388731,4.840172,-0.519641
1650625001.206228,790.000000,1650625001.206042,0.000000,0.000000,1.000000,0.000000,0.000000,0.000000,0.000000,3.394804,4.837249,-0.503799
1650625001.306279,791.000000,1650625001.306085,0.000000,0.000000,1.000000,0.000000,0.000000,0.000000,0.000000,3.398254,4.836718,-0.486566
1650625001.406119,792.000000,1650625001.405956,0.000000,0.000000,1.000000,0.000000,0.000000,0.000000,0.000000,3.404674,4.835174,-0.444623
1650625001.506136,793.000000,1650625001.505970,0.000000,0.000000,1.000000,0.000000,0.000000,0.000000,0.000000,3.408435,4.834857,-0.409664
1650625001.606250,794.000000,1650625001.606075,0.000000,0.000000,1.000000,0.000000,0.000000,0.000000,0.000000,3.409678,4.835697,-0.394353
1650625001.706159,795.000000,1650625001.705989,0.000000,0.000000,1.000000,0.000000,0.000000,0.000000,0.000000,3.412905,4.833264,-0.350321
1650625001.806225,796.000000,1650625001.806054,0.000000,0.000000,1.000000,0.000000,0.000000,0.000000,0.000000,3.413644,4.832103,-0.334426
1650625001.906303,797.000000,1650625001.906128,0.000000,0.000000,1.000000,0.000000,0.000000,0.000000,0.000000,3.412036,4.828875,-0.332632
1650625002.006241,798.000000,1650625002.006044,0.000000,0.000000,1.000000,0.000000,0.000000,0.000000,0.000000,3.408221,4.829151,-0.341933
1650625002.106292,799.000000,1650625002.106092,0.000000,0.000000,1.000000,0.000000,0.000000,0.000000,0.000000,3.403428,4.829466,-0.358617
1650625002.206340,800.000000,1650625002.206100,0.000000,0.000000,1.000000,0.000000,0.000000,0.000000,0.000000,3.397732,4.831993,-0.382337
1650625002.306283,801.000000,1650625002.306088,0.000000,0.000000,1.000000,0.000000,0.000000,0.000000,0.000000,3.392293,4.836602,-0.407911
1650625002.406317,802.000000,1650625002.406114,0.000000,0.000000,1.000000,0.000000,0.000000,0.000000,0.000000,3.407835,4.842071,-0.392463
1650625002.506262,803.000000,1650625002.506082,0.000000,0.000000,1.000000,0.000000,0.000000,0.000000,0.000000,3.417000,4.846156,-0.394917
1650625002.606247,804.000000,1650625002.606051,0.000000,0.000000,1.000000,0.000000,0.000000,0.000000,0.000000,3.423380,4.851098,-0.399210
1650625002.706230,805.000000,1650625002.706039,0.000000,0.000000,1.000000,0.000000,0.000000,0.000000,0.000000,3.424934,4.854656,-0.417344
1650625002.806275,806.000000,1650625002.806079,0.000000,0.000000,1.000000,0.000000,0.000000,0.000000,0.000000,3.427378,4.857986,-0.439846
1650625002.906299,807.000000,1650625002.906096,0.000000,0.000000,1.000000,0.000000,0.000000,0.000000,0.000000,3.426301,4.862181,-0.465685
1650625003.006311,808.000000,1650625003.006074,0.000000,0.000000,1.000000,0.000000,0.000000,0.000000,0.000000,3.424085,4.865004,-0.481771
1650625003.106246,809.000000,1650625003.106038,0.000000,0.000000,1.000000,0.000000,0.000000,0.000000,0.000000,3.421897,4.865432,-0.507816
1650625003.206297,810.000000,1650625003.206098,0.000000,0.000000,1.000000,0.000000,0.000000,0.000000,0.000000,3.420836,4.865779,-0.538533
1650625003.306559,811.000000,1650625003.306341,0.000000,0.000000,1.000000,0.000000,0.000000,0.000000,0.000000,3.419761,4.866053,-0.574483
1650625003.406225,812.000000,1650625003.406027,0.000000,0.000000,1.000000,0.000000,0.000000,0.000000,0.000000,3.415407,4.865168,-0.600072
1650625003.506238,813.000000,1650625003.506034,0.000000,0.000000,1.000000,0.000000,0.000000,0.000000,0.000000,3.412332,4.864284,-0.628578
1650625003.606139,814.000000,1650625003.605991,0.000000,0.000000,1.000000,0.000000,0.000000,0.000000,0.000000,3.409389,4.864497,-0.645323
1650625003.706268,815.000000,1650625003.706089,0.000000,0.000000,1.000000,0.000000,0.000000,0.000000,0.000000,3.405492,4.861387,-0.666888
1650625003.806233,816.000000,1650625003.806050,0.000000,0.000000,1.000000,0.000000,0.000000,0.000000,0.000000,3.403977,4.857328,-0.646272
1650625003.906144,817.000000,1650625003.905978,0.000000,0.000000,1.000000,0.000000,0.000000,0.000000,0.000000,3.403630,4.854568,-0.629575
1650625004.006203,818.000000,1650625004.006024,0.000000,0.000000,1.000000,0.000000,0.000000,0.000000,0.000000,3.404388,4.851954,-0.629575
1650625004.106233,819.000000,1650625004.106019,0.000000,0.000000,1.000000,0.000000,0.000000,0.000000,0.000000,3.402918,4.848396,-0.642378
1650625004.206223,820.000000,1650625004.206035,0.000000,0.000000,1.000000,0.000000,0.000000,0.000000,0.000000,3.402618,4.845048,-0.664225
1650625004.306234,821.000000,1650625004.306022,0.000000,0.000000,1.000000,0.000000,0.000000,0.000000,0.000000,3.403424,4.844087,-0.690686
1650625004.406310,822.000000,1650625004.406100,0.000000,0.000000,1.000000,0.000000,0.000000,0.000000,0.000000,3.400912,4.842116,-0.721538
1650625004.506298,823.000000,1650625004.506080,0.000000,0.000000,1.000000,0.000000,0.000000,0.000000,0.000000,3.398543,4.840283,-0.754139
1650625004.606087,824.000000,1650625004.605924,0.000000,0.000000,1.000000,0.000000,0.000000,0.000000,0.000000,3.396315,4.839676,-0.787567
1650625004.706228,825.000000,1650625004.706059,0.000000,0.000000,1.000000,0.000000,0.000000,0.000000,0.000000,3.393137,4.839137,-0.819325
1650625004.806284,826.000000,1650625004.806096,0.000000,0.000000,1.000000,0.000000,0.000000,0.000000,0.000000,3.390161,4.839752,-0.851052
1650625004.906209,827.000000,1650625004.906076,0.000000,0.000000,1.000000,0.000000,0.000000,0.000000,0.000000,3.387381,4.840365,-0.871421
1650625005.006182,828.000000,1650625005.006043,0.000000,0.000000,1.000000,0.000000,0.000000,0.000000,0.000000,3.385886,4.839882,-0.896195
1650625005.106192,829.000000,1650625005.106039,0.000000,0.000000,1.000000,0.000000,0.000000,0.000000,0.000000,3.384517,4.840542,-0.913880
1650625005.206217,830.000000,1650625005.206080,0.000000,0.000000,1.000000,0.000000,0.000000,0.000000,0.000000,3.381088,4.841190,-0.934430
1650625005.306234,831.000000,1650625005.306028,0.000000,0.000000,1.000000,0.000000,0.000000,0.000000,0.000000,3.378991,4.842912,-0.952067
1650625005.406209,832.000000,1650625005.406040,0.000000,0.000000,1.000000,0.000000,0.000000,0.000000,0.000000,3.383608,4.841284,-0.928996
1650625005.506196,833.000000,1650625005.506029,0.000000,0.000000,1.000000,0.000000,0.000000,0.000000,0.000000,3.388013,4.841943,-0.917724
1650625005.606194,834.000000,1650625005.606023,0.000000,0.000000,1.000000,0.000000,0.000000,0.000000,0.000000,3.391112,4.842580,-0.901682
1650625005.706247,835.000000,1650625005.706063,0.000000,0.000000,1.000000,0.000000,0.000000,0.000000,0.000000,3.394055,4.841014,-0.885138
1650625005.806209,836.000000,1650625005.806039,0.000000,0.000000,1.000000,0.000000,0.000000,0.000000,0.000000,3.394659,4.839550,-0.872994
1650625005.906250,837.000000,1650625005.906074,0.000000,0.000000,1.000000,0.000000,0.000000,0.000000,0.000000,3.394141,4.840366,-0.858655
1650625006.006274,838.000000,1650625006.006109,0.000000,0.000000,1.000000,0.000000,0.000000,0.000000,0.000000,3.391472,4.842244,-0.847082
1650625006.106448,839.000000,1650625006.106191,0.000000,0.000000,1.000000,0.000000,0.000000,0.000000,0.000000,3.390050,4.844028,-0.834161
1650625006.206207,840.000000,1650625006.206005,0.000000,0.000000,1.000000,0.000000,0.000000,0.000000,0.000000,3.387629,4.844629,-0.832881
1650625006.306261,841.000000,1650625006.306077,0.000000,0.000000,1.000000,0.000000,0.000000,0.000000,0.000000,3.385361,4.844107,-0.841168
1650625006.406241,842.000000,1650625006.406031,0.000000,0.000000,1.000000,0.000000,0.000000,0.000000,0.000000,3.384335,4.844707,-0.836855
1650625006.506227,843.000000,1650625006.506009,0.000000,0.000000,1.000000,0.000000,0.000000,0.000000,0.000000,3.387754,4.843094,-0.798691
1650625006.606362,844.000000,1650625006.606185,0.000000,0.000000,1.000000,0.000000,0.000000,0.000000,0.000000,3.391003,4.841574,-0.780531
1650625006.706239,845.000000,1650625006.706042,0.000000,0.000000,1.000000,0.000000,0.000000,0.000000,0.000000,3.392991,4.840147,-0.778376
1650625006.806294,846.000000,1650625006.806117,0.000000,0.000000,1.000000,0.000000,0.000000,0.000000,0.000000,3.394868,4.838812,-0.785135
1650625006.906424,847.000000,1650625006.906142,0.000000,0.000000,1.000000,0.000000,0.000000,0.000000,0.000000,3.396636,4.839748,-0.798828
1650625007.006675,848.000000,1650625007.006442,0.000000,0.000000,1.000000,0.000000,0.000000,0.000000,0.000000,3.398296,4.840647,-0.803830
1650625007.106535,849.000000,1650625007.106345,0.000000,0.000000,1.000000,0.000000,0.000000,0.000000,0.000000,3.397667,4.842596,-0.800487
1650625007.206552,850.000000,1650625007.206361,0.000000,0.000000,1.000000,0.000000,0.000000,0.000000,0.000000,3.397059,4.844443,-0.794790
1650625007.306296,851.000000,1650625007.306085,0.000000,0.000000,1.000000,0.000000,0.000000,0.000000,0.000000,3.394291,4.844005,-0.793296
1650625007.406252,852.000000,1650625007.406063,0.000000,0.000000,1.000000,0.000000,0.000000,0.000000,0.000000,3.392764,4.844680,-0.800681
1650625007.506231,853.000000,1650625007.506045,0.000000,0.000000,1.000000,0.000000,0.000000,0.000000,0.000000,3.389141,4.846406,-0.793996
1650625007.606318,854.000000,1650625007.606113,0.000000,0.000000,1.000000,0.000000,0.000000,0.000000,0.000000,3.389001,4.845848,-0.752047
1650625007.706236,855.000000,1650625007.706078,0.000000,0.000000,1.000000,0.000000,0.000000,0.000000,0.000000,3.387793,4.844224,-0.724717
1650625007.806201,856.000000,1650625007.806025,0.000000,0.000000,1.000000,0.000000,0.000000,0.000000,0.000000,3.385577,4.841597,-0.705816
1650625007.906114,857.000000,1650625007.905945,0.000000,0.000000,1.000000,0.000000,0.000000,0.000000,0.000000,3.384594,4.840210,-0.698259
1650625008.006200,858.000000,1650625008.006024,0.000000,0.000000,1.000000,0.000000,0.000000,0.000000,0.000000,3.382600,4.840002,-0.699178
1650625008.106204,859.000000,1650625008.106033,0.000000,0.000000,1.000000,0.000000,0.000000,0.000000,0.000000,3.381834,4.839816,-0.708227
1650625008.206212,860.000000,1650625008.206044,0.000000,0.000000,1.000000,0.000000,0.000000,0.000000,0.000000,3.380050,4.839651,-0.725057
1650625008.306519,861.000000,1650625008.306364,0.000000,0.000000,1.000000,0.000000,0.000000,0.000000,0.000000,3.377307,4.839506,-0.738032
1650625008.406288,862.000000,1650625008.406087,0.000000,0.000000,1.000000,0.000000,0.000000,0.000000,0.000000,3.380206,4.837200,-0.708575
1650625008.506256,863.000000,1650625008.506084,0.000000,0.000000,1.000000,0.000000,0.000000,0.000000,0.000000,3.381885,4.833947,-0.698121
1650625008.606125,864.000000,1650625008.605931,0.000000,0.000000,1.000000,0.000000,0.000000,0.000000,0.000000,3.381315,4.830897,-0.702694
1650625008.706207,865.000000,1650625008.706002,0.000000,0.000000,1.000000,0.000000,0.000000,0.000000,0.000000,3.384070,4.828049,-0.667643
1650625008.806211,866.000000,1650625008.806002,0.000000,0.000000,1.000000,0.000000,0.000000,0.000000,0.000000,3.386688,4.826488,-0.640591
1650625008.906230,867.000000,1650625008.906037,0.000000,0.000000,1.000000,0.000000,0.000000,0.000000,0.000000,3.386986,4.825056,-0.630933
1650625009.006227,868.000000,1650625009.006021,0.000000,0.000000,1.000000,0.000000,0.000000,0.000000,0.000000,3.386180,4.824839,-0.635556
1650625009.106208,869.000000,1650625009.105990,0.000000,0.000000,1.000000,0.000000,0.000000,0.000000,0.000000,3.377791,4.824678,-0.604677
1650625009.206198,870.000000,1650625009.206021,0.000000,0.000000,1.000000,0.000000,0.000000,0.000000,0.000000,3.370980,4.823478,-0.588158
1650625009.306266,871.000000,1650625009.306058,0.000000,0.000000,1.000000,0.000000,0.000000,0.000000,0.000000,3.364591,4.822387,-0.577376
1650625009.406154,872.000000,1650625009.405999,0.000000,0.000000,1.000000,0.000000,0.000000,0.000000,0.000000,3.360799,4.822490,-0.568075
1650625009.506263,873.000000,1650625009.506142,0.000000,0.000000,1.000000,0.000000,0.000000,0.000000,0.000000,3.357289,4.822629,-0.561815
1650625009.606198,874.000000,1650625009.606042,0.000000,0.000000,1.000000,0.000000,0.000000,0.000000,0.000000,3.356234,4.821709,-0.559279
1650625009.706258,875.000000,1650625009.706075,0.000000,0.000000,1.000000,0.000000,0.000000,0.000000,0.000000,3.355318,4.821969,-0.559505
1650625009.806267,876.000000,1650625009.806110,0.000000,0.000000,1.000000,0.000000,0.000000,0.000000,0.000000,3.354531,4.821161,-0.566404
1650625009.906273,877.000000,1650625009.906085,0.000000,0.000000,1.000000,0.000000,0.000000,0.000000,0.000000,3.357136,4.821524,-0.582103
1650625010.006262,878.000000,1650625010.006073,0.000000,0.000000,1.000000,0.000000,0.000000,0.000000,0.000000,3.360753,4.821900,-0.598957
1650625010.106219,879.000000,1650625010.106033,0.000000,0.000000,1.000000,0.000000,0.000000,0.000000,0.000000,3.364224,4.821196,-0.624945
1650625010.206244,880.000000,1650625010.206082,0.000000,0.000000,1.000000,0.000000,0.000000,0.000000,0.000000,3.366450,4.818381,-0.652393
1650625010.306344,881.000000,1650625010.306156,0.000000,0.000000,1.000000,0.000000,0.000000,0.000000,0.000000,3.367492,4.815757,-0.685224
1650625010.406369,882.000000,1650625010.406201,0.000000,0.000000,1.000000,0.000000,0.000000,0.000000,0.000000,3.369589,4.815501,-0.700582
1650625010.506267,883.000000,1650625010.506118,0.000000,0.000000,1.000000,0.000000,0.000000,0.000000,0.000000,3.370495,4.816391,-0.721727
1650625010.606222,884.000000,1650625010.606068,0.000000,0.000000,1.000000,0.000000,0.000000,0.000000,0.000000,3.369182,4.820541,-0.737909
1650625010.706220,885.000000,1650625010.706055,0.000000,0.000000,1.000000,0.000000,0.000000,0.000000,0.000000,3.367954,4.824487,-0.755755
1650625010.806277,886.000000,1650625010.806116,0.000000,0.000000,1.000000,0.000000,0.000000,0.000000,0.000000,3.364629,4.827136,-0.767107
1650625010.906317,887.000000,1650625010.906100,0.000000,0.000000,1.000000,0.000000,0.000000,0.000000,0.000000,3.363693,4.829640,-0.774633
1650625011.006662,888.000000,1650625011.006440,0.000000,0.000000,1.000000,0.000000,0.000000,0.000000,0.000000,3.365016,4.831998,-0.791383
1650625011.106579,889.000000,1650625011.106307,0.000000,0.000000,1.000000,0.000000,0.000000,0.000000,0.000000,3.366289,4.832033,-0.807285
1650625011.206542,890.000000,1650625011.206361,0.000000,0.000000,1.000000,0.000000,0.000000,0.000000,0.000000,3.366419,4.828779,-0.829614
1650625011.306637,891.000000,1650625011.306415,0.000000,0.000000,1.000000,0.000000,0.000000,0.000000,0.000000,3.367648,4.827880,-0.850015
1650625011.406587,892.000000,1650625011.406392,0.000000,0.000000,1.000000,0.000000,0.000000,0.000000,0.000000,3.368821,4.828120,-0.871766
1650625011.506600,893.000000,1650625011.506398,0.000000,0.000000,1.000000,0.000000,0.000000,0.000000,0.000000,3.371027,4.829436,-0.874625
1650625011.606592,894.000000,1650625011.606390,0.000000,0.000000,1.000000,0.000000,0.000000,0.000000,0.000000,3.373111,4.831765,-0.869037
1650625011.706892,895.000000,1650625011.706548,0.000000,0.000000,1.000000,0.000000,0.000000,0.000000,0.000000,3.375074,4.830684,-0.869074
1650625011.806604,896.000000,1650625011.806391,0.000000,0.000000,1.000000,0.000000,0.000000,0.000000,0.000000,3.376918,4.828563,-0.879358
1650625011.906595,897.000000,1650625011.906358,0.000000,0.000000,1.000000,0.000000,0.000000,0.000000,0.000000,3.378642,4.828737,-0.894630
1650625012.006656,898.000000,1650625012.006384,0.000000,0.000000,1.000000,0.000000,0.000000,0.000000,0.000000,3.380250,4.828900,-0.911446
1650625012.106577,899.000000,1650625012.106348,0.000000,0.000000,1.000000,0.000000,0.000000,0.000000,0.000000,3.381744,4.829053,-0.927308
1650625012.206631,900.000000,1650625012.206359,0.000000,0.000000,1.000000,0.000000,0.000000,0.000000,0.000000,3.382037,4.830285,-0.946272
1650625012.306420,901.000000,1650625012.306217,0.000000,0.000000,1.000000,0.000000,0.000000,0.000000,0.000000,3.381195,4.831444,-0.956094
1650625012.406306,902.000000,1650625012.406108,0.000000,0.000000,1.000000,0.000000,0.000000,0.000000,0.000000,3.380374,4.830349,-0.970045
1650625012.506348,903.000000,1650625012.506147,0.000000,0.000000,1.000000,0.000000,0.000000,0.000000,0.000000,3.379577,4.831490,-0.969398
1650625012.606169,904.000000,1650625012.605991,0.000000,0.000000,1.000000,0.000000,0.000000,0.000000,0.000000,3.377716,4.833650,-0.960401
1650625012.706219,905.000000,1650625012.706035,0.000000,0.000000,1.000000,0.000000,0.000000,0.000000,0.000000,3.373766,4.834587,-0.951485
1650625012.806159,906.000000,1650625012.805988,0.000000,0.000000,1.000000,0.000000,0.000000,0.000000,0.000000,3.371125,4.836547,-0.951543
1650625012.906180,907.000000,1650625012.906011,0.000000,0.000000,1.000000,0.000000,0.000000,0.000000,0.000000,3.371910,4.839467,-0.946515
1650625013.006248,908.000000,1650625013.006071,0.000000,0.000000,1.000000,0.000000,0.000000,0.000000,0.000000,3.374841,4.842199,-0.949529
1650625013.106246,909.000000,1650625013.106066,0.000000,0.000000,1.000000,0.000000,0.000000,0.000000,0.000000,3.377611,4.844745,-0.958651
1650625013.206269,910.000000,1650625013.206086,0.000000,0.000000,1.000000,0.000000,0.000000,0.000000,0.000000,3.379129,4.846018,-0.964758
1650625013.306655,911.000000,1650625013.306446,0.000000,0.000000,1.000000,0.000000,0.000000,0.000000,0.000000,3.380550,4.848269,-0.973616
1650625013.406441,912.000000,1650625013.406211,0.000000,0.000000,1.000000,0.000000,0.000000,0.000000,0.000000,3.385147,4.849257,-0.987529
1650625013.506328,913.000000,1650625013.506093,0.000000,0.000000,1.000000,0.000000,0.000000,0.000000,0.000000,3.389462,4.850142,-1.003052
1650625013.606282,914.000000,1650625013.606113,0.000000,0.000000,1.000000,0.000000,0.000000,0.000000,0.000000,3.391317,4.852020,-1.014460
1650625013.706256,915.000000,1650625013.706023,0.000000,0.000000,1.000000,0.000000,0.000000,0.000000,0.000000,3.393025,4.854834,-1.023524
1650625013.806217,916.000000,1650625013.806041,0.000000,0.000000,1.000000,0.000000,0.000000,0.000000,0.000000,3.393501,4.857437,-1.033559
1650625013.906227,917.000000,1650625013.906012,0.000000,0.000000,1.000000,0.000000,0.000000,0.000000,0.000000,3.392812,4.858745,-1.046134
1650625014.006274,918.000000,1650625014.006093,0.000000,0.000000,1.000000,0.000000,0.000000,0.000000,0.000000,3.393208,4.861008,-1.056299
1650625014.106438,919.000000,1650625014.106196,0.000000,0.000000,1.000000,0.000000,0.000000,0.000000,0.000000,3.392450,4.863081,-1.051242
1650625014.206169,920.000000,1650625014.205982,0.000000,0.000000,1.000000,0.000000,0.000000,0.000000,0.000000,3.389516,4.864971,-1.050953
1650625014.306216,921.000000,1650625014.306031,0.000000,0.000000,1.000000,0.000000,0.000000,0.000000,0.000000,3.386716,4.864507,-1.047187
1650625014.406111,922.000000,1650625014.405928,0.000000,0.000000,1.000000,0.000000,0.000000,0.000000,0.000000,3.382962,4.864001,-1.048166
1650625014.506244,923.000000,1650625014.506089,0.000000,0.000000,1.000000,0.000000,0.000000,0.000000,0.000000,3.381592,4.864553,-1.052901
1650625014.606272,924.000000,1650625014.606108,0.000000,0.000000,1.000000,0.000000,0.000000,0.000000,0.000000,3.380298,4.865016,-1.041081
1650625014.706447,925.000000,1650625014.706243,0.000000,0.000000,1.000000,0.000000,0.000000,0.000000,0.000000,3.380170,4.865398,-1.016630
1650625014.806218,926.000000,1650625014.806037,0.000000,0.000000,1.000000,0.000000,0.000000,0.000000,0.000000,3.378965,4.865703,-0.990590
1650625014.906241,927.000000,1650625014.906065,0.000000,0.000000,1.000000,0.000000,0.000000,0.000000,0.000000,3.384377,4.862668,-0.925173
1650625015.006149,928.000000,1650625015.005985,0.000000,0.000000,1.000000,0.000000,0.000000,0.000000,0.000000,3.387306,4.858669,-0.873694
1650625015.106265,929.000000,1650625015.106063,0.000000,0.000000,1.000000,0.000000,0.000000,0.000000,0.000000,3.390058,4.857042,-0.838904
1650625015.206190,930.000000,1650625015.205981,0.000000,0.000000,1.000000,0.000000,0.000000,0.000000,0.000000,3.391545,4.855486,-0.818572
1650625015.306249,931.000000,1650625015.306080,0.000000,0.000000,1.000000,0.000000,0.000000,0.000000,0.000000,3.391833,4.855093,-0.811338
1650625015.406170,932.000000,1650625015.406000,0.000000,0.000000,1.000000,0.000000,0.000000,0.000000,0.000000,3.390987,4.855800,-0.798935
1650625015.506176,933.000000,1650625015.506016,0.000000,0.000000,1.000000,0.000000,0.000000,0.000000,0.000000,3.391255,4.856457,-0.788038
1650625015.606215,934.000000,1650625015.605954,0.000000,0.000000,1.000000,0.000000,0.000000,0.000000,0.000000,3.391485,4.855974,-0.781821
1650625015.706357,935.000000,1650625015.706128,0.000000,0.000000,1.000000,0.000000,0.000000,0.000000,0.000000,3.391682,4.857688,-0.768808
1650625015.806116,936.000000,1650625015.805929,0.000000,0.000000,1.000000,0.000000,0.000000,0.000000,0.000000,3.389665,4.858201,-0.765413
1650625015.906163,937.000000,1650625015.906003,0.000000,0.000000,1.000000,0.000000,0.000000,0.000000,0.000000,3.386654,4.858670,-0.768021
1650625016.006158,938.000000,1650625016.005991,0.000000,0.000000,1.000000,0.000000,0.000000,0.000000,0.000000,3.384895,4.859096,-0.776376
1650625016.106197,939.000000,1650625016.106028,0.000000,0.000000,1.000000,0.000000,0.000000,0.000000,0.000000,3.384323,4.860571,-0.784578
1650625016.206217,940.000000,1650625016.206035,0.000000,0.000000,1.000000,0.000000,0.000000,0.000000,0.000000,3.384877,4.860855,-0.786966
1650625016.306217,941.000000,1650625016.306035,0.000000,0.000000,1.000000,0.000000,0.000000,0.000000,0.000000,3.385403,4.858921,-0.797474
1650625016.406195,942.000000,1650625016.406019,0.000000,0.000000,1.000000,0.000000,0.000000,0.000000,0.000000,3.385901,4.858170,-0.801233
1650625016.506379,943.000000,1650625016.506155,0.000000,0.000000,1.000000,0.000000,0.000000,0.000000,0.000000,3.388551,4.858540,-0.798505
1650625016.606219,944.000000,1650625016.606039,0.000000,0.000000,1.000000,0.000000,0.000000,0.000000,0.000000,3.387776,4.857788,-0.793582
1650625016.706144,945.000000,1650625016.705929,0.000000,0.000000,1.000000,0.000000,0.000000,0.000000,0.000000,3.387036,4.855978,-0.797848
1650625016.806176,946.000000,1650625016.806010,0.000000,0.000000,1.000000,0.000000,0.000000,0.000000,0.000000,3.386333,4.855356,-0.784306
1650625016.906234,947.000000,1650625016.906037,0.000000,0.000000,1.000000,0.000000,0.000000,0.000000,0.000000,3.385666,4.854768,-0.780306
1650625017.006249,948.000000,1650625017.006051,0.000000,0.000000,1.000000,0.000000,0.000000,0.000000,0.000000,3.387218,4.854214,-0.785464
1650625017.106265,949.000000,1650625017.106045,0.000000,0.000000,1.000000,0.000000,0.000000,0.000000,0.000000,3.388680,4.853694,-0.795366
1650625017.206275,950.000000,1650625017.206074,0.000000,0.000000,1.000000,0.000000,0.000000,0.000000,0.000000,3.388964,4.853208,-0.793669
1650625017.306214,951.000000,1650625017.306027,0.000000,0.000000,1.000000,0.000000,0.000000,0.000000,0.000000,3.389224,4.852754,-0.784872
1650625017.406309,952.000000,1650625017.406117,0.000000,0.000000,1.000000,0.000000,0.000000,0.000000,0.000000,3.390550,4.852332,-0.782982
1650625017.506160,953.000000,1650625017.505979,0.000000,0.000000,1.000000,0.000000,0.000000,0.000000,0.000000,3.390701,4.851942,-0.790140
1650625017.606238,954.000000,1650625017.606072,0.000000,0.000000,1.000000,0.000000,0.000000,0.000000,0.000000,3.390831,4.850492,-0.803544
1650625017.706247,955.000000,1650625017.706062,0.000000,0.000000,1.000000,0.000000,0.000000,0.000000,0.000000,3.390942,4.848043,-0.814047
1650625017.806700,956.000000,1650625017.806505,0.000000,0.000000,1.000000,0.000000,0.000000,0.000000,0.000000,3.391035,4.844658,-0.830615
1650625017.906598,957.000000,1650625017.906378,0.000000,0.000000,1.000000,0.000000,0.000000,0.000000,0.000000,3.388930,4.843667,-0.840877
1650625018.006511,958.000000,1650625018.006308,0.000000,0.000000,1.000000,0.000000,0.000000,0.000000,0.000000,3.385845,4.842761,-0.857167
1650625018.106787,959.000000,1650625018.106430,0.000000,0.000000,1.000000,0.000000,0.000000,0.000000,0.000000,3.382934,4.840846,-0.867925
1650625018.206657,960.000000,1650625018.206420,0.000000,0.000000,1.000000,0.000000,0.000000,0.000000,0.000000,3.380196,4.839072,-0.879808
1650625018.306790,961.000000,1650625018.306591,0.000000,0.000000,1.000000,0.000000,0.000000,0.000000,0.000000,3.380901,4.838524,-0.886301
1650625018.406642,962.000000,1650625018.406414,0.000000,0.000000,1.000000,0.000000,0.000000,0.000000,0.000000,3.382676,4.836956,-0.892453
1650625018.506583,963.000000,1650625018.506365,0.000000,0.000000,1.000000,0.000000,0.000000,0.000000,0.000000,3.380006,4.834424,-0.856334
1650625018.606483,964.000000,1650625018.606265,0.000000,0.000000,1.000000,0.000000,0.000000,0.000000,0.000000,3.376410,4.833167,-0.787778
1650625018.706649,965.000000,1650625018.706385,0.000000,0.000000,1.000000,0.000000,0.000000,0.000000,0.000000,3.375221,4.832028,-0.747080
1650625018.806607,966.000000,1650625018.806379,0.000000,0.000000,1.000000,0.000000,0.000000,0.000000,0.000000,3.374129,4.832091,-0.723505
1650625018.906689,967.000000,1650625018.906406,0.000000,0.000000,1.000000,0.000000,0.000000,0.000000,0.000000,3.372039,4.832196,-0.697848
1650625019.006478,968.000000,1650625019.006263,0.000000,0.000000,1.000000,0.000000,0.000000,0.000000,0.000000,3.372283,4.833430,-0.684744
1650625019.106603,969.000000,1650625019.106384,0.000000,0.000000,1.000000,0.000000,0.000000,0.000000,0.000000,3.371458,4.836814,-0.682086
1650625019.206609,970.000000,1650625019.206364,0.000000,0.000000,1.000000,0.000000,0.000000,0.000000,0.000000,3.372894,4.837857,-0.690256
1650625019.306586,971.000000,1650625019.306388,0.000000,0.000000,1.000000,0.000000,0.000000,0.000000,0.000000,3.380824,4.836682,-0.666857
1650625019.406574,972.000000,1650625019.406387,0.000000,0.000000,1.000000,0.000000,0.000000,0.000000,0.000000,3.386144,4.836683,-0.643837
1650625019.506614,973.000000,1650625019.506399,0.000000,0.000000,1.000000,0.000000,0.000000,0.000000,0.000000,3.392250,4.836706,-0.639758
1650625019.606578,974.000000,1650625019.606391,0.000000,0.000000,1.000000,0.000000,0.000000,0.000000,0.000000,3.393629,4.837837,-0.629659
1650625019.706649,975.000000,1650625019.706429,0.000000,0.000000,1.000000,0.000000,0.000000,0.000000,0.000000,3.392717,4.840011,-0.631531
1650625019.806420,976.000000,1650625019.806269,0.000000,0.000000,1.000000,0.000000,0.000000,0.000000,0.000000,3.390734,4.839894,-0.639230
1650625019.906455,977.000000,1650625019.906271,0.000000,0.000000,1.000000,0.000000,0.000000,0.000000,0.000000,3.389927,4.840880,-0.652499
1650625020.006522,978.000000,1650625020.006317,0.000000,0.000000,1.000000,0.000000,0.000000,0.000000,0.000000,3.390236,4.843997,-0.663822
1650625020.106555,979.000000,1650625020.106386,0.000000,0.000000,1.000000,0.000000,0.000000,0.000000,0.000000,3.390510,4.848028,-0.677283
1650625020.206581,980.000000,1650625020.206385,0.000000,0.000000,1.000000,0.000000,0.000000,0.000000,0.000000,3.392932,4.850730,-0.695184
1650625020.306584,981.000000,1650625020.306398,0.000000,0.000000,1.000000,0.000000,0.000000,0.000000,0.000000,3.396287,4.854349,-0.714890
1650625020.406646,982.000000,1650625020.406429,0.000000,0.000000,1.000000,0.000000,0.000000,0.000000,0.000000,3.397245,4.855555,-0.732259
1650625020.506620,983.000000,1650625020.506406,0.000000,0.000000,1.000000,0.000000,0.000000,0.000000,0.000000,3.399207,4.857747,-0.752192
1650625020.606647,984.000000,1650625020.606386,0.000000,0.000000,1.000000,0.000000,0.000000,0.000000,0.000000,3.398841,4.856506,-0.773742
1650625020.706518,985.000000,1650625020.706335,0.000000,0.000000,1.000000,0.000000,0.000000,0.000000,0.000000,3.400641,4.855297,-0.800035
1650625020.806600,986.000000,1650625020.806413,0.000000,0.000000,1.000000,0.000000,0.000000,0.000000,0.000000,3.400122,4.854123,-0.810674
1650625020.906651,987.000000,1650625020.906435,0.000000,0.000000,1.000000,0.000000,0.000000,0.000000,0.000000,3.401777,4.851898,-0.782082
1650625021.006528,988.000000,1650625021.006355,0.000000,0.000000,1.000000,0.000000,0.000000,0.000000,0.000000,3.400032,4.850868,-0.752989
1650625021.106828,989.000000,1650625021.106563,0.000000,0.000000,1.000000,0.000000,0.000000,0.000000,0.000000,3.397261,4.849882,-0.742015
1650625021.206554,990.000000,1650625021.206300,0.000000,0.000000,1.000000,0.000000,0.000000,0.000000,0.000000,3.394621,4.848941,-0.729093
1650625021.306699,991.000000,1650625021.306408,0.000000,0.000000,1.000000,0.000000,0.000000,0.000000,0.000000,3.389933,4.850228,-0.724807
1650625021.406205,992.000000,1650625021.406016,0.000000,0.000000,1.000000,0.000000,0.000000,0.000000,0.000000,3.384414,4.850345,-0.732038
1650625021.506236,993.000000,1650625021.506047,0.000000,0.000000,1.000000,0.000000,0.000000,0.000000,0.000000,3.379217,4.851538,-0.726922
1650625021.606230,994.000000,1650625021.606034,0.000000,0.000000,1.000000,0.000000,0.000000,0.000000,0.000000,3.374341,4.851563,-0.732543
1650625021.706616,995.000000,1650625021.706385,0.000000,0.000000,1.000000,0.000000,0.000000,0.000000,0.000000,3.369780,4.851576,-0.746037
1650625021.806628,996.000000,1650625021.806390,0.000000,0.000000,1.000000,0.000000,0.000000,0.000000,0.000000,3.366619,4.850487,-0.717871
1650625021.906588,997.000000,1650625021.906380,0.000000,0.000000,1.000000,0.000000,0.000000,0.000000,0.000000,3.362608,4.851632,-0.694930
1650625022.006567,998.000000,1650625022.006364,0.000000,0.000000,1.000000,0.000000,0.000000,0.000000,0.000000,3.357802,4.852705,-0.678654
1650625022.106580,999.000000,1650625022.106344,0.000000,0.000000,1.000000,0.000000,0.000000,0.000000,0.000000,3.356616,4.852616,-0.675250
1650625022.206635,1000.000000,1650625022.206396,0.000000,0.000000,1.000000,0.000000,0.000000,0.000000,0.000000,3.354490,4.852520,-0.671296
1650625022.306615,1001.000000,1650625022.306367,0.000000,0.000000,1.000000,0.000000,0.000000,0.000000,0.000000,3.353658,4.852419,-0.678913
1650625022.406519,1002.000000,1650625022.406294,0.000000,0.000000,1.000000,0.000000,0.000000,0.000000,0.000000,3.352957,4.851223,-0.695198
1650625022.506613,1003.000000,1650625022.506371,0.000000,0.000000,1.000000,0.000000,0.000000,0.000000,0.000000,3.352377,4.848997,-0.718155
1650625022.606560,1004.000000,1650625022.606362,0.000000,0.000000,1.000000,0.000000,0.000000,0.000000,0.000000,3.352998,4.849075,-0.742636
1650625022.706614,1005.000000,1650625022.706394,0.000000,0.000000,1.000000,0.000000,0.000000,0.000000,0.000000,3.359110,4.848059,-0.731439
1650625022.806573,1006.000000,1650625022.806362,0.000000,0.000000,1.000000,0.000000,0.000000,0.000000,0.000000,3.367120,4.847104,-0.714247
1650625022.906800,1007.000000,1650625022.906486,0.000000,0.000000,1.000000,0.000000,0.000000,0.000000,0.000000,3.370353,4.848389,-0.705849
1650625023.006475,1008.000000,1650625023.006224,0.000000,0.000000,1.000000,0.000000,0.000000,0.000000,0.000000,3.372331,4.849607,-0.690578
1650625023.106605,1009.000000,1650625023.106332,0.000000,0.000000,1.000000,0.000000,0.000000,0.000000,0.000000,3.374203,4.851847,-0.670349
1650625023.206469,1010.000000,1650625023.206211,0.000000,0.000000,1.000000,0.000000,0.000000,0.000000,0.000000,3.374881,4.851777,-0.666362
1650625023.306822,1011.000000,1650625023.306612,0.000000,0.000000,1.000000,0.000000,0.000000,0.000000,0.000000,3.376607,4.851704,-0.673931
1650625023.406653,1012.000000,1650625023.406418,0.000000,0.000000,1.000000,0.000000,0.000000,0.000000,0.000000,3.377139,4.851628,-0.690154
1650625023.506324,1013.000000,1650625023.506055,0.000000,0.000000,1.000000,0.000000,0.000000,0.000000,0.000000,3.377631,4.852640,-0.694489
1650625023.606323,1014.000000,1650625023.606081,0.000000,0.000000,1.000000,0.000000,0.000000,0.000000,0.000000,3.375903,4.853588,-0.696278
1650625023.706705,1015.000000,1650625023.706435,0.000000,0.000000,1.000000,0.000000,0.000000,0.000000,0.000000,3.375354,4.855563,-0.691585
1650625023.806372,1016.000000,1650625023.806095,0.000000,0.000000,1.000000,0.000000,0.000000,0.000000,0.000000,3.374832,4.857414,-0.696807
1650625023.906141,1017.000000,1650625023.905929,0.000000,0.000000,1.000000,0.000000,0.000000,0.000000,0.000000,3.374336,4.860233,-0.695404
1650625024.006305,1018.000000,1650625024.006068,0.000000,0.000000,1.000000,0.000000,0.000000,0.000000,0.000000,3.376047,4.863959,-0.684419
1650625024.106248,1019.000000,1650625024.105978,0.000000,0.000000,1.000000,0.000000,0.000000,0.000000,0.000000,3.375479,4.867443,-0.683609
1650625024.206231,1020.000000,1650625024.205983,0.000000,0.000000,1.000000,0.000000,0.000000,0.000000,0.000000,3.374938,4.870689,-0.674822
1650625024.306692,1021.000000,1650625024.306439,0.000000,0.000000,1.000000,0.000000,0.000000,0.000000,0.000000,3.374425,4.872612,-0.665649
1650625024.406581,1022.000000,1650625024.406331,0.000000,0.000000,1.000000,0.000000,0.000000,0.000000,0.000000,3.373941,4.874371,-0.667410
1650625024.506480,1023.000000,1650625024.506250,0.000000,0.000000,1.000000,0.000000,0.000000,0.000000,0.000000,3.372394,4.874884,-0.673205
1650625024.606194,1024.000000,1650625024.605993,0.000000,0.000000,1.000000,0.000000,0.000000,0.000000,0.000000,3.372028,4.875311,-0.678021
1650625024.706615,1025.000000,1650625024.706410,0.000000,0.000000,1.000000,0.000000,0.000000,0.000000,0.000000,3.372779,4.874567,-0.693176
1650625024.806297,1026.000000,1650625024.806089,0.000000,0.000000,1.000000,0.000000,0.000000,0.000000,0.000000,3.372404,4.874902,-0.698871
1650625024.906254,1027.000000,1650625024.906048,0.000000,0.000000,1.000000,0.000000,0.000000,0.000000,0.000000,3.373145,4.874080,-0.714026
1650625025.006255,1028.000000,1650625025.006037,0.000000,0.000000,1.000000,0.000000,0.000000,0.000000,0.000000,3.372758,4.873259,-0.735007
1650625025.106224,1029.000000,1650625025.106010,0.000000,0.000000,1.000000,0.000000,0.000000,0.000000,0.000000,3.373486,4.872445,-0.739769
1650625025.206290,1030.000000,1650625025.206072,0.000000,0.000000,1.000000,0.000000,0.000000,0.000000,0.000000,3.373085,4.871640,-0.749123
1650625025.306332,1031.000000,1650625025.306097,0.000000,0.000000,1.000000,0.000000,0.000000,0.000000,0.000000,3.371618,4.869760,-0.766095
