__time,/dwm1001/id_458E/pose_kf/header/seq,/dwm1001/id_458E/pose_kf/header/stamp,/dwm1001/id_458E/pose_kf/pose/orientation/pitch_deg,/dwm1001/id_458E/pose_kf/pose/orientation/roll_deg,/dwm1001/id_458E/pose_kf/pose/orientation/w,/dwm1001/id_458E/pose_kf/pose/orientation/x,/dwm1001/id_458E/pose_kf/pose/orientation/y,/dwm1001/id_458E/pose_kf/pose/orientation/yaw_deg,/dwm1001/id_458E/pose_kf/pose/orientation/z,/dwm1001/id_458E/pose_kf/pose/position/x,/dwm1001/id_458E/pose_kf/pose/position/y,/dwm1001/id_458E/pose_kf/pose/position/z
1650622977.501683,110.000000,1650622977.501491,0.000000,0.000000,1.000000,0.000000,0.000000,0.000000,0.000000,3.527828,6.096096,-1.036018
1650622977.601662,111.000000,1650622977.601427,0.000000,0.000000,1.000000,0.000000,0.000000,0.000000,0.000000,3.525385,6.095355,-1.014647
1650622977.701669,112.000000,1650622977.701465,0.000000,0.000000,1.000000,0.000000,0.000000,0.000000,0.000000,3.523111,6.095752,-1.007005
1650622977.801652,113.000000,1650622977.801473,0.000000,0.000000,1.000000,0.000000,0.000000,0.000000,0.000000,3.521003,6.095042,-1.010941
1650622977.901653,114.000000,1650622977.901471,0.000000,0.000000,1.000000,0.000000,0.000000,0.000000,0.000000,3.519056,6.094378,-1.020338
1650622978.001667,115.000000,1650622978.001498,0.000000,0.000000,1.000000,0.000000,0.000000,0.000000,0.000000,3.516173,6.093758,-1.015605
1650622978.101565,116.000000,1650622978.101400,0.000000,0.000000,1.000000,0.000000,0.000000,0.000000,0.000000,3.515684,6.093183,-1.018289
1650622978.201550,117.000000,1650622978.201389,0.000000,0.000000,1.000000,0.000000,0.000000,0.000000,0.000000,3.507643,6.090469,-0.970830
1650622978.301573,118.000000,1650622978.301387,0.000000,0.000000,1.000000,0.000000,0.000000,0.000000,0.000000,3.500115,6.089013,-0.929363
1650622978.401646,119.000000,1650622978.401486,0.000000,0.000000,1.000000,0.000000,0.000000,0.000000,0.000000,3.494184,6.086568,-0.903393
1650622978.501686,120.000000,1650622978.501520,0.000000,0.000000,1.000000,0.000000,0.000000,0.000000,0.000000,3.488684,6.085376,-0.876205
1650622978.601647,121.000000,1650622978.601503,0.000000,0.000000,1.000000,0.000000,0.000000,0.000000,0.000000,3.483603,6.084281,-0.867243
1650622978.701658,122.000000,1650622978.701523,0.000000,0.000000,1.000000,0.000000,0.000000,0.000000,0.000000,3.482199,6.082187,-0.871747
1650622978.801981,123.000000,1650622978.801793,0.000000,0.000000,1.000000,0.000000,0.000000,0.000000,0.000000,3.482088,6.081336,-0.865770
1650622978.901952,124.000000,1650622978.901752,0.000000,0.000000,1.000000,0.000000,0.000000,0.000000,0.000000,3.484282,6.081659,-0.872319
1650622979.001898,125.000000,1650622979.001699,0.000000,0.000000,1.000000,0.000000,0.000000,0.000000,0.000000,3.486461,6.080909,-0.877967
1650622979.102025,126.000000,1650622979.101764,0.000000,0.000000,1.000000,0.000000,0.000000,0.000000,0.000000,3.488614,6.080235,-0.877086
1650622979.202039,127.000000,1650622979.201789,0.000000,0.000000,1.000000,0.000000,0.000000,0.000000,0.000000,3.490730,6.080724,-0.863486
1650622979.302034,128.000000,1650622979.301808,0.000000,0.000000,1.000000,0.000000,0.000000,0.000000,0.000000,3.491709,6.082308,-0.849790
1650622979.401952,129.000000,1650622979.401772,0.000000,0.000000,1.000000,0.000000,0.000000,0.000000,0.000000,3.497058,6.081650,-0.794892
1650622979.502121,130.000000,1650622979.501913,0.000000,0.000000,1.000000,0.000000,0.000000,0.000000,0.000000,3.503247,6.081053,-0.753762
1650622979.601870,131.000000,1650622979.601708,0.000000,0.000000,1.000000,0.000000,0.000000,0.000000,0.000000,3.511299,6.081605,-0.734776
1650622979.701886,132.000000,1650622979.701682,0.000000,0.000000,1.000000,0.000000,0.000000,0.000000,0.000000,3.517815,6.081059,-0.724156
1650622979.802025,133.000000,1650622979.801788,0.000000,0.000000,1.000000,0.000000,0.000000,0.000000,0.000000,3.523949,6.081657,-0.707859
1650622979.901895,134.000000,1650622979.901671,0.000000,0.000000,1.000000,0.000000,0.000000,0.000000,0.000000,3.526433,6.082242,-0.695804
1650622980.001671,135.000000,1650622980.001462,0.000000,0.000000,1.000000,0.000000,0.000000,0.000000,0.000000,3.526551,6.082812,-0.689439
1650622980.101619,136.000000,1650622980.101447,0.000000,0.000000,1.000000,0.000000,0.000000,0.000000,0.000000,3.527704,6.083365,-0.697400
1650622980.201628,137.000000,1650622980.201467,0.000000,0.000000,1.000000,0.000000,0.000000,0.000000,0.000000,3.529837,6.083899,-0.714243
1650622980.301654,138.000000,1650622980.301464,0.000000,0.000000,1.000000,0.000000,0.000000,0.000000,0.000000,3.529621,6.084414,-0.737148
1650622980.401571,139.000000,1650622980.401424,0.000000,0.000000,1.000000,0.000000,0.000000,0.000000,0.000000,3.529367,6.087088,-0.749691
1650622980.501575,140.000000,1650622980.501439,0.000000,0.000000,1.000000,0.000000,0.000000,0.000000,0.000000,3.529083,6.089615,-0.767581
1650622980.601596,141.000000,1650622980.601433,0.000000,0.000000,1.000000,0.000000,0.000000,0.000000,0.000000,3.527681,6.090904,-0.792982
1650622980.701606,142.000000,1650622980.701440,0.000000,0.000000,1.000000,0.000000,0.000000,0.000000,0.000000,3.527412,6.093201,-0.819089
1650622980.801641,143.000000,1650622980.801481,0.000000,0.000000,1.000000,0.000000,0.000000,0.000000,0.000000,3.527125,6.095352,-0.837762
1650622980.901606,144.000000,1650622980.901400,0.000000,0.000000,1.000000,0.000000,0.000000,0.000000,0.000000,3.526825,6.096271,-0.862167
1650622981.001571,145.000000,1650622981.001367,0.000000,0.000000,1.000000,0.000000,0.000000,0.000000,0.000000,3.533057,6.094933,-0.845258
1650622981.101701,146.000000,1650622981.101530,0.000000,0.000000,1.000000,0.000000,0.000000,0.000000,0.000000,3.537815,6.093646,-0.845179
1650622981.201586,147.000000,1650622981.201402,0.000000,0.000000,1.000000,0.000000,0.000000,0.000000,0.000000,3.541165,6.093504,-0.844316
1650622981.301523,148.000000,1650622981.301332,0.000000,0.000000,1.000000,0.000000,0.000000,0.000000,0.000000,3.544269,6.093356,-0.854799
1650622981.401606,149.000000,1650622981.401432,0.000000,0.000000,1.000000,0.000000,0.000000,0.000000,0.000000,3.547134,6.093202,-0.868087
1650622981.501665,150.000000,1650622981.501494,0.000000,0.000000,1.000000,0.000000,0.000000,0.000000,0.000000,3.548677,6.093046,-0.889689
1650622981.601618,151.000000,1650622981.601446,0.000000,0.000000,1.000000,0.000000,0.000000,0.000000,0.000000,3.546788,6.092887,-0.915202
1650622981.701609,152.000000,1650622981.701435,0.000000,0.000000,1.000000,0.000000,0.000000,0.000000,0.000000,3.544937,6.092727,-0.943622
1650622981.801625,153.000000,1650622981.801452,0.000000,0.000000,1.000000,0.000000,0.000000,0.000000,0.000000,3.544222,6.092568,-0.973980
1650622981.901599,154.000000,1650622981.901428,0.000000,0.000000,1.000000,0.000000,0.000000,0.000000,0.000000,3.544585,6.092409,-1.004540
1650622982.002024,155.000000,1650622982.001848,0.000000,0.000000,1.000000,0.000000,0.000000,0.000000,0.000000,3.543789,6.093344,-1.027992
1650622982.102200,156.000000,1650622982.101979,0.000000,0.000000,1.000000,0.000000,0.000000,0.000000,0.000000,3.542994,6.093128,-0.998625
1650622982.201998,157.000000,1650622982.201745,0.000000,0.000000,1.000000,0.000000,0.000000,0.000000,0.000000,3.542203,6.094006,-0.983950
1650622982.301993,158.000000,1650622982.301786,0.000000,0.000000,1.000000,0.000000,0.000000,0.000000,0.000000,3.539241,6.094826,-0.963248
1650622982.402034,159.000000,1650622982.401832,0.000000,0.000000,1.000000,0.000000,0.000000,0.000000,0.000000,3.542960,6.093408,-0.905352
1650622982.502054,160.000000,1650622982.501814,0.000000,0.000000,1.000000,0.000000,0.000000,0.000000,0.000000,3.544263,6.092061,-0.873962
1650622982.601981,161.000000,1650622982.601776,0.000000,0.000000,1.000000,0.000000,0.000000,0.000000,0.000000,3.546551,6.091875,-0.843869
1650622982.701931,162.000000,1650622982.701757,0.000000,0.000000,1.000000,0.000000,0.000000,0.000000,0.000000,3.547583,6.092788,-0.826361
1650622982.801877,163.000000,1650622982.801688,0.000000,0.000000,1.000000,0.000000,0.000000,0.000000,0.000000,3.548518,6.093647,-0.802410
1650622982.901918,164.000000,1650622982.901670,0.000000,0.000000,1.000000,0.000000,0.000000,0.000000,0.000000,3.549361,6.095542,-0.775536
1650622983.001950,165.000000,1650622983.001704,0.000000,0.000000,1.000000,0.000000,0.000000,0.000000,0.000000,3.547934,6.097322,-0.764445
1650622983.102012,166.000000,1650622983.101750,0.000000,0.000000,1.000000,0.000000,0.000000,0.000000,0.000000,3.549822,6.098988,-0.765287
1650622983.202019,167.000000,1650622983.201771,0.000000,0.000000,1.000000,0.000000,0.000000,0.000000,0.000000,3.549387,6.099450,-0.762248
1650622983.302000,168.000000,1650622983.301762,0.000000,0.000000,1.000000,0.000000,0.000000,0.000000,0.000000,3.548940,6.100957,-0.746611
1650622983.401914,169.000000,1650622983.401729,0.000000,0.000000,1.000000,0.000000,0.000000,0.000000,0.000000,3.549577,6.101265,-0.747934
1650622983.502056,170.000000,1650622983.501802,0.000000,0.000000,1.000000,0.000000,0.000000,0.000000,0.000000,3.547965,6.101532,-0.745364
1650622983.601934,171.000000,1650622983.601696,0.000000,0.000000,1.000000,0.000000,0.000000,0.000000,0.000000,3.544236,6.101760,-0.755987
1650622983.701746,172.000000,1650622983.701490,0.000000,0.000000,1.000000,0.000000,0.000000,0.000000,0.000000,3.541788,6.103043,-0.750214
1650622983.801686,173.000000,1650622983.801480,0.000000,0.000000,1.000000,0.000000,0.000000,0.000000,0.000000,3.539470,6.104229,-0.754516
1650622983.901721,174.000000,1650622983.901526,0.000000,0.000000,1.000000,0.000000,0.000000,0.000000,0.000000,3.537282,6.105323,-0.749117
1650622984.001686,175.000000,1650622984.001477,0.000000,0.000000,1.000000,0.000000,0.000000,0.000000,0.000000,3.535224,6.105236,-0.758605
1650622984.101743,176.000000,1650622984.101516,0.000000,0.000000,1.000000,0.000000,0.000000,0.000000,0.000000,3.534385,6.105126,-0.774293
1650622984.201638,177.000000,1650622984.201450,0.000000,0.000000,1.000000,0.000000,0.000000,0.000000,0.000000,3.534701,6.106086,-0.797511
1650622984.301727,178.000000,1650622984.301541,0.000000,0.000000,1.000000,0.000000,0.000000,0.000000,0.000000,3.535015,6.105875,-0.827106
1650622984.401698,179.000000,1650622984.401525,0.000000,0.000000,1.000000,0.000000,0.000000,0.000000,0.000000,3.535326,6.105651,-0.860350
1650622984.501607,180.000000,1650622984.501458,0.000000,0.000000,1.000000,0.000000,0.000000,0.000000,0.000000,3.535633,6.104325,-0.892200
1650622984.601560,181.000000,1650622984.601399,0.000000,0.000000,1.000000,0.000000,0.000000,0.000000,0.000000,3.535934,6.104143,-0.923467
1650622984.701614,182.000000,1650622984.701443,0.000000,0.000000,1.000000,0.000000,0.000000,0.000000,0.000000,3.537318,6.105046,-0.942028
1650622984.801608,183.000000,1650622984.801440,0.000000,0.000000,1.000000,0.000000,0.000000,0.000000,0.000000,3.536450,6.104792,-0.955630
1650622984.901573,184.000000,1650622984.901412,0.000000,0.000000,1.000000,0.000000,0.000000,0.000000,0.000000,3.536727,6.105625,-0.958005
1650622985.001579,185.000000,1650622985.001421,0.000000,0.000000,1.000000,0.000000,0.000000,0.000000,0.000000,3.536994,6.105304,-0.969771
1650622985.101610,186.000000,1650622985.101437,0.000000,0.000000,1.000000,0.000000,0.000000,0.000000,0.000000,3.536160,6.106076,-0.969570
1650622985.201610,187.000000,1650622985.201441,0.000000,0.000000,1.000000,0.000000,0.000000,0.000000,0.000000,3.535379,6.107878,-0.961925
1650622985.301561,188.000000,1650622985.301405,0.000000,0.000000,1.000000,0.000000,0.000000,0.000000,0.000000,3.535739,6.109561,-0.939093
1650622985.401631,189.000000,1650622985.401466,0.000000,0.000000,1.000000,0.000000,0.000000,0.000000,0.000000,3.532816,6.110035,-0.932376
1650622985.501602,190.000000,1650622985.501444,0.000000,0.000000,1.000000,0.000000,0.000000,0.000000,0.000000,3.531158,6.111547,-0.916950
1650622985.601596,191.000000,1650622985.601428,0.000000,0.000000,1.000000,0.000000,0.000000,0.000000,0.000000,3.528520,6.112948,-0.910130
1650622985.701600,192.000000,1650622985.701386,0.000000,0.000000,1.000000,0.000000,0.000000,0.000000,0.000000,3.528234,6.114240,-0.896263
1650622985.801620,193.000000,1650622985.801460,0.000000,0.000000,1.000000,0.000000,0.000000,0.000000,0.000000,3.529081,6.113247,-0.886949
1650622985.901654,194.000000,1650622985.901478,0.000000,0.000000,1.000000,0.000000,0.000000,0.000000,0.000000,3.529905,6.114460,-0.887668
1650622986.001985,195.000000,1650622986.001753,0.000000,0.000000,1.000000,0.000000,0.000000,0.000000,0.000000,3.529611,6.114485,-0.885916
1650622986.101924,196.000000,1650622986.101659,0.000000,0.000000,1.000000,0.000000,0.000000,0.000000,0.000000,3.528262,6.114479,-0.868896
1650622986.201901,197.000000,1650622986.201694,0.000000,0.000000,1.000000,0.000000,0.000000,0.000000,0.000000,3.528098,6.113355,-0.866284
1650622986.302004,198.000000,1650622986.301746,0.000000,0.000000,1.000000,0.000000,0.000000,0.000000,0.000000,3.530145,6.110089,-0.870244
1650622986.402024,199.000000,1650622986.401791,0.000000,0.000000,1.000000,0.000000,0.000000,0.000000,0.000000,3.531003,6.108080,-0.878893
1650622986.501989,200.000000,1650622986.501748,0.000000,0.000000,1.000000,0.000000,0.000000,0.000000,0.000000,3.531824,6.107267,-0.890413
1650622986.601952,201.000000,1650622986.601720,0.000000,0.000000,1.000000,0.000000,0.000000,0.000000,0.000000,3.531517,6.106496,-0.907088
1650622986.702069,202.000000,1650622986.701831,0.000000,0.000000,1.000000,0.000000,0.000000,0.000000,0.000000,3.529053,6.105769,-0.913362
1650622986.801625,203.000000,1650622986.801445,0.000000,0.000000,1.000000,0.000000,0.000000,0.000000,0.000000,3.526738,6.105085,-0.916095
1650622986.901614,204.000000,1650622986.901432,0.000000,0.000000,1.000000,0.000000,0.000000,0.000000,0.000000,3.525660,6.104443,-0.928333
1650622987.001585,205.000000,1650622987.001437,0.000000,0.000000,1.000000,0.000000,0.000000,0.000000,0.000000,3.523574,6.103843,-0.944835
1650622987.101900,206.000000,1650622987.101704,0.000000,0.000000,1.000000,0.000000,0.000000,0.000000,0.000000,3.522720,6.103285,-0.964598
1650622987.201617,207.000000,1650622987.201455,0.000000,0.000000,1.000000,0.000000,0.000000,0.000000,0.000000,3.521942,6.103857,-0.985043
1650622987.301612,208.000000,1650622987.301448,0.000000,0.000000,1.000000,0.000000,0.000000,0.000000,0.000000,3.525598,6.104406,-1.006919
1650622987.401608,209.000000,1650622987.401455,0.000000,0.000000,1.000000,0.000000,0.000000,0.000000,0.000000,3.529072,6.104929,-1.008364
1650622987.501638,210.000000,1650622987.501460,0.000000,0.000000,1.000000,0.000000,0.000000,0.000000,0.000000,3.529091,6.104338,-1.018434
1650622987.601536,211.000000,1650622987.601362,0.000000,0.000000,1.000000,0.000000,0.000000,0.000000,0.000000,3.529114,6.102693,-1.023869
1650622987.701546,212.000000,1650622987.701395,0.000000,0.000000,1.000000,0.000000,0.000000,0.000000,0.000000,3.534591,6.098967,-0.979692
1650622987.801734,213.000000,1650622987.801538,0.000000,0.000000,1.000000,0.000000,0.000000,0.000000,0.000000,3.538667,6.095464,-0.958148
1650622987.901600,214.000000,1650622987.901431,0.000000,0.000000,1.000000,0.000000,0.000000,0.000000,0.000000,3.543585,6.094365,-0.930947
1650622988.001503,215.000000,1650622988.001361,0.000000,0.000000,1.000000,0.000000,0.000000,0.000000,0.000000,3.546016,6.093357,-0.921753
1650622988.101582,216.000000,1650622988.101429,0.000000,0.000000,1.000000,0.000000,0.000000,0.000000,0.000000,3.548270,6.092439,-0.910503
1650622988.201676,217.000000,1650622988.201495,0.000000,0.000000,1.000000,0.000000,0.000000,0.000000,0.000000,3.549261,6.092695,-0.894879
1650622988.301644,218.000000,1650622988.301465,0.000000,0.000000,1.000000,0.000000,0.000000,0.000000,0.000000,3.549059,6.092970,-0.880728
1650622988.401615,219.000000,1650622988.401438,0.000000,0.000000,1.000000,0.000000,0.000000,0.000000,0.000000,3.547731,6.094349,-0.863982
1650622988.501626,220.000000,1650622988.501434,0.000000,0.000000,1.000000,0.000000,0.000000,0.000000,0.000000,3.546437,6.095676,-0.863319
1650622988.601639,221.000000,1650622988.601482,0.000000,0.000000,1.000000,0.000000,0.000000,0.000000,0.000000,3.544090,6.096949,-0.872443
1650622988.701600,222.000000,1650622988.701453,0.000000,0.000000,1.000000,0.000000,0.000000,0.000000,0.000000,3.542937,6.095985,-0.879652
1650622988.801614,223.000000,1650622988.801450,0.000000,0.000000,1.000000,0.000000,0.000000,0.000000,0.000000,3.540738,6.096178,-0.895490
1650622988.901624,224.000000,1650622988.901461,0.000000,0.000000,1.000000,0.000000,0.000000,0.000000,0.000000,3.537559,6.095284,-0.917968
1650622989.001586,225.000000,1650622989.001434,0.000000,0.000000,1.000000,0.000000,0.000000,0.000000,0.000000,3.534552,6.094454,-0.944361
1650622989.101698,226.000000,1650622989.101530,0.000000,0.000000,1.000000,0.000000,0.000000,0.000000,0.000000,3.532809,6.093686,-0.973659
1650622989.201570,227.000000,1650622989.201382,0.000000,0.000000,1.000000,0.000000,0.000000,0.000000,0.000000,3.532267,6.092979,-1.003280
1650622989.301542,228.000000,1650622989.301415,0.000000,0.000000,1.000000,0.000000,0.000000,0.000000,0.000000,3.530678,6.093421,-1.028327
1650622989.401505,229.000000,1650622989.401360,0.000000,0.000000,1.000000,0.000000,0.000000,0.000000,0.000000,3.530286,6.093856,-1.043301
1650622989.501557,230.000000,1650622989.501429,0.000000,0.000000,1.000000,0.000000,0.000000,0.000000,0.000000,3.531025,6.094282,-1.042948
1650622989.601684,231.000000,1650622989.601527,0.000000,0.000000,1.000000,0.000000,0.000000,0.000000,0.000000,3.530650,6.094698,-1.048861
1650622989.701642,232.000000,1650622989.701478,0.000000,0.000000,1.000000,0.000000,0.000000,0.000000,0.000000,3.530312,6.095102,-1.060787
1650622989.801624,233.000000,1650622989.801455,0.000000,0.000000,1.000000,0.000000,0.000000,0.000000,0.000000,3.532189,6.096583,-1.074438
1650622989.901618,234.000000,1650622989.901457,0.000000,0.000000,1.000000,0.000000,0.000000,0.000000,0.000000,3.538335,6.095806,-1.040539
1650622990.001584,235.000000,1650622990.001427,0.000000,0.000000,1.000000,0.000000,0.000000,0.000000,0.000000,3.543046,6.095077,-1.008652
1650622990.101609,236.000000,1650622990.101414,0.000000,0.000000,1.000000,0.000000,0.000000,0.000000,0.000000,3.545295,6.095486,-0.975533
1650622990.201589,237.000000,1650622990.201411,0.000000,0.000000,1.000000,0.000000,0.000000,0.000000,0.000000,3.546301,6.096970,-0.941290
1650622990.301589,238.000000,1650622990.301405,0.000000,0.000000,1.000000,0.000000,0.000000,0.000000,0.000000,3.547220,6.099464,-0.918932
1650622990.401617,239.000000,1650622990.401469,0.000000,0.000000,1.000000,0.000000,0.000000,0.000000,0.000000,3.546967,6.100725,-0.901566
1650622990.501663,240.000000,1650622990.501474,0.000000,0.000000,1.000000,0.000000,0.000000,0.000000,0.000000,3.546697,6.100816,-0.899500
1650622990.601656,241.000000,1650622990.601464,0.000000,0.000000,1.000000,0.000000,0.000000,0.000000,0.000000,3.547505,6.100892,-0.895991
1650622990.701624,242.000000,1650622990.701467,0.000000,0.000000,1.000000,0.000000,0.000000,0.000000,0.000000,3.548240,6.102045,-0.896742
1650622990.801517,243.000000,1650622990.801337,0.000000,0.000000,1.000000,0.000000,0.000000,0.000000,0.000000,3.547816,6.104213,-0.883029
1650622990.901542,244.000000,1650622990.901392,0.000000,0.000000,1.000000,0.000000,0.000000,0.000000,0.000000,3.546298,6.105153,-0.881262
1650622991.001528,245.000000,1650622991.001355,0.000000,0.000000,1.000000,0.000000,0.000000,0.000000,0.000000,3.544844,6.107111,-0.882892
1650622991.101625,246.000000,1650622991.101460,0.000000,0.000000,1.000000,0.000000,0.000000,0.000000,0.000000,3.542364,6.107847,-0.894228
1650622991.201593,247.000000,1650622991.201380,0.000000,0.000000,1.000000,0.000000,0.000000,0.000000,0.000000,3.541105,6.109606,-0.888243
1650622991.301580,248.000000,1650622991.301373,0.000000,0.000000,1.000000,0.000000,0.000000,0.000000,0.000000,3.539912,6.111239,-0.879351
1650622991.401656,249.000000,1650622991.401439,0.000000,0.000000,1.000000,0.000000,0.000000,0.000000,0.000000,3.539878,6.111659,-0.882197
1650622991.501669,250.000000,1650622991.501465,0.000000,0.000000,1.000000,0.000000,0.000000,0.000000,0.000000,3.538758,6.110932,-0.879365
1650622991.601972,251.000000,1650622991.601755,0.000000,0.000000,1.000000,0.000000,0.000000,0.000000,0.000000,3.537705,6.110215,-0.874309
1650622991.702023,252.000000,1650622991.701794,0.000000,0.000000,1.000000,0.000000,0.000000,0.000000,0.000000,3.533447,6.109513,-0.880030
1650622991.802194,253.000000,1650622991.801982,0.000000,0.000000,1.000000,0.000000,0.000000,0.000000,0.000000,3.531624,6.107737,-0.884787
1650622991.901864,254.000000,1650622991.901662,0.000000,0.000000,1.000000,0.000000,0.000000,0.000000,0.000000,3.536468,6.104952,-0.855544
1650622992.002152,255.000000,1650622992.001903,0.000000,0.000000,1.000000,0.000000,0.000000,0.000000,0.000000,3.538878,6.103404,-0.826784
1650622992.102408,256.000000,1650622992.102137,0.000000,0.000000,1.000000,0.000000,0.000000,0.000000,0.000000,3.542248,6.103032,-0.816273
1650622992.202019,257.000000,1650622992.201775,0.000000,0.000000,1.000000,0.000000,0.000000,0.000000,0.000000,3.544335,6.102680,-0.805544
1650622992.302029,258.000000,1650622992.301788,0.000000,0.000000,1.000000,0.000000,0.000000,0.000000,0.000000,3.546293,6.101260,-0.808328
1650622992.401997,259.000000,1650622992.401751,0.000000,0.000000,1.000000,0.000000,0.000000,0.000000,0.000000,3.545943,6.101014,-0.816809
1650622992.501914,260.000000,1650622992.501673,0.000000,0.000000,1.000000,0.000000,0.000000,0.000000,0.000000,3.545594,6.100789,-0.829930
1650622992.602004,261.000000,1650622992.601744,0.000000,0.000000,1.000000,0.000000,0.000000,0.000000,0.000000,3.545247,6.101674,-0.827315
1650622992.701912,262.000000,1650622992.701689,0.000000,0.000000,1.000000,0.000000,0.000000,0.000000,0.000000,3.542725,6.102514,-0.837017
1650622992.802004,263.000000,1650622992.801762,0.000000,0.000000,1.000000,0.000000,0.000000,0.000000,0.000000,3.539244,6.103310,-0.852872
1650622992.902088,264.000000,1650622992.901808,0.000000,0.000000,1.000000,0.000000,0.000000,0.000000,0.000000,3.535959,6.104061,-0.854442
1650622993.002013,265.000000,1650622993.001801,0.000000,0.000000,1.000000,0.000000,0.000000,0.000000,0.000000,3.533959,6.103678,-0.863263
1650622993.102121,266.000000,1650622993.101842,0.000000,0.000000,1.000000,0.000000,0.000000,0.000000,0.000000,3.532089,6.103313,-0.877414
1650622993.201971,267.000000,1650622993.201741,0.000000,0.000000,1.000000,0.000000,0.000000,0.000000,0.000000,3.531437,6.104057,-0.880525
1650622993.301952,268.000000,1650622993.301743,0.000000,0.000000,1.000000,0.000000,0.000000,0.000000,0.000000,3.530848,6.105848,-0.873035
1650622993.401942,269.000000,1650622993.401733,0.000000,0.000000,1.000000,0.000000,0.000000,0.000000,0.000000,3.536860,6.105352,-0.827964
1650622993.502010,270.000000,1650622993.501708,0.000000,0.000000,1.000000,0.000000,0.000000,0.000000,0.000000,3.541460,6.105967,-0.780774
1650622993.601929,271.000000,1650622993.601684,0.000000,0.000000,1.000000,0.000000,0.000000,0.000000,0.000000,3.544710,6.107631,-0.738077
1650622993.702008,272.000000,1650622993.701792,0.000000,0.000000,1.000000,0.000000,0.000000,0.000000,0.000000,3.547766,6.109191,-0.698951
1650622993.802019,273.000000,1650622993.801743,0.000000,0.000000,1.000000,0.000000,0.000000,0.000000,0.000000,3.549538,6.110648,-0.668148
1650622993.902003,274.000000,1650622993.901761,0.000000,0.000000,1.000000,0.000000,0.000000,0.000000,0.000000,3.552272,6.112006,-0.641339
1650622994.001952,275.000000,1650622994.001674,0.000000,0.000000,1.000000,0.000000,0.000000,0.000000,0.000000,3.554821,6.113266,-0.610331
1650622994.101878,276.000000,1650622994.101640,0.000000,0.000000,1.000000,0.000000,0.000000,0.000000,0.000000,3.562638,6.112250,-0.553555
1650622994.201952,277.000000,1650622994.201682,0.000000,0.000000,1.000000,0.000000,0.000000,0.000000,0.000000,3.567784,6.109088,-0.520517
1650622994.301857,278.000000,1650622994.301682,0.000000,0.000000,1.000000,0.000000,0.000000,0.000000,0.000000,3.570390,6.106087,-0.496586
1650622994.401900,279.000000,1650622994.401639,0.000000,0.000000,1.000000,0.000000,0.000000,0.000000,0.000000,3.570592,6.104339,-0.495123
1650622994.502011,280.000000,1650622994.501812,0.000000,0.000000,1.000000,0.000000,0.000000,0.000000,0.000000,3.569615,6.101601,-0.507946
1650622994.601956,281.000000,1650622994.601746,0.000000,0.000000,1.000000,0.000000,0.000000,0.000000,0.000000,3.562079,6.097936,-0.476370
1650622994.702245,282.000000,1650622994.701987,0.000000,0.000000,1.000000,0.000000,0.000000,0.000000,0.000000,3.557091,6.095585,-0.447379
1650622994.801952,283.000000,1650622994.801760,0.000000,0.000000,1.000000,0.000000,0.000000,0.000000,0.000000,3.554532,6.094482,-0.441865
1650622994.901997,284.000000,1650622994.901752,0.000000,0.000000,1.000000,0.000000,0.000000,0.000000,0.000000,3.552098,6.093472,-0.455643
1650622995.002034,285.000000,1650622995.001790,0.000000,0.000000,1.000000,0.000000,0.000000,0.000000,0.000000,3.549790,6.092550,-0.479019
1650622995.101913,286.000000,1650622995.101686,0.000000,0.000000,1.000000,0.000000,0.000000,0.000000,0.000000,3.547609,6.092802,-0.500256
1650622995.202029,287.000000,1650622995.201786,0.000000,0.000000,1.000000,0.000000,0.000000,0.000000,0.000000,3.543374,6.093073,-0.530678
1650622995.302042,288.000000,1650622995.301800,0.000000,0.000000,1.000000,0.000000,0.000000,0.000000,0.000000,3.548114,6.092267,-0.523879
1650622995.402016,289.000000,1650622995.401803,0.000000,0.000000,1.000000,0.000000,0.000000,0.000000,0.000000,3.550420,6.091535,-0.527327
1650622995.502080,290.000000,1650622995.501860,0.000000,0.000000,1.000000,0.000000,0.000000,0.000000,0.000000,3.549327,6.090873,-0.542202
1650622995.602041,291.000000,1650622995.601835,0.000000,0.000000,1.000000,0.000000,0.000000,0.000000,0.000000,3.549385,6.091368,-0.555105
1650622995.701912,292.000000,1650622995.701704,0.000000,0.000000,1.000000,0.000000,0.000000,0.000000,0.000000,3.548349,6.091863,-0.577374
1650622995.801887,293.000000,1650622995.801718,0.000000,0.000000,1.000000,0.000000,0.000000,0.000000,0.000000,3.548465,6.092356,-0.592455
1650622995.901875,294.000000,1650622995.901630,0.000000,0.000000,1.000000,0.000000,0.000000,0.000000,0.000000,3.547487,6.092843,-0.594154
1650622996.001923,295.000000,1650622996.001717,0.000000,0.000000,1.000000,0.000000,0.000000,0.000000,0.000000,3.547659,6.094412,-0.588647
1650622996.101993,296.000000,1650622996.101779,0.000000,0.000000,1.000000,0.000000,0.000000,0.000000,0.000000,3.546737,6.095908,-0.595584
1650622996.201995,297.000000,1650622996.201777,0.000000,0.000000,1.000000,0.000000,0.000000,0.000000,0.000000,3.545873,6.098420,-0.612026
1650622996.302085,298.000000,1650622996.301815,0.000000,0.000000,1.000000,0.000000,0.000000,0.000000,0.000000,3.543975,6.099704,-0.640785
1650622996.401885,299.000000,1650622996.401657,0.000000,0.000000,1.000000,0.000000,0.000000,0.000000,0.000000,3.542197,6.099822,-0.674054
1650622996.501934,300.000000,1650622996.501759,0.000000,0.000000,1.000000,0.000000,0.000000,0.000000,0.000000,3.547078,6.098838,-0.673690
1650622996.602019,301.000000,1650622996.601768,0.000000,0.000000,1.000000,0.000000,0.000000,0.000000,0.000000,3.551697,6.098996,-0.683793
1650622996.702029,302.000000,1650622996.701767,0.000000,0.000000,1.000000,0.000000,0.000000,0.000000,0.000000,3.553873,6.099143,-0.696666
1650622996.801943,303.000000,1650622996.801712,0.000000,0.000000,1.000000,0.000000,0.000000,0.000000,0.000000,3.554822,6.098189,-0.710567
1650622996.902073,304.000000,1650622996.901832,0.000000,0.000000,1.000000,0.000000,0.000000,0.000000,0.000000,3.555701,6.098378,-0.711722
1650622997.001983,305.000000,1650622997.001765,0.000000,0.000000,1.000000,0.000000,0.000000,0.000000,0.000000,3.555420,6.099647,-0.722422
1650622997.102439,306.000000,1650622997.102167,0.000000,0.000000,1.000000,0.000000,0.000000,0.000000,0.000000,3.555136,6.099753,-0.741461
1650622997.202019,307.000000,1650622997.201811,0.000000,0.000000,1.000000,0.000000,0.000000,0.000000,0.000000,3.554851,6.100938,-0.766055
1650622997.301908,308.000000,1650622997.301707,0.000000,0.000000,1.000000,0.000000,0.000000,0.000000,0.000000,3.561108,6.098781,-0.745944
1650622997.401980,309.000000,1650622997.401826,0.000000,0.000000,1.000000,0.000000,0.000000,0.000000,0.000000,3.565900,6.095650,-0.745068
1650622997.501943,310.000000,1650622997.501773,0.000000,0.000000,1.000000,0.000000,0.000000,0.000000,0.000000,3.567114,6.094880,-0.736852
1650622997.601893,311.000000,1650622997.601705,0.000000,0.000000,1.000000,0.000000,0.000000,0.000000,0.000000,3.568213,6.094163,-0.744998
1650622997.702031,312.000000,1650622997.701803,0.000000,0.000000,1.000000,0.000000,0.000000,0.000000,0.000000,3.565932,6.094588,-0.749481
1650622997.801952,313.000000,1650622997.801724,0.000000,0.000000,1.000000,0.000000,0.000000,0.000000,0.000000,3.562647,6.095001,-0.764962
1650622997.902013,314.000000,1650622997.901762,0.000000,0.000000,1.000000,0.000000,0.000000,0.000000,0.000000,3.557333,6.095401,-0.786139
1650622998.002038,315.000000,1650622998.001794,0.000000,0.000000,1.000000,0.000000,0.000000,0.000000,0.000000,3.553392,6.095786,-0.811137
1650622998.101924,316.000000,1650622998.101701,0.000000,0.000000,1.000000,0.000000,0.000000,0.000000,0.000000,3.550760,6.096155,-0.841381
1650622998.201980,317.000000,1650622998.201752,0.000000,0.000000,1.000000,0.000000,0.000000,0.000000,0.000000,3.547195,6.097599,-0.852422
1650622998.302043,318.000000,1650622998.301779,0.000000,0.000000,1.000000,0.000000,0.000000,0.000000,0.000000,3.549299,6.095692,-0.819219
1650622998.401986,319.000000,1650622998.401720,0.000000,0.000000,1.000000,0.000000,0.000000,0.000000,0.000000,3.550213,6.094985,-0.805720
1650622998.502070,320.000000,1650622998.501846,0.000000,0.000000,1.000000,0.000000,0.000000,0.000000,0.000000,3.549999,6.094323,-0.806321
1650622998.602028,321.000000,1650622998.601819,0.000000,0.000000,1.000000,0.000000,0.000000,0.000000,0.000000,3.550899,6.093707,-0.818848
1650622998.702063,322.000000,1650622998.701838,0.000000,0.000000,1.000000,0.000000,0.000000,0.000000,0.000000,3.548486,6.093134,-0.820224
1650622998.802030,323.000000,1650622998.801800,0.000000,0.000000,1.000000,0.000000,0.000000,0.000000,0.000000,3.547311,6.093695,-0.817354
1650622998.901911,324.000000,1650622998.901717,0.000000,0.000000,1.000000,0.000000,0.000000,0.000000,0.000000,3.546218,6.095324,-0.808808
1650622999.001878,325.000000,1650622999.001704,0.000000,0.000000,1.000000,0.000000,0.000000,0.000000,0.000000,3.544115,6.095778,-0.814996
1650622999.101969,326.000000,1650622999.101720,0.000000,0.000000,1.000000,0.000000,0.000000,0.000000,0.000000,3.548694,6.094028,-0.782901
1650622999.201658,327.000000,1650622999.201480,0.000000,0.000000,1.000000,0.000000,0.000000,0.000000,0.000000,3.550853,6.093471,-0.748803
1650622999.301643,328.000000,1650622999.301477,0.000000,0.000000,1.000000,0.000000,0.000000,0.000000,0.000000,3.552898,6.094043,-0.716875
1650622999.401603,329.000000,1650622999.401438,0.000000,0.000000,1.000000,0.000000,0.000000,0.000000,0.000000,3.553736,6.094590,-0.694343
1650622999.501643,330.000000,1650622999.501466,0.000000,0.000000,1.000000,0.000000,0.000000,0.000000,0.000000,3.553433,6.096202,-0.671187
1650622999.602100,331.000000,1650622999.601829,0.000000,0.000000,1.000000,0.000000,0.000000,0.000000,0.000000,3.552050,6.096635,-0.669242
1650622999.701967,332.000000,1650622999.701730,0.000000,0.000000,1.000000,0.000000,0.000000,0.000000,0.000000,3.549652,6.097042,-0.679587
1650622999.801928,333.000000,1650622999.801731,0.000000,0.000000,1.000000,0.000000,0.000000,0.000000,0.000000,3.547392,6.097423,-0.686381
1650622999.902092,334.000000,1650622999.901895,0.000000,0.000000,1.000000,0.000000,0.000000,0.000000,0.000000,3.546359,6.098869,-0.682496
1650623000.001985,335.000000,1650623000.001792,0.000000,0.000000,1.000000,0.000000,0.000000,0.000000,0.000000,3.547579,6.100227,-0.690137
1650623000.101835,336.000000,1650623000.101657,0.000000,0.000000,1.000000,0.000000,0.000000,0.000000,0.000000,3.548745,6.101499,-0.710439
1650623000.201691,337.000000,1650623000.201517,0.000000,0.000000,1.000000,0.000000,0.000000,0.000000,0.000000,3.548764,6.102686,-0.713013
1650623000.301782,338.000000,1650623000.301540,0.000000,0.000000,1.000000,0.000000,0.000000,0.000000,0.000000,3.548788,6.103789,-0.728408
1650623000.401940,339.000000,1650623000.401733,0.000000,0.000000,1.000000,0.000000,0.000000,0.000000,0.000000,3.548818,6.104811,-0.738339
1650623000.501877,340.000000,1650623000.501720,0.000000,0.000000,1.000000,0.000000,0.000000,0.000000,0.000000,3.551032,6.104664,-0.759138
1650623000.601886,341.000000,1650623000.601727,0.000000,0.000000,1.000000,0.000000,0.000000,0.000000,0.000000,3.553125,6.104503,-0.787913
1650623000.701970,342.000000,1650623000.701792,0.000000,0.000000,1.000000,0.000000,0.000000,0.000000,0.000000,3.557276,6.102151,-0.771070
1650623000.801916,343.000000,1650623000.801727,0.000000,0.000000,1.000000,0.000000,0.000000,0.000000,0.000000,3.557910,6.101007,-0.750804
1650623000.901954,344.000000,1650623000.901776,0.000000,0.000000,1.000000,0.000000,0.000000,0.000000,0.000000,3.558487,6.098827,-0.743419
1650623001.002011,345.000000,1650623001.001827,0.000000,0.000000,1.000000,0.000000,0.000000,0.000000,0.000000,3.556830,6.097857,-0.736313
1650623001.102066,346.000000,1650623001.101844,0.000000,0.000000,1.000000,0.000000,0.000000,0.000000,0.000000,3.556339,6.095853,-0.744004
1650623001.201904,347.000000,1650623001.201701,0.000000,0.000000,1.000000,0.000000,0.000000,0.000000,0.000000,3.554770,6.095059,-0.745721
1650623001.301939,348.000000,1650623001.301735,0.000000,0.000000,1.000000,0.000000,0.000000,0.000000,0.000000,3.555461,6.094319,-0.757025
1650623001.401944,349.000000,1650623001.401744,0.000000,0.000000,1.000000,0.000000,0.000000,0.000000,0.000000,3.553924,6.095813,-0.760576
1650623001.502018,350.000000,1650623001.501807,0.000000,0.000000,1.000000,0.000000,0.000000,0.000000,0.000000,3.553557,6.097234,-0.755069
1650623001.601974,351.000000,1650623001.601780,0.000000,0.000000,1.000000,0.000000,0.000000,0.000000,0.000000,3.553208,6.097489,-0.765075
1650623001.702051,352.000000,1650623001.701773,0.000000,0.000000,1.000000,0.000000,0.000000,0.000000,0.000000,3.551787,6.097733,-0.785114
1650623001.802021,353.000000,1650623001.801755,0.000000,0.000000,1.000000,0.000000,0.000000,0.000000,0.000000,3.548265,6.097964,-0.812329
1650623001.902024,354.000000,1650623001.901829,0.000000,0.000000,1.000000,0.000000,0.000000,0.000000,0.000000,3.543860,6.099273,-0.824615
1650623002.001915,355.000000,1650623002.001673,0.000000,0.000000,1.000000,0.000000,0.000000,0.000000,0.000000,3.540812,6.100507,-0.844333
1650623002.102282,356.000000,1650623002.102073,0.000000,0.000000,1.000000,0.000000,0.000000,0.000000,0.000000,3.537965,6.100576,-0.869541
1650623002.201946,357.000000,1650623002.201726,0.000000,0.000000,1.000000,0.000000,0.000000,0.000000,0.000000,3.535316,6.101724,-0.899176
1650623002.302104,358.000000,1650623002.301857,0.000000,0.000000,1.000000,0.000000,0.000000,0.000000,0.000000,3.533949,6.102799,-0.920116
1650623002.401891,359.000000,1650623002.401672,0.000000,0.000000,1.000000,0.000000,0.000000,0.000000,0.000000,3.532707,6.103802,-0.934297
1650623002.501687,360.000000,1650623002.501483,0.000000,0.000000,1.000000,0.000000,0.000000,0.000000,0.000000,3.533764,6.103645,-0.955690
1650623002.601671,361.000000,1650623002.601465,0.000000,0.000000,1.000000,0.000000,0.000000,0.000000,0.000000,3.531536,6.104572,-0.956560
1650623002.701815,362.000000,1650623002.701588,0.000000,0.000000,1.000000,0.000000,0.000000,0.000000,0.000000,3.530570,6.105432,-0.963551
1650623002.801629,363.000000,1650623002.801438,0.000000,0.000000,1.000000,0.000000,0.000000,0.000000,0.000000,3.530795,6.106227,-0.957870
1650623002.901704,364.000000,1650623002.901484,0.000000,0.000000,1.000000,0.000000,0.000000,0.000000,0.000000,3.532145,6.105868,-0.960211
1650623003.001621,365.000000,1650623003.001433,0.000000,0.000000,1.000000,0.000000,0.000000,0.000000,0.000000,3.533459,6.105512,-0.967837
1650623003.101662,366.000000,1650623003.101465,0.000000,0.000000,1.000000,0.000000,0.000000,0.000000,0.000000,3.535825,6.106250,-0.966826
1650623003.201629,367.000000,1650623003.201446,0.000000,0.000000,1.000000,0.000000,0.000000,0.000000,0.000000,3.535904,6.108022,-0.952698
1650623003.301674,368.000000,1650623003.301485,0.000000,0.000000,1.000000,0.000000,0.000000,0.000000,0.000000,3.534910,6.109676,-0.950211
1650623003.401658,369.000000,1650623003.401478,0.000000,0.000000,1.000000,0.000000,0.000000,0.000000,0.000000,3.533993,6.110125,-0.958909
1650623003.501665,370.000000,1650623003.501426,0.000000,0.000000,1.000000,0.000000,0.000000,0.000000,0.000000,3.533151,6.110523,-0.954142
1650623003.601594,371.000000,1650623003.601433,0.000000,0.000000,1.000000,0.000000,0.000000,0.000000,0.000000,3.533472,6.110875,-0.957437
1650623003.701625,372.000000,1650623003.701447,0.000000,0.000000,1.000000,0.000000,0.000000,0.000000,0.000000,3.532708,6.109002,-0.914439
1650623003.801633,373.000000,1650623003.801465,0.000000,0.000000,1.000000,0.000000,0.000000,0.000000,0.000000,3.533101,6.109395,-0.873063
1650623003.901624,374.000000,1650623003.901446,0.000000,0.000000,1.000000,0.000000,0.000000,0.000000,0.000000,3.525862,6.107568,-0.799447
1650623004.001630,375.000000,1650623004.001468,0.000000,0.000000,1.000000,0.000000,0.000000,0.000000,0.000000,3.521241,6.105829,-0.740986
1650623004.101691,376.000000,1650623004.101504,0.000000,0.000000,1.000000,0.000000,0.000000,0.000000,0.000000,3.520199,6.104180,-0.711679
1650623004.201713,377.000000,1650623004.201527,0.000000,0.000000,1.000000,0.000000,0.000000,0.000000,0.000000,3.519269,6.103713,-0.677329
1650623004.301805,378.000000,1650623004.301584,0.000000,0.000000,1.000000,0.000000,0.000000,0.000000,0.000000,3.517355,6.104363,-0.659156
1650623004.401615,379.000000,1650623004.401445,0.000000,0.000000,1.000000,0.000000,0.000000,0.000000,0.000000,3.515603,6.103888,-0.647655
1650623004.501674,380.000000,1650623004.501516,0.000000,0.000000,1.000000,0.000000,0.000000,0.000000,0.000000,3.514007,6.104530,-0.650631
1650623004.601693,381.000000,1650623004.601470,0.000000,0.000000,1.000000,0.000000,0.000000,0.000000,0.000000,3.514740,6.104046,-0.653771
1650623004.701874,382.000000,1650623004.701654,0.000000,0.000000,1.000000,0.000000,0.000000,0.000000,0.000000,3.515490,6.103590,-0.669955
1650623004.801791,383.000000,1650623004.801576,0.000000,0.000000,1.000000,0.000000,0.000000,0.000000,0.000000,3.517339,6.103161,-0.680070
1650623004.901661,384.000000,1650623004.901425,0.000000,0.000000,1.000000,0.000000,0.000000,0.000000,0.000000,3.518039,6.103849,-0.678689
1650623005.001683,385.000000,1650623005.001441,0.000000,0.000000,1.000000,0.000000,0.000000,0.000000,0.000000,3.524190,6.101229,-0.634818
1650623005.101730,386.000000,1650623005.101484,0.000000,0.000000,1.000000,0.000000,0.000000,0.000000,0.000000,3.530022,6.098762,-0.616363
1650623005.201629,387.000000,1650623005.201442,0.000000,0.000000,1.000000,0.000000,0.000000,0.000000,0.000000,3.532261,6.097536,-0.615064
1650623005.301668,388.000000,1650623005.301468,0.000000,0.000000,1.000000,0.000000,0.000000,0.000000,0.000000,3.533277,6.095306,-0.627800
1650623005.401698,389.000000,1650623005.401495,0.000000,0.000000,1.000000,0.000000,0.000000,0.000000,0.000000,3.535315,6.094313,-0.650745
1650623005.501734,390.000000,1650623005.501546,0.000000,0.000000,1.000000,0.000000,0.000000,0.000000,0.000000,3.539404,6.094492,-0.658440
1650623005.601683,391.000000,1650623005.601485,0.000000,0.000000,1.000000,0.000000,0.000000,0.000000,0.000000,3.543239,6.093595,-0.679704
1650623005.701773,392.000000,1650623005.701569,0.000000,0.000000,1.000000,0.000000,0.000000,0.000000,0.000000,3.546825,6.093864,-0.688947
1650623005.801740,393.000000,1650623005.801523,0.000000,0.000000,1.000000,0.000000,0.000000,0.000000,0.000000,3.550166,6.094142,-0.709213
1650623005.901661,394.000000,1650623005.901488,0.000000,0.000000,1.000000,0.000000,0.000000,0.000000,0.000000,3.553267,6.094427,-0.721471
1650623006.001635,395.000000,1650623006.001470,0.000000,0.000000,1.000000,0.000000,0.000000,0.000000,0.000000,3.553954,6.094716,-0.727633
1650623006.101674,396.000000,1650623006.101526,0.000000,0.000000,1.000000,0.000000,0.000000,0.000000,0.000000,3.554542,6.096097,-0.741641
1650623006.201684,397.000000,1650623006.201513,0.000000,0.000000,1.000000,0.000000,0.000000,0.000000,0.000000,3.551766,6.097414,-0.759929
1650623006.301603,398.000000,1650623006.301447,0.000000,0.000000,1.000000,0.000000,0.000000,0.000000,0.000000,3.549093,6.097577,-0.787132
1650623006.401575,399.000000,1650623006.401407,0.000000,0.000000,1.000000,0.000000,0.000000,0.000000,0.000000,3.547618,6.098828,-0.802684
1650623006.501642,400.000000,1650623006.501473,0.000000,0.000000,1.000000,0.000000,0.000000,0.000000,0.000000,3.546194,6.101103,-0.819934
1650623006.601703,401.000000,1650623006.601530,0.000000,0.000000,1.000000,0.000000,0.000000,0.000000,0.000000,3.543732,6.103249,-0.839595
1650623006.701763,402.000000,1650623006.701574,0.000000,0.000000,1.000000,0.000000,0.000000,0.000000,0.000000,3.542480,6.105267,-0.844607
1650623006.801690,403.000000,1650623006.801492,0.000000,0.000000,1.000000,0.000000,0.000000,0.000000,0.000000,3.542376,6.106066,-0.860557
1650623006.901674,404.000000,1650623006.901501,0.000000,0.000000,1.000000,0.000000,0.000000,0.000000,0.000000,3.542269,6.107894,-0.858758
1650623007.001600,405.000000,1650623007.001441,0.000000,0.000000,1.000000,0.000000,0.000000,0.000000,0.000000,3.542159,6.108508,-0.866548
1650623007.102053,406.000000,1650623007.101893,0.000000,0.000000,1.000000,0.000000,0.000000,0.000000,0.000000,3.542047,6.110155,-0.856115
1650623007.201657,407.000000,1650623007.201485,0.000000,0.000000,1.000000,0.000000,0.000000,0.000000,0.000000,3.540845,6.111684,-0.843542
1650623007.301654,408.000000,1650623007.301431,0.000000,0.000000,1.000000,0.000000,0.000000,0.000000,0.000000,3.540795,6.112009,-0.830553
1650623007.401680,409.000000,1650623007.401510,0.000000,0.000000,1.000000,0.000000,0.000000,0.000000,0.000000,3.540746,6.111195,-0.833323
1650623007.501772,410.000000,1650623007.501583,0.000000,0.000000,1.000000,0.000000,0.000000,0.000000,0.000000,3.540698,6.110400,-0.843956
1650623007.601588,411.000000,1650623007.601425,0.000000,0.000000,1.000000,0.000000,0.000000,0.000000,0.000000,3.540651,6.109625,-0.841961
1650623007.701577,412.000000,1650623007.701418,0.000000,0.000000,1.000000,0.000000,0.000000,0.000000,0.000000,3.539514,6.108875,-0.838337
1650623007.801617,413.000000,1650623007.801448,0.000000,0.000000,1.000000,0.000000,0.000000,0.000000,0.000000,3.538441,6.109241,-0.828323
1650623007.901710,414.000000,1650623007.901501,0.000000,0.000000,1.000000,0.000000,0.000000,0.000000,0.000000,3.536342,6.109572,-0.811389
1650623008.001729,415.000000,1650623008.001539,0.000000,0.000000,1.000000,0.000000,0.000000,0.000000,0.000000,3.533278,6.109869,-0.809620
1650623008.101709,416.000000,1650623008.101511,0.000000,0.000000,1.000000,0.000000,0.000000,0.000000,0.000000,3.530402,6.109044,-0.817571
1650623008.201745,417.000000,1650623008.201535,0.000000,0.000000,1.000000,0.000000,0.000000,0.000000,0.000000,3.527712,6.108253,-0.830806
1650623008.301712,418.000000,1650623008.301514,0.000000,0.000000,1.000000,0.000000,0.000000,0.000000,0.000000,3.524112,6.107496,-0.851509
1650623008.401737,419.000000,1650623008.401542,0.000000,0.000000,1.000000,0.000000,0.000000,0.000000,0.000000,3.520754,6.106774,-0.859187
1650623008.501700,420.000000,1650623008.501509,0.000000,0.000000,1.000000,0.000000,0.000000,0.000000,0.000000,3.525264,6.104998,-0.828548
1650623008.601609,421.000000,1650623008.601446,0.000000,0.000000,1.000000,0.000000,0.000000,0.000000,0.000000,3.527383,6.104411,-0.793452
1650623008.701672,422.000000,1650623008.701488,0.000000,0.000000,1.000000,0.000000,0.000000,0.000000,0.000000,3.529413,6.104952,-0.763010
1650623008.801705,423.000000,1650623008.801519,0.000000,0.000000,1.000000,0.000000,0.000000,0.000000,0.000000,3.530261,6.105465,-0.733861
1650623008.901681,424.000000,1650623008.901507,0.000000,0.000000,1.000000,0.000000,0.000000,0.000000,0.000000,3.520173,6.103769,-0.672933
1650623009.001770,425.000000,1650623009.001582,0.000000,0.000000,1.000000,0.000000,0.000000,0.000000,0.000000,3.513953,6.102172,-0.634027
1650623009.101703,426.000000,1650623009.101526,0.000000,0.000000,1.000000,0.000000,0.000000,0.000000,0.000000,3.508134,6.102854,-0.594537
1650623009.202187,427.000000,1650623009.201930,0.000000,0.000000,1.000000,0.000000,0.000000,0.000000,0.000000,3.503800,6.103506,-0.578737
1650623009.301941,428.000000,1650623009.301762,0.000000,0.000000,1.000000,0.000000,0.000000,0.000000,0.000000,3.500879,6.103037,-0.582458
1650623009.401955,429.000000,1650623009.401750,0.000000,0.000000,1.000000,0.000000,0.000000,0.000000,0.000000,3.498208,6.102601,-0.600862
1650623009.502046,430.000000,1650623009.501868,0.000000,0.000000,1.000000,0.000000,0.000000,0.000000,0.000000,3.496868,6.103286,-0.604279
1650623009.601971,431.000000,1650623009.601740,0.000000,0.000000,1.000000,0.000000,0.000000,0.000000,0.000000,3.496783,6.103938,-0.621523
1650623009.702060,432.000000,1650623009.701868,0.000000,0.000000,1.000000,0.000000,0.000000,0.000000,0.000000,3.496791,6.103467,-0.629415
1650623009.802045,433.000000,1650623009.801855,0.000000,0.000000,1.000000,0.000000,0.000000,0.000000,0.000000,3.497971,6.104116,-0.629923
1650623009.902056,434.000000,1650623009.901831,0.000000,0.000000,1.000000,0.000000,0.000000,0.000000,0.000000,3.500252,6.104732,-0.633820
1650623010.002002,435.000000,1650623010.001789,0.000000,0.000000,1.000000,0.000000,0.000000,0.000000,0.000000,3.501381,6.105313,-0.626438
1650623010.102116,436.000000,1650623010.101871,0.000000,0.000000,1.000000,0.000000,0.000000,0.000000,0.000000,3.504685,6.105861,-0.634044
1650623010.202018,437.000000,1650623010.201786,0.000000,0.000000,1.000000,0.000000,0.000000,0.000000,0.000000,3.505670,6.106374,-0.652788
1650623010.302305,438.000000,1650623010.302029,0.000000,0.000000,1.000000,0.000000,0.000000,0.000000,0.000000,3.508818,6.106855,-0.660409
1650623010.402027,439.000000,1650623010.401820,0.000000,0.000000,1.000000,0.000000,0.000000,0.000000,0.000000,3.511820,6.108393,-0.676691
1650623010.501698,440.000000,1650623010.501527,0.000000,0.000000,1.000000,0.000000,0.000000,0.000000,0.000000,3.513581,6.108747,-0.694803
1650623010.601712,441.000000,1650623010.601518,0.000000,0.000000,1.000000,0.000000,0.000000,0.000000,0.000000,3.515253,6.109069,-0.721894
1650623010.701779,442.000000,1650623010.701542,0.000000,0.000000,1.000000,0.000000,0.000000,0.000000,0.000000,3.517926,6.110453,-0.734170
1650623010.801800,443.000000,1650623010.801550,0.000000,0.000000,1.000000,0.000000,0.000000,0.000000,0.000000,3.519357,6.111746,-0.751561
1650623010.901686,444.000000,1650623010.901471,0.000000,0.000000,1.000000,0.000000,0.000000,0.000000,0.000000,3.519608,6.111860,-0.773834
1650623011.001732,445.000000,1650623011.001554,0.000000,0.000000,1.000000,0.000000,0.000000,0.000000,0.000000,3.520924,6.111949,-0.803176
1650623011.101753,446.000000,1650623011.101544,0.000000,0.000000,1.000000,0.000000,0.000000,0.000000,0.000000,3.521064,6.109836,-0.836837
1650623011.201704,447.000000,1650623011.201492,0.000000,0.000000,1.000000,0.000000,0.000000,0.000000,0.000000,3.522272,6.107828,-0.874591
1650623011.301729,448.000000,1650623011.301511,0.000000,0.000000,1.000000,0.000000,0.000000,0.000000,0.000000,3.523397,6.105927,-0.911380
1650623011.401774,449.000000,1650623011.401535,0.000000,0.000000,1.000000,0.000000,0.000000,0.000000,0.000000,3.524440,6.105223,-0.949610
1650623011.501728,450.000000,1650623011.501528,0.000000,0.000000,1.000000,0.000000,0.000000,0.000000,0.000000,3.525405,6.104564,-0.962558
1650623011.602139,451.000000,1650623011.601857,0.000000,0.000000,1.000000,0.000000,0.000000,0.000000,0.000000,3.526294,6.103947,-0.966557
1650623011.702077,452.000000,1650623011.701817,0.000000,0.000000,1.000000,0.000000,0.000000,0.000000,0.000000,3.527109,6.104463,-0.962784
1650623011.801975,453.000000,1650623011.801745,0.000000,0.000000,1.000000,0.000000,0.000000,0.000000,0.000000,3.527854,6.106049,-0.963670
1650623011.902032,454.000000,1650623011.901847,0.000000,0.000000,1.000000,0.000000,0.000000,0.000000,0.000000,3.538344,6.105368,-0.932750
1650623012.002067,455.000000,1650623012.001828,0.000000,0.000000,1.000000,0.000000,0.000000,0.000000,0.000000,3.544933,6.104728,-0.919757
1650623012.102377,456.000000,1650623012.102207,0.000000,0.000000,1.000000,0.000000,0.000000,0.000000,0.000000,3.549997,6.105218,-0.899809
1650623012.202075,457.000000,1650623012.201834,0.000000,0.000000,1.000000,0.000000,0.000000,0.000000,0.000000,3.555788,6.105685,-0.893391
1650623012.302122,458.000000,1650623012.301882,0.000000,0.000000,1.000000,0.000000,0.000000,0.000000,0.000000,3.564434,6.102857,-0.845943
1650623012.402117,459.000000,1650623012.401847,0.000000,0.000000,1.000000,0.000000,0.000000,0.000000,0.000000,3.568125,6.103465,-0.814851
1650623012.502002,460.000000,1650623012.501746,0.000000,0.000000,1.000000,0.000000,0.000000,0.000000,0.000000,3.568217,6.102957,-0.804351
1650623012.602071,461.000000,1650623012.601880,0.000000,0.000000,1.000000,0.000000,0.000000,0.000000,0.000000,3.569275,6.103576,-0.801534
1650623012.702112,462.000000,1650623012.701850,0.000000,0.000000,1.000000,0.000000,0.000000,0.000000,0.000000,3.567979,6.104168,-0.809321
1650623012.801650,463.000000,1650623012.801478,0.000000,0.000000,1.000000,0.000000,0.000000,0.000000,0.000000,3.566648,6.104732,-0.826466
1650623012.901767,464.000000,1650623012.901589,0.000000,0.000000,1.000000,0.000000,0.000000,0.000000,0.000000,3.566384,6.104178,-0.849335
1650623013.001698,465.000000,1650623013.001523,0.000000,0.000000,1.000000,0.000000,0.000000,0.000000,0.000000,3.564956,6.104748,-0.853468
1650623013.101707,466.000000,1650623013.101536,0.000000,0.000000,1.000000,0.000000,0.000000,0.000000,0.000000,3.563527,6.106379,-0.859776
1650623013.201771,467.000000,1650623013.201590,0.000000,0.000000,1.000000,0.000000,0.000000,0.000000,0.000000,3.561015,6.107919,-0.871392
1650623013.301674,468.000000,1650623013.301496,0.000000,0.000000,1.000000,0.000000,0.000000,0.000000,0.000000,3.558581,6.109366,-0.872761
1650623013.401626,469.000000,1650623013.401445,0.000000,0.000000,1.000000,0.000000,0.000000,0.000000,0.000000,3.554053,6.110723,-0.879622
1650623013.501706,470.000000,1650623013.501511,0.000000,0.000000,1.000000,0.000000,0.000000,0.000000,0.000000,3.550831,6.110899,-0.895778
1650623013.601688,471.000000,1650623013.601503,0.000000,0.000000,1.000000,0.000000,0.000000,0.000000,0.000000,3.548857,6.111051,-0.896637
1650623013.701660,472.000000,1650623013.701476,0.000000,0.000000,1.000000,0.000000,0.000000,0.000000,0.000000,3.549161,6.110089,-0.907821
1650623013.801712,473.000000,1650623013.801521,0.000000,0.000000,1.000000,0.000000,0.000000,0.000000,0.000000,3.549436,6.109168,-0.923254
1650623013.901675,474.000000,1650623013.901495,0.000000,0.000000,1.000000,0.000000,0.000000,0.000000,0.000000,3.550776,6.109381,-0.921777
1650623014.001642,475.000000,1650623014.001472,0.000000,0.000000,1.000000,0.000000,0.000000,0.000000,0.000000,3.550937,6.109574,-0.913758
1650623014.101687,476.000000,1650623014.101497,0.000000,0.000000,1.000000,0.000000,0.000000,0.000000,0.000000,3.548894,6.109749,-0.915610
1650623014.201698,477.000000,1650623014.201531,0.000000,0.000000,1.000000,0.000000,0.000000,0.000000,0.000000,3.548045,6.109907,-0.928550
1650623014.301742,478.000000,1650623014.301574,0.000000,0.000000,1.000000,0.000000,0.000000,0.000000,0.000000,3.546148,6.110047,-0.926308
1650623014.401723,479.000000,1650623014.401544,0.000000,0.000000,1.000000,0.000000,0.000000,0.000000,0.000000,3.543265,6.110173,-0.934506
1650623014.501730,480.000000,1650623014.501565,0.000000,0.000000,1.000000,0.000000,0.000000,0.000000,0.000000,3.540551,6.111373,-0.926102
1650623014.601722,481.000000,1650623014.601555,0.000000,0.000000,1.000000,0.000000,0.000000,0.000000,0.000000,3.540183,6.111407,-0.929204
1650623014.701781,482.000000,1650623014.701583,0.000000,0.000000,1.000000,0.000000,0.000000,0.000000,0.000000,3.540946,6.112519,-0.927220
1650623014.801577,483.000000,1650623014.801433,0.000000,0.000000,1.000000,0.000000,0.000000,0.000000,0.000000,3.542772,6.112466,-0.934074
1650623014.901627,484.000000,1650623014.901476,0.000000,0.000000,1.000000,0.000000,0.000000,0.000000,0.000000,3.542327,6.111313,-0.946982
1650623015.001611,485.000000,1650623015.001462,0.000000,0.000000,1.000000,0.000000,0.000000,0.000000,0.000000,3.541916,6.111305,-0.947135
1650623015.101597,486.000000,1650623015.101447,0.000000,0.000000,1.000000,0.000000,0.000000,0.000000,0.000000,3.541537,6.108018,-0.958440
1650623015.201593,487.000000,1650623015.201447,0.000000,0.000000,1.000000,0.000000,0.000000,0.000000,0.000000,3.541190,6.104914,-0.974790
1650623015.301692,488.000000,1650623015.301518,0.000000,0.000000,1.000000,0.000000,0.000000,0.000000,0.000000,3.539784,6.101991,-0.995958
1650623015.401756,489.000000,1650623015.401580,0.000000,0.000000,1.000000,0.000000,0.000000,0.000000,0.000000,3.538469,6.101429,-0.999948
1650623015.501688,490.000000,1650623015.501524,0.000000,0.000000,1.000000,0.000000,0.000000,0.000000,0.000000,3.536153,6.102010,-1.008421
1650623015.601771,491.000000,1650623015.601575,0.000000,0.000000,1.000000,0.000000,0.000000,0.000000,0.000000,3.532898,6.103668,-1.001835
1650623015.701709,492.000000,1650623015.701517,0.000000,0.000000,1.000000,0.000000,0.000000,0.000000,0.000000,3.528764,6.103068,-1.001785
1650623015.801648,493.000000,1650623015.801460,0.000000,0.000000,1.000000,0.000000,0.000000,0.000000,0.000000,3.527080,6.101423,-1.010435
1650623015.901621,494.000000,1650623015.901454,0.000000,0.000000,1.000000,0.000000,0.000000,0.000000,0.000000,3.524445,6.099886,-1.025007
1650623016.001694,495.000000,1650623016.001514,0.000000,0.000000,1.000000,0.000000,0.000000,0.000000,0.000000,3.542723,6.100635,-0.991213
1650623016.101649,496.000000,1650623016.101478,0.000000,0.000000,1.000000,0.000000,0.000000,0.000000,0.000000,3.555637,6.101361,-0.953003
1650623016.201664,497.000000,1650623016.201492,0.000000,0.000000,1.000000,0.000000,0.000000,0.000000,0.000000,3.564528,6.102062,-0.924336
1650623016.301710,498.000000,1650623016.301538,0.000000,0.000000,1.000000,0.000000,0.000000,0.000000,0.000000,3.570681,6.103827,-0.888748
1650623016.401674,499.000000,1650623016.401498,0.000000,0.000000,1.000000,0.000000,0.000000,0.000000,0.000000,3.574229,6.105502,-0.874000
1650623016.501598,500.000000,1650623016.501454,0.000000,0.000000,1.000000,0.000000,0.000000,0.000000,0.000000,3.574219,6.104904,-0.874436
1650623016.601633,501.000000,1650623016.601481,0.000000,0.000000,1.000000,0.000000,0.000000,0.000000,0.000000,3.571940,6.104341,-0.885407
1650623016.701655,502.000000,1650623016.701498,0.000000,0.000000,1.000000,0.000000,0.000000,0.000000,0.000000,3.568618,6.102721,-0.904048
1650623016.801667,503.000000,1650623016.801509,0.000000,0.000000,1.000000,0.000000,0.000000,0.000000,0.000000,3.566505,6.102289,-0.912274
1650623016.901716,504.000000,1650623016.901550,0.000000,0.000000,1.000000,0.000000,0.000000,0.000000,0.000000,3.564456,6.101889,-0.926619
1650623017.001646,505.000000,1650623017.001489,0.000000,0.000000,1.000000,0.000000,0.000000,0.000000,0.000000,3.561386,6.101521,-0.942781
1650623017.102247,506.000000,1650623017.102051,0.000000,0.000000,1.000000,0.000000,0.000000,0.000000,0.000000,3.557363,6.101183,-0.965499
1650623017.201611,507.000000,1650623017.201457,0.000000,0.000000,1.000000,0.000000,0.000000,0.000000,0.000000,3.561176,6.097604,-0.938019
1650623017.301630,508.000000,1650623017.301484,0.000000,0.000000,1.000000,0.000000,0.000000,0.000000,0.000000,3.561484,6.095331,-0.906771
1650623017.401716,509.000000,1650623017.401519,0.000000,0.000000,1.000000,0.000000,0.000000,0.000000,0.000000,3.562839,6.094300,-0.880025
1650623017.501767,510.000000,1650623017.501591,0.000000,0.000000,1.000000,0.000000,0.000000,0.000000,0.000000,3.564092,6.094445,-0.868129
1650623017.601716,511.000000,1650623017.601551,0.000000,0.000000,1.000000,0.000000,0.000000,0.000000,0.000000,3.564154,6.094610,-0.850341
1650623017.701689,512.000000,1650623017.701522,0.000000,0.000000,1.000000,0.000000,0.000000,0.000000,0.000000,3.562003,6.093699,-0.845472
1650623017.801721,513.000000,1650623017.801547,0.000000,0.000000,1.000000,0.000000,0.000000,0.000000,0.000000,3.559948,6.092865,-0.834458
1650623017.901682,514.000000,1650623017.901510,0.000000,0.000000,1.000000,0.000000,0.000000,0.000000,0.000000,3.556902,6.092104,-0.837722
1650623018.001653,515.000000,1650623018.001473,0.000000,0.000000,1.000000,0.000000,0.000000,0.000000,0.000000,3.554018,6.091412,-0.847419
1650623018.101604,516.000000,1650623018.101428,0.000000,0.000000,1.000000,0.000000,0.000000,0.000000,0.000000,3.551297,6.091878,-0.844721
1650623018.201605,517.000000,1650623018.201424,0.000000,0.000000,1.000000,0.000000,0.000000,0.000000,0.000000,3.548739,6.093434,-0.851095
1650623018.301750,518.000000,1650623018.301545,0.000000,0.000000,1.000000,0.000000,0.000000,0.000000,0.000000,3.545252,6.093834,-0.866161
1650623018.401660,519.000000,1650623018.401469,0.000000,0.000000,1.000000,0.000000,0.000000,0.000000,0.000000,3.543076,6.095320,-0.863734
1650623018.501765,520.000000,1650623018.501566,0.000000,0.000000,1.000000,0.000000,0.000000,0.000000,0.000000,3.542146,6.096736,-0.848553
1650623018.601808,521.000000,1650623018.601619,0.000000,0.000000,1.000000,0.000000,0.000000,0.000000,0.000000,3.540213,6.098081,-0.845349
1650623018.701721,522.000000,1650623018.701548,0.000000,0.000000,1.000000,0.000000,0.000000,0.000000,0.000000,3.538427,6.098264,-0.854449
1650623018.801601,523.000000,1650623018.801455,0.000000,0.000000,1.000000,0.000000,0.000000,0.000000,0.000000,3.537873,6.098439,-0.856788
1650623018.901703,524.000000,1650623018.901543,0.000000,0.000000,1.000000,0.000000,0.000000,0.000000,0.000000,3.538483,6.099694,-0.865537
1650623019.001649,525.000000,1650623019.001482,0.000000,0.000000,1.000000,0.000000,0.000000,0.000000,0.000000,3.540189,6.100877,-0.879613
1650623019.101715,526.000000,1650623019.101536,0.000000,0.000000,1.000000,0.000000,0.000000,0.000000,0.000000,3.542925,6.103079,-0.884261
1650623019.201646,527.000000,1650623019.201497,0.000000,0.000000,1.000000,0.000000,0.000000,0.000000,0.000000,3.545532,6.104057,-0.895175
1650623019.301651,528.000000,1650623019.301486,0.000000,0.000000,1.000000,0.000000,0.000000,0.000000,0.000000,3.546919,6.104966,-0.899180
1650623019.401763,529.000000,1650623019.401595,0.000000,0.000000,1.000000,0.000000,0.000000,0.000000,0.000000,3.544966,6.104717,-0.911065
1650623019.501698,530.000000,1650623019.501526,0.000000,0.000000,1.000000,0.000000,0.000000,0.000000,0.000000,3.544222,6.104466,-0.928880
1650623019.601624,531.000000,1650623019.601467,0.000000,0.000000,1.000000,0.000000,0.000000,0.000000,0.000000,3.541351,6.103123,-0.950745
1650623019.701646,532.000000,1650623019.701494,0.000000,0.000000,1.000000,0.000000,0.000000,0.000000,0.000000,3.539750,6.101844,-0.920011
1650623019.801632,533.000000,1650623019.801491,0.000000,0.000000,1.000000,0.000000,0.000000,0.000000,0.000000,3.538262,6.100631,-0.907403
1650623019.901757,534.000000,1650623019.901605,0.000000,0.000000,1.000000,0.000000,0.000000,0.000000,0.000000,3.537975,6.100572,-0.907375
1650623020.001676,535.000000,1650623020.001512,0.000000,0.000000,1.000000,0.000000,0.000000,0.000000,0.000000,3.536641,6.100517,-0.915389
1650623020.101726,536.000000,1650623020.101575,0.000000,0.000000,1.000000,0.000000,0.000000,0.000000,0.000000,3.535411,6.100465,-0.914172
1650623020.201656,537.000000,1650623020.201453,0.000000,0.000000,1.000000,0.000000,0.000000,0.000000,0.000000,3.535371,6.101505,-0.921036
1650623020.301695,538.000000,1650623020.301513,0.000000,0.000000,1.000000,0.000000,0.000000,0.000000,0.000000,3.527732,6.099215,-0.879192
1650623020.401799,539.000000,1650623020.401597,0.000000,0.000000,1.000000,0.000000,0.000000,0.000000,0.000000,3.521654,6.099234,-0.852775
