__time,/dwm1001/id_458E/pose_kf/header/seq,/dwm1001/id_458E/pose_kf/header/stamp,/dwm1001/id_458E/pose_kf/pose/orientation/pitch_deg,/dwm1001/id_458E/pose_kf/pose/orientation/roll_deg,/dwm1001/id_458E/pose_kf/pose/orientation/w,/dwm1001/id_458E/pose_kf/pose/orientation/x,/dwm1001/id_458E/pose_kf/pose/orientation/y,/dwm1001/id_458E/pose_kf/pose/orientation/yaw_deg,/dwm1001/id_458E/pose_kf/pose/orientation/z,/dwm1001/id_458E/pose_kf/pose/position/x,/dwm1001/id_458E/pose_kf/pose/position/y,/dwm1001/id_458E/pose_kf/pose/position/z
1649933192.712617,2.000000,1649933192.712464,0.000000,0.000000,1.000000,0.000000,0.000000,0.000000,0.000000,3.382256,2.351817,-0.629153
1649933192.812518,3.000000,1649933192.812407,0.000000,0.000000,1.000000,0.000000,0.000000,0.000000,0.000000,3.382101,2.350250,-0.635916
1649933192.912418,4.000000,1649933192.912308,0.000000,0.000000,1.000000,0.000000,0.000000,0.000000,0.000000,3.381950,2.348789,-0.639897
1649933193.012457,5.000000,1649933193.012338,0.000000,0.000000,1.000000,0.000000,0.000000,0.000000,0.000000,3.381802,2.347432,-0.640400
1649933193.112463,6.000000,1649933193.112293,0.000000,0.000000,1.000000,0.000000,0.000000,0.000000,0.000000,3.382750,2.346176,-0.639986
1649933193.212421,7.000000,1649933193.212284,0.000000,0.000000,1.000000,0.000000,0.000000,0.000000,0.000000,3.383640,2.345019,-0.639505
1649933193.312442,8.000000,1649933193.312332,0.000000,0.000000,1.000000,0.000000,0.000000,0.000000,0.000000,3.384474,2.343956,-0.644607
1649933193.412518,9.000000,1649933193.412380,0.000000,0.000000,1.000000,0.000000,0.000000,0.000000,0.000000,3.384160,2.342984,-0.647805
1649933193.512610,10.000000,1649933193.512503,0.000000,0.000000,1.000000,0.000000,0.000000,0.000000,0.000000,3.383855,2.342099,-0.649173
1649933193.612481,11.000000,1649933193.612344,0.000000,0.000000,1.000000,0.000000,0.000000,0.000000,0.000000,3.384649,2.341297,-0.654432
1649933193.712645,12.000000,1649933193.712517,0.000000,0.000000,1.000000,0.000000,0.000000,0.000000,0.000000,3.385390,2.340575,-0.659388
1649933193.812801,13.000000,1649933193.812699,0.000000,0.000000,1.000000,0.000000,0.000000,0.000000,0.000000,3.386080,2.341018,-0.660822
1649933193.912632,14.000000,1649933193.912516,0.000000,0.000000,1.000000,0.000000,0.000000,0.000000,0.000000,3.386718,2.341470,-0.660491
1649933194.012577,15.000000,1649933194.012417,0.000000,0.000000,1.000000,0.000000,0.000000,0.000000,0.000000,3.386218,2.341925,-0.658470
1649933194.112456,16.000000,1649933194.112334,0.000000,0.000000,1.000000,0.000000,0.000000,0.000000,0.000000,3.384642,2.343473,-0.655641
1649933194.212574,17.000000,1649933194.212438,0.000000,0.000000,1.000000,0.000000,0.000000,0.000000,0.000000,3.383147,2.346046,-0.651239
1649933194.312689,18.000000,1649933194.312543,0.000000,0.000000,1.000000,0.000000,0.000000,0.000000,0.000000,3.380641,2.347399,-0.650176
1649933194.412489,19.000000,1649933194.412365,0.000000,0.000000,1.000000,0.000000,0.000000,0.000000,0.000000,3.379369,2.349774,-0.648290
1649933194.512446,20.000000,1649933194.512319,0.000000,0.000000,1.000000,0.000000,0.000000,0.000000,0.000000,3.378176,2.350927,-0.648846
1649933194.612966,21.000000,1649933194.612830,0.000000,0.000000,1.000000,0.000000,0.000000,0.000000,0.000000,3.377063,2.352011,-0.650940
1649933194.712527,22.000000,1649933194.712371,0.000000,0.000000,1.000000,0.000000,0.000000,0.000000,0.000000,3.377116,2.354118,-0.647251
1649933194.812545,23.000000,1649933194.812406,0.000000,0.000000,1.000000,0.000000,0.000000,0.000000,0.000000,3.377182,2.355004,-0.649310
1649933194.912500,24.000000,1649933194.912379,0.000000,0.000000,1.000000,0.000000,0.000000,0.000000,0.000000,3.378349,2.354735,-0.649627
1649933195.012599,25.000000,1649933195.012398,0.000000,0.000000,1.000000,0.000000,0.000000,0.000000,0.000000,3.379462,2.354466,-0.650692
1649933195.112465,26.000000,1649933195.112347,0.000000,0.000000,1.000000,0.000000,0.000000,0.000000,0.000000,3.381610,2.353107,-0.655700
1649933195.212424,27.000000,1649933195.212324,0.000000,0.000000,1.000000,0.000000,0.000000,0.000000,0.000000,3.383640,2.352904,-0.658036
1649933195.312428,28.000000,1649933195.312319,0.000000,0.000000,1.000000,0.000000,0.000000,0.000000,0.000000,3.384461,2.352706,-0.657805
1649933195.412708,29.000000,1649933195.412565,0.000000,0.000000,1.000000,0.000000,0.000000,0.000000,0.000000,3.385227,2.354692,-0.653499
1649933195.512875,30.000000,1649933195.512748,0.000000,0.000000,1.000000,0.000000,0.000000,0.000000,0.000000,3.384850,2.357649,-0.648519
1649933195.612538,31.000000,1649933195.612389,0.000000,0.000000,1.000000,0.000000,0.000000,0.000000,0.000000,3.384483,2.359334,-0.643709
1649933195.712612,32.000000,1649933195.712484,0.000000,0.000000,1.000000,0.000000,0.000000,0.000000,0.000000,3.383037,2.361992,-0.632619
1649933195.812650,33.000000,1649933195.812524,0.000000,0.000000,1.000000,0.000000,0.000000,0.000000,0.000000,3.382758,2.362293,-0.627618
1649933195.912932,34.000000,1649933195.912704,0.000000,0.000000,1.000000,0.000000,0.000000,0.000000,0.000000,3.382491,2.362547,-0.623632
1649933196.012987,35.000000,1649933196.012789,0.000000,0.000000,1.000000,0.000000,0.000000,0.000000,0.000000,3.382238,2.362757,-0.618207
1649933196.112838,36.000000,1649933196.112700,0.000000,0.000000,1.000000,0.000000,0.000000,0.000000,0.000000,3.381999,2.362927,-0.610603
1649933196.212794,37.000000,1649933196.212651,0.000000,0.000000,1.000000,0.000000,0.000000,0.000000,0.000000,3.382863,2.361970,-0.609790
1649933196.313108,38.000000,1649933196.312979,0.000000,0.000000,1.000000,0.000000,0.000000,0.000000,0.000000,3.383678,2.358861,-0.610656
1649933196.412768,39.000000,1649933196.412597,0.000000,0.000000,1.000000,0.000000,0.000000,0.000000,0.000000,3.382263,2.356999,-0.612325
1649933196.512928,40.000000,1649933196.512777,0.000000,0.000000,1.000000,0.000000,0.000000,0.000000,0.000000,3.382016,2.355234,-0.613146
1649933196.612837,41.000000,1649933196.612638,0.000000,0.000000,1.000000,0.000000,0.000000,0.000000,0.000000,3.381783,2.353565,-0.614765
1649933196.712562,42.000000,1649933196.712394,0.000000,0.000000,1.000000,0.000000,0.000000,0.000000,0.000000,3.399010,2.339999,-0.583274
1649933196.812730,43.000000,1649933196.812579,0.000000,0.000000,1.000000,0.000000,0.000000,0.000000,0.000000,3.411975,2.331581,-0.561996
1649933196.912575,44.000000,1649933196.912411,0.000000,0.000000,1.000000,0.000000,0.000000,0.000000,0.000000,3.419782,2.325874,-0.545714
1649933197.012707,45.000000,1649933197.012537,0.000000,0.000000,1.000000,0.000000,0.000000,0.000000,0.000000,3.424872,2.321655,-0.535862
1649933197.112703,46.000000,1649933197.112536,0.000000,0.000000,1.000000,0.000000,0.000000,0.000000,0.000000,3.427385,2.319939,-0.528161
1649933197.212717,47.000000,1649933197.212443,0.000000,0.000000,1.000000,0.000000,0.000000,0.000000,0.000000,3.429640,2.319502,-0.524949
1649933197.312739,48.000000,1649933197.312601,0.000000,0.000000,1.000000,0.000000,0.000000,0.000000,0.000000,3.429471,2.319178,-0.522820
1649933197.412687,49.000000,1649933197.412526,0.000000,0.000000,1.000000,0.000000,0.000000,0.000000,0.000000,3.429198,2.320049,-0.513663
1649933197.512686,50.000000,1649933197.512526,0.000000,0.000000,1.000000,0.000000,0.000000,0.000000,0.000000,3.427743,2.322040,-0.506642
1649933197.612571,51.000000,1649933197.612422,0.000000,0.000000,1.000000,0.000000,0.000000,0.000000,0.000000,3.426273,2.323990,-0.501675
1649933197.712661,52.000000,1649933197.712456,0.000000,0.000000,1.000000,0.000000,0.000000,0.000000,0.000000,3.423707,2.325891,-0.506747
1649933197.812628,53.000000,1649933197.812447,0.000000,0.000000,1.000000,0.000000,0.000000,0.000000,0.000000,3.420118,2.327736,-0.510953
1649933197.912507,54.000000,1649933197.912339,0.000000,0.000000,1.000000,0.000000,0.000000,0.000000,0.000000,3.416669,2.328430,-0.513509
1649933198.012617,55.000000,1649933198.012452,0.000000,0.000000,1.000000,0.000000,0.000000,0.000000,0.000000,3.413364,2.329122,-0.517698
1649933198.112660,56.000000,1649933198.112478,0.000000,0.000000,1.000000,0.000000,0.000000,0.000000,0.000000,3.409120,2.330896,-0.514569
1649933198.212628,57.000000,1649933198.212476,0.000000,0.000000,1.000000,0.000000,0.000000,0.000000,0.000000,3.406182,2.333688,-0.511677
1649933198.312699,58.000000,1649933198.312557,0.000000,0.000000,1.000000,0.000000,0.000000,0.000000,0.000000,3.402310,2.336341,-0.513852
1649933198.412507,59.000000,1649933198.412368,0.000000,0.000000,1.000000,0.000000,0.000000,0.000000,0.000000,3.398657,2.338853,-0.523299
1649933198.512681,60.000000,1649933198.512529,0.000000,0.000000,1.000000,0.000000,0.000000,0.000000,0.000000,3.396312,2.340134,-0.530836
1649933198.612808,61.000000,1649933198.612592,0.000000,0.000000,1.000000,0.000000,0.000000,0.000000,0.000000,3.395210,2.341338,-0.539747
1649933198.712808,62.000000,1649933198.712592,0.000000,0.000000,1.000000,0.000000,0.000000,0.000000,0.000000,3.395287,2.342465,-0.547541
1649933198.813086,63.000000,1649933198.812937,0.000000,0.000000,1.000000,0.000000,0.000000,0.000000,0.000000,3.394294,2.343516,-0.551021
1649933198.913061,64.000000,1649933198.912916,0.000000,0.000000,1.000000,0.000000,0.000000,0.000000,0.000000,3.394472,2.344494,-0.555194
1649933199.013027,65.000000,1649933199.012832,0.000000,0.000000,1.000000,0.000000,0.000000,0.000000,0.000000,3.392486,2.345399,-0.558409
1649933199.112933,66.000000,1649933199.112813,0.000000,0.000000,1.000000,0.000000,0.000000,0.000000,0.000000,3.390637,2.346235,-0.562312
1649933199.212622,67.000000,1649933199.212473,0.000000,0.000000,1.000000,0.000000,0.000000,0.000000,0.000000,3.388923,2.345913,-0.567675
1649933199.312496,68.000000,1649933199.312377,0.000000,0.000000,1.000000,0.000000,0.000000,0.000000,0.000000,3.388430,2.346680,-0.572817
1649933199.412812,69.000000,1649933199.412653,0.000000,0.000000,1.000000,0.000000,0.000000,0.000000,0.000000,3.388001,2.348474,-0.571286
1649933199.513024,70.000000,1649933199.512830,0.000000,0.000000,1.000000,0.000000,0.000000,0.000000,0.000000,3.387631,2.349054,-0.573033
1649933199.612962,71.000000,1649933199.612767,0.000000,0.000000,1.000000,0.000000,0.000000,0.000000,0.000000,3.386226,2.349577,-0.569857
1649933199.712815,72.000000,1649933199.712611,0.000000,0.000000,1.000000,0.000000,0.000000,0.000000,0.000000,3.386026,2.350046,-0.566803
1649933199.812757,73.000000,1649933199.812589,0.000000,0.000000,1.000000,0.000000,0.000000,0.000000,0.000000,3.385872,2.349373,-0.567902
1649933199.912908,74.000000,1649933199.912695,0.000000,0.000000,1.000000,0.000000,0.000000,0.000000,0.000000,3.383580,2.350895,-0.567341
1649933200.013084,75.000000,1649933200.012911,0.000000,0.000000,1.000000,0.000000,0.000000,0.000000,0.000000,3.383633,2.350128,-0.570026
1649933200.113060,76.000000,1649933200.112821,0.000000,0.000000,1.000000,0.000000,0.000000,0.000000,0.000000,3.382631,2.348290,-0.579854
1649933200.212795,77.000000,1649933200.212631,0.000000,0.000000,1.000000,0.000000,0.000000,0.000000,0.000000,3.382811,2.347628,-0.589263
1649933200.312665,78.000000,1649933200.312483,0.000000,0.000000,1.000000,0.000000,0.000000,0.000000,0.000000,3.383017,2.345900,-0.602286
1649933200.412683,79.000000,1649933200.412501,0.000000,0.000000,1.000000,0.000000,0.000000,0.000000,0.000000,3.384335,2.344260,-0.612307
1649933200.512618,80.000000,1649933200.512471,0.000000,0.000000,1.000000,0.000000,0.000000,0.000000,0.000000,3.384518,2.342709,-0.623464
1649933200.612586,81.000000,1649933200.612432,0.000000,0.000000,1.000000,0.000000,0.000000,0.000000,0.000000,3.382534,2.341248,-0.635696
1649933200.713050,82.000000,1649933200.712885,0.000000,0.000000,1.000000,0.000000,0.000000,0.000000,0.000000,3.380687,2.339875,-0.645715
1649933200.812794,83.000000,1649933200.812681,0.000000,0.000000,1.000000,0.000000,0.000000,0.000000,0.000000,3.381156,2.337499,-0.658438
1649933200.912746,84.000000,1649933200.912603,0.000000,0.000000,1.000000,0.000000,0.000000,0.000000,0.000000,3.381629,2.336362,-0.664868
1649933201.012592,85.000000,1649933201.012466,0.000000,0.000000,1.000000,0.000000,0.000000,0.000000,0.000000,3.381013,2.336400,-0.670092
1649933201.113055,86.000000,1649933201.112923,0.000000,0.000000,1.000000,0.000000,0.000000,0.000000,0.000000,3.380457,2.336456,-0.669317
1649933201.212689,87.000000,1649933201.212499,0.000000,0.000000,1.000000,0.000000,0.000000,0.000000,0.000000,3.379960,2.335438,-0.670857
1649933201.312734,88.000000,1649933201.312587,0.000000,0.000000,1.000000,0.000000,0.000000,0.000000,0.000000,3.381697,2.335587,-0.669782
1649933201.412766,89.000000,1649933201.412544,0.000000,0.000000,1.000000,0.000000,0.000000,0.000000,0.000000,3.382270,2.335748,-0.668626
1649933201.512930,90.000000,1649933201.512808,0.000000,0.000000,1.000000,0.000000,0.000000,0.000000,0.000000,3.383920,2.337008,-0.667398
1649933201.612683,91.000000,1649933201.612526,0.000000,0.000000,1.000000,0.000000,0.000000,0.000000,0.000000,3.385490,2.339304,-0.662075
1649933201.712651,92.000000,1649933201.712455,0.000000,0.000000,1.000000,0.000000,0.000000,0.000000,0.000000,3.386981,2.340388,-0.656064
1649933201.812644,93.000000,1649933201.812477,0.000000,0.000000,1.000000,0.000000,0.000000,0.000000,0.000000,3.389482,2.341415,-0.658276
1649933201.912670,94.000000,1649933201.912511,0.000000,0.000000,1.000000,0.000000,0.000000,0.000000,0.000000,3.390748,2.342384,-0.660316
1649933202.012728,95.000000,1649933202.012515,0.000000,0.000000,1.000000,0.000000,0.000000,0.000000,0.000000,3.390845,2.344386,-0.662190
1649933202.112923,96.000000,1649933202.112755,0.000000,0.000000,1.000000,0.000000,0.000000,0.000000,0.000000,3.390925,2.346267,-0.659067
1649933202.212755,97.000000,1649933202.212555,0.000000,0.000000,1.000000,0.000000,0.000000,0.000000,0.000000,3.389901,2.349120,-0.651963
1649933202.312843,98.000000,1649933202.312638,0.000000,0.000000,1.000000,0.000000,0.000000,0.000000,0.000000,3.388926,2.351794,-0.644280
1649933202.413067,99.000000,1649933202.412878,0.000000,0.000000,1.000000,0.000000,0.000000,0.000000,0.000000,3.389091,2.353200,-0.637669
1649933202.513045,100.000000,1649933202.512867,0.000000,0.000000,1.000000,0.000000,0.000000,0.000000,0.000000,3.389244,2.355586,-0.631295
1649933202.613206,101.000000,1649933202.612958,0.000000,0.000000,1.000000,0.000000,0.000000,0.000000,0.000000,3.391566,2.356712,-0.625965
1649933202.713114,102.000000,1649933202.712876,0.000000,0.000000,1.000000,0.000000,0.000000,0.000000,0.000000,3.392661,2.358827,-0.621648
1649933202.813079,103.000000,1649933202.812868,0.000000,0.000000,1.000000,0.000000,0.000000,0.000000,0.000000,3.394772,2.359690,-0.619117
1649933202.912971,104.000000,1649933202.912804,0.000000,0.000000,1.000000,0.000000,0.000000,0.000000,0.000000,3.394569,2.360462,-0.618304
1649933203.012982,105.000000,1649933203.012768,0.000000,0.000000,1.000000,0.000000,0.000000,0.000000,0.000000,3.395449,2.360056,-0.616723
1649933203.113227,106.000000,1649933203.112923,0.000000,0.000000,1.000000,0.000000,0.000000,0.000000,0.000000,3.395172,2.360722,-0.607954
1649933203.212976,107.000000,1649933203.212799,0.000000,0.000000,1.000000,0.000000,0.000000,0.000000,0.000000,3.394892,2.361310,-0.601173
1649933203.312785,108.000000,1649933203.312523,0.000000,0.000000,1.000000,0.000000,0.000000,0.000000,0.000000,3.392431,2.360736,-0.601149
1649933203.412805,109.000000,1649933203.412583,0.000000,0.000000,1.000000,0.000000,0.000000,0.000000,0.000000,3.391188,2.361247,-0.602770
1649933203.512646,110.000000,1649933203.512456,0.000000,0.000000,1.000000,0.000000,0.000000,0.000000,0.000000,3.391100,2.362785,-0.599514
1649933203.612676,111.000000,1649933203.612525,0.000000,0.000000,1.000000,0.000000,0.000000,0.000000,0.000000,3.391015,2.363110,-0.595614
1649933203.712716,112.000000,1649933203.712522,0.000000,0.000000,1.000000,0.000000,0.000000,0.000000,0.000000,3.390933,2.363380,-0.593521
1649933203.812665,113.000000,1649933203.812496,0.000000,0.000000,1.000000,0.000000,0.000000,0.000000,0.000000,3.389764,2.363600,-0.591550
1649933203.912538,114.000000,1649933203.912408,0.000000,0.000000,1.000000,0.000000,0.000000,0.000000,0.000000,3.389751,2.363772,-0.590506
1649933204.012728,115.000000,1649933204.012558,0.000000,0.000000,1.000000,0.000000,0.000000,0.000000,0.000000,3.389741,2.362812,-0.591158
1649933204.112731,116.000000,1649933204.112573,0.000000,0.000000,1.000000,0.000000,0.000000,0.000000,0.000000,3.389733,2.361876,-0.590207
1649933204.212909,117.000000,1649933204.212534,0.000000,0.000000,1.000000,0.000000,0.000000,0.000000,0.000000,3.389728,2.360968,-0.587720
1649933204.312706,118.000000,1649933204.312493,0.000000,0.000000,1.000000,0.000000,0.000000,0.000000,0.000000,3.390816,2.360089,-0.582954
1649933204.412739,119.000000,1649933204.412507,0.000000,0.000000,1.000000,0.000000,0.000000,0.000000,0.000000,3.390753,2.358152,-0.579233
1649933204.512840,120.000000,1649933204.512656,0.000000,0.000000,1.000000,0.000000,0.000000,0.000000,0.000000,3.389601,2.356312,-0.575713
1649933204.613179,121.000000,1649933204.612960,0.000000,0.000000,1.000000,0.000000,0.000000,0.000000,0.000000,3.389605,2.354571,-0.574809
1649933204.712952,122.000000,1649933204.712761,0.000000,0.000000,1.000000,0.000000,0.000000,0.000000,0.000000,3.390701,2.351837,-0.577222
1649933204.812722,123.000000,1649933204.812570,0.000000,0.000000,1.000000,0.000000,0.000000,0.000000,0.000000,3.389556,2.351444,-0.575552
1649933204.912504,124.000000,1649933204.912343,0.000000,0.000000,1.000000,0.000000,0.000000,0.000000,0.000000,3.388475,2.351085,-0.576418
1649933205.012683,125.000000,1649933205.012536,0.000000,0.000000,1.000000,0.000000,0.000000,0.000000,0.000000,3.388550,2.351849,-0.575681
1649933205.112691,126.000000,1649933205.112542,0.000000,0.000000,1.000000,0.000000,0.000000,0.000000,0.000000,3.388625,2.352581,-0.574212
1649933205.212639,127.000000,1649933205.212502,0.000000,0.000000,1.000000,0.000000,0.000000,0.000000,0.000000,3.389791,2.352190,-0.572040
1649933205.312669,128.000000,1649933205.312519,0.000000,0.000000,1.000000,0.000000,0.000000,0.000000,0.000000,3.390894,2.351827,-0.572422
1649933205.412800,129.000000,1649933205.412602,0.000000,0.000000,1.000000,0.000000,0.000000,0.000000,0.000000,3.391934,2.351492,-0.572833
1649933205.512668,130.000000,1649933205.512524,0.000000,0.000000,1.000000,0.000000,0.000000,0.000000,0.000000,3.394002,2.352275,-0.571656
1649933205.612875,131.000000,1649933205.612740,0.000000,0.000000,1.000000,0.000000,0.000000,0.000000,0.000000,3.395945,2.353021,-0.569762
1649933205.712658,132.000000,1649933205.712513,0.000000,0.000000,1.000000,0.000000,0.000000,0.000000,0.000000,3.396675,2.354820,-0.567181
1649933205.813065,133.000000,1649933205.812859,0.000000,0.000000,1.000000,0.000000,0.000000,0.000000,0.000000,3.397345,2.355428,-0.567976
1649933205.912562,134.000000,1649933205.912413,0.000000,0.000000,1.000000,0.000000,0.000000,0.000000,0.000000,3.399050,2.354908,-0.572813
1649933206.012575,135.000000,1649933206.012446,0.000000,0.000000,1.000000,0.000000,0.000000,0.000000,0.000000,3.400638,2.354414,-0.575876
1649933206.112682,136.000000,1649933206.112519,0.000000,0.000000,1.000000,0.000000,0.000000,0.000000,0.000000,3.401021,2.352856,-0.582067
1649933206.213792,137.000000,1649933206.213540,0.000000,0.000000,1.000000,0.000000,0.000000,0.000000,0.000000,3.400265,2.351387,-0.586409
1649933206.312934,138.000000,1649933206.312773,0.000000,0.000000,1.000000,0.000000,0.000000,0.000000,0.000000,3.398437,2.351096,-0.587358
1649933206.412735,139.000000,1649933206.412564,0.000000,0.000000,1.000000,0.000000,0.000000,0.000000,0.000000,3.395602,2.351921,-0.585853
1649933206.512909,140.000000,1649933206.512745,0.000000,0.000000,1.000000,0.000000,0.000000,0.000000,0.000000,3.392915,2.353797,-0.581997
1649933206.612699,141.000000,1649933206.612531,0.000000,0.000000,1.000000,0.000000,0.000000,0.000000,0.000000,3.391467,2.355570,-0.577503
1649933206.712750,142.000000,1649933206.712564,0.000000,0.000000,1.000000,0.000000,0.000000,0.000000,0.000000,3.390105,2.357241,-0.569178
1649933206.812641,143.000000,1649933206.812499,0.000000,0.000000,1.000000,0.000000,0.000000,0.000000,0.000000,3.388827,2.358810,-0.567673
1649933206.912724,144.000000,1649933206.912566,0.000000,0.000000,1.000000,0.000000,0.000000,0.000000,0.000000,3.387634,2.360278,-0.567877
1649933207.012840,145.000000,1649933207.012692,0.000000,0.000000,1.000000,0.000000,0.000000,0.000000,0.000000,3.385432,2.360557,-0.568912
1649933207.112571,146.000000,1649933207.112355,0.000000,0.000000,1.000000,0.000000,0.000000,0.000000,0.000000,3.383373,2.360803,-0.560258
1649933207.212911,147.000000,1649933207.212735,0.000000,0.000000,1.000000,0.000000,0.000000,0.000000,0.000000,3.381455,2.361016,-0.555221
1649933207.312958,148.000000,1649933207.312831,0.000000,0.000000,1.000000,0.000000,0.000000,0.000000,0.000000,3.380764,2.361199,-0.552050
1649933207.412827,149.000000,1649933207.412646,0.000000,0.000000,1.000000,0.000000,0.000000,0.000000,0.000000,3.380143,2.361356,-0.553093
1649933207.513049,150.000000,1649933207.512864,0.000000,0.000000,1.000000,0.000000,0.000000,0.000000,0.000000,3.379589,2.359305,-0.558981
1649933207.613163,151.000000,1649933207.612953,0.000000,0.000000,1.000000,0.000000,0.000000,0.000000,0.000000,3.380189,2.356267,-0.566282
1649933207.713407,152.000000,1649933207.712914,0.000000,0.000000,1.000000,0.000000,0.000000,0.000000,0.000000,3.380785,2.353394,-0.574118
1649933207.813169,153.000000,1649933207.812911,0.000000,0.000000,1.000000,0.000000,0.000000,0.000000,0.000000,3.381374,2.351778,-0.581648
1649933207.913018,154.000000,1649933207.912846,0.000000,0.000000,1.000000,0.000000,0.000000,0.000000,0.000000,3.381953,2.351354,-0.588869
1649933208.012917,155.000000,1649933208.012786,0.000000,0.000000,1.000000,0.000000,0.000000,0.000000,0.000000,3.381429,2.350968,-0.593364
1649933208.112960,156.000000,1649933208.112735,0.000000,0.000000,1.000000,0.000000,0.000000,0.000000,0.000000,3.380954,2.350618,-0.595235
1649933208.212950,157.000000,1649933208.212795,0.000000,0.000000,1.000000,0.000000,0.000000,0.000000,0.000000,3.381614,2.350303,-0.598619
1649933208.313204,158.000000,1649933208.313065,0.000000,0.000000,1.000000,0.000000,0.000000,0.000000,0.000000,3.380075,2.350020,-0.600223
1649933208.412680,159.000000,1649933208.412540,0.000000,0.000000,1.000000,0.000000,0.000000,0.000000,0.000000,3.378640,2.349767,-0.604956
1649933208.512617,160.000000,1649933208.512485,0.000000,0.000000,1.000000,0.000000,0.000000,0.000000,0.000000,3.377307,2.348453,-0.611880
1649933208.612554,161.000000,1649933208.612428,0.000000,0.000000,1.000000,0.000000,0.000000,0.000000,0.000000,3.377163,2.348320,-0.614444
1649933208.712825,162.000000,1649933208.712616,0.000000,0.000000,1.000000,0.000000,0.000000,0.000000,0.000000,3.377054,2.348212,-0.620080
1649933208.812778,163.000000,1649933208.812617,0.000000,0.000000,1.000000,0.000000,0.000000,0.000000,0.000000,3.376975,2.348126,-0.628656
1649933208.912627,164.000000,1649933208.912507,0.000000,0.000000,1.000000,0.000000,0.000000,0.000000,0.000000,3.375833,2.349153,-0.631172
1649933209.012682,165.000000,1649933209.012529,0.000000,0.000000,1.000000,0.000000,0.000000,0.000000,0.000000,3.374779,2.349045,-0.632708
1649933209.112853,166.000000,1649933209.112662,0.000000,0.000000,1.000000,0.000000,0.000000,0.000000,0.000000,3.374900,2.348955,-0.634111
1649933209.212863,167.000000,1649933209.212672,0.000000,0.000000,1.000000,0.000000,0.000000,0.000000,0.000000,3.373949,2.349972,-0.632967
1649933209.312672,168.000000,1649933209.312496,0.000000,0.000000,1.000000,0.000000,0.000000,0.000000,0.000000,3.373078,2.349850,-0.631804
1649933209.412752,169.000000,1649933209.412544,0.000000,0.000000,1.000000,0.000000,0.000000,0.000000,0.000000,3.373372,2.351924,-0.621756
1649933209.513044,170.000000,1649933209.512843,0.000000,0.000000,1.000000,0.000000,0.000000,0.000000,0.000000,3.373676,2.352795,-0.615297
1649933209.612984,171.000000,1649933209.612834,0.000000,0.000000,1.000000,0.000000,0.000000,0.000000,0.000000,3.373987,2.352526,-0.612296
1649933209.712946,172.000000,1649933209.712792,0.000000,0.000000,1.000000,0.000000,0.000000,0.000000,0.000000,3.374302,2.354451,-0.607781
1649933209.813077,173.000000,1649933209.812915,0.000000,0.000000,1.000000,0.000000,0.000000,0.000000,0.000000,3.374618,2.354083,-0.605853
1649933209.913039,174.000000,1649933209.912860,0.000000,0.000000,1.000000,0.000000,0.000000,0.000000,0.000000,3.374933,2.354820,-0.604800
1649933210.013065,175.000000,1649933210.012894,0.000000,0.000000,1.000000,0.000000,0.000000,0.000000,0.000000,3.375247,2.354419,-0.600555
1649933210.112982,176.000000,1649933210.112804,0.000000,0.000000,1.000000,0.000000,0.000000,0.000000,0.000000,3.374465,2.355124,-0.594062
1649933210.213020,177.000000,1649933210.212832,0.000000,0.000000,1.000000,0.000000,0.000000,0.000000,0.000000,3.373741,2.355783,-0.588648
1649933210.312687,178.000000,1649933210.312493,0.000000,0.000000,1.000000,0.000000,0.000000,0.000000,0.000000,3.373072,2.357487,-0.586698
1649933210.412699,179.000000,1649933210.412546,0.000000,0.000000,1.000000,0.000000,0.000000,0.000000,0.000000,3.372456,2.359084,-0.580010
1649933210.512586,180.000000,1649933210.512439,0.000000,0.000000,1.000000,0.000000,0.000000,0.000000,0.000000,3.371893,2.360575,-0.575236
1649933210.612984,181.000000,1649933210.612762,0.000000,0.000000,1.000000,0.000000,0.000000,0.000000,0.000000,3.370288,2.364144,-0.564243
1649933210.713138,182.000000,1649933210.713005,0.000000,0.000000,1.000000,0.000000,0.000000,0.000000,0.000000,3.368794,2.366397,-0.558588
1649933210.813019,183.000000,1649933210.812887,0.000000,0.000000,1.000000,0.000000,0.000000,0.000000,0.000000,3.366317,2.369579,-0.549998
1649933210.912970,184.000000,1649933210.912816,0.000000,0.000000,1.000000,0.000000,0.000000,0.000000,0.000000,3.366188,2.370362,-0.545862
1649933211.012732,185.000000,1649933211.012567,0.000000,0.000000,1.000000,0.000000,0.000000,0.000000,0.000000,3.365006,2.371058,-0.546004
1649933211.112632,186.000000,1649933211.112500,0.000000,0.000000,1.000000,0.000000,0.000000,0.000000,0.000000,3.362832,2.371671,-0.549442
1649933211.213027,187.000000,1649933211.212845,0.000000,0.000000,1.000000,0.000000,0.000000,0.000000,0.000000,3.361905,2.370026,-0.554420
1649933211.312508,188.000000,1649933211.312377,0.000000,0.000000,1.000000,0.000000,0.000000,0.000000,0.000000,3.362156,2.369525,-0.552802
1649933211.412698,189.000000,1649933211.412575,0.000000,0.000000,1.000000,0.000000,0.000000,0.000000,0.000000,3.361340,2.369018,-0.555337
1649933211.512992,190.000000,1649933211.512860,0.000000,0.000000,1.000000,0.000000,0.000000,0.000000,0.000000,3.361694,2.369600,-0.555400
1649933211.612698,191.000000,1649933211.612558,0.000000,0.000000,1.000000,0.000000,0.000000,0.000000,0.000000,3.362062,2.369031,-0.553894
1649933211.712594,192.000000,1649933211.712476,0.000000,0.000000,1.000000,0.000000,0.000000,0.000000,0.000000,3.374434,2.360835,-0.524271
1649933211.812593,193.000000,1649933211.812448,0.000000,0.000000,1.000000,0.000000,0.000000,0.000000,0.000000,3.383941,2.355267,-0.498357
1649933211.912565,194.000000,1649933211.912436,0.000000,0.000000,1.000000,0.000000,0.000000,0.000000,0.000000,3.389618,2.351112,-0.479267
1649933212.012642,195.000000,1649933212.012524,0.000000,0.000000,1.000000,0.000000,0.000000,0.000000,0.000000,3.393841,2.347214,-0.474820
1649933212.112570,196.000000,1649933212.112455,0.000000,0.000000,1.000000,0.000000,0.000000,0.000000,0.000000,3.397767,2.344660,-0.473134
1649933212.212695,197.000000,1649933212.212561,0.000000,0.000000,1.000000,0.000000,0.000000,0.000000,0.000000,3.401405,2.343383,-0.468449
1649933212.312802,198.000000,1649933212.312537,0.000000,0.000000,1.000000,0.000000,0.000000,0.000000,0.000000,3.404764,2.343314,-0.460082
1649933212.412822,199.000000,1649933212.412642,0.000000,0.000000,1.000000,0.000000,0.000000,0.000000,0.000000,3.406761,2.343295,-0.456251
1649933212.512639,200.000000,1649933212.512508,0.000000,0.000000,1.000000,0.000000,0.000000,0.000000,0.000000,3.409652,2.344411,-0.454355
1649933212.612806,201.000000,1649933212.612570,0.000000,0.000000,1.000000,0.000000,0.000000,0.000000,0.000000,3.412293,2.345503,-0.456731
1649933212.712894,202.000000,1649933212.712742,0.000000,0.000000,1.000000,0.000000,0.000000,0.000000,0.000000,3.413603,2.347657,-0.456745
1649933212.812811,203.000000,1649933212.812566,0.000000,0.000000,1.000000,0.000000,0.000000,0.000000,0.000000,3.413658,2.347537,-0.465775
1649933212.912613,204.000000,1649933212.912467,0.000000,0.000000,1.000000,0.000000,0.000000,0.000000,0.000000,3.412531,2.348535,-0.476985
1649933213.012965,205.000000,1649933213.012747,0.000000,0.000000,1.000000,0.000000,0.000000,0.000000,0.000000,3.411384,2.349497,-0.483812
1649933213.112695,206.000000,1649933213.112537,0.000000,0.000000,1.000000,0.000000,0.000000,0.000000,0.000000,3.409138,2.351510,-0.488028
1649933213.212689,207.000000,1649933213.212550,0.000000,0.000000,1.000000,0.000000,0.000000,0.000000,0.000000,3.406953,2.353420,-0.492149
1649933213.312757,208.000000,1649933213.312602,0.000000,0.000000,1.000000,0.000000,0.000000,0.000000,0.000000,3.403747,2.355226,-0.494554
1649933213.412580,209.000000,1649933213.412405,0.000000,0.000000,1.000000,0.000000,0.000000,0.000000,0.000000,3.401768,2.354748,-0.497726
1649933213.512572,210.000000,1649933213.512456,0.000000,0.000000,1.000000,0.000000,0.000000,0.000000,0.000000,3.400958,2.355382,-0.496787
1649933213.612560,211.000000,1649933213.612429,0.000000,0.000000,1.000000,0.000000,0.000000,0.000000,0.000000,3.400168,2.355976,-0.501580
1649933213.712618,212.000000,1649933213.712460,0.000000,0.000000,1.000000,0.000000,0.000000,0.000000,0.000000,3.397219,2.356531,-0.502992
1649933213.812638,213.000000,1649933213.812513,0.000000,0.000000,1.000000,0.000000,0.000000,0.000000,0.000000,3.394420,2.358137,-0.506801
1649933213.912675,214.000000,1649933213.912542,0.000000,0.000000,1.000000,0.000000,0.000000,0.000000,0.000000,3.390683,2.359643,-0.509677
1649933214.012777,215.000000,1649933214.012640,0.000000,0.000000,1.000000,0.000000,0.000000,0.000000,0.000000,3.388250,2.359959,-0.516491
1649933214.112733,216.000000,1649933214.112594,0.000000,0.000000,1.000000,0.000000,0.000000,0.000000,0.000000,3.384878,2.359151,-0.527070
1649933214.212877,217.000000,1649933214.212657,0.000000,0.000000,1.000000,0.000000,0.000000,0.000000,0.000000,3.382806,2.360554,-0.533986
1649933214.313018,218.000000,1649933214.312864,0.000000,0.000000,1.000000,0.000000,0.000000,0.000000,0.000000,3.380881,2.360773,-0.541409
1649933214.412850,219.000000,1649933214.412680,0.000000,0.000000,1.000000,0.000000,0.000000,0.000000,0.000000,3.380187,2.359873,-0.546887
1649933214.512935,220.000000,1649933214.512782,0.000000,0.000000,1.000000,0.000000,0.000000,0.000000,0.000000,3.378477,2.357919,-0.552104
1649933214.613003,221.000000,1649933214.612845,0.000000,0.000000,1.000000,0.000000,0.000000,0.000000,0.000000,3.377990,2.357155,-0.557868
1649933214.713055,222.000000,1649933214.712898,0.000000,0.000000,1.000000,0.000000,0.000000,0.000000,0.000000,3.377570,2.356430,-0.562538
1649933214.813037,223.000000,1649933214.812873,0.000000,0.000000,1.000000,0.000000,0.000000,0.000000,0.000000,3.377210,2.354653,-0.568571
1649933214.913096,224.000000,1649933214.912849,0.000000,0.000000,1.000000,0.000000,0.000000,0.000000,0.000000,3.375817,2.352977,-0.574292
1649933215.012990,225.000000,1649933215.012830,0.000000,0.000000,1.000000,0.000000,0.000000,0.000000,0.000000,3.375630,2.351403,-0.577287
1649933215.112983,226.000000,1649933215.112774,0.000000,0.000000,1.000000,0.000000,0.000000,0.000000,0.000000,3.376581,2.351018,-0.576858
1649933215.213070,227.000000,1649933215.212907,0.000000,0.000000,1.000000,0.000000,0.000000,0.000000,0.000000,3.377512,2.350670,-0.575566
1649933215.313024,228.000000,1649933215.312736,0.000000,0.000000,1.000000,0.000000,0.000000,0.000000,0.000000,3.377330,2.350355,-0.579096
1649933215.413140,229.000000,1649933215.412876,0.000000,0.000000,1.000000,0.000000,0.000000,0.000000,0.000000,3.377185,2.351162,-0.584832
1649933215.513091,230.000000,1649933215.512830,0.000000,0.000000,1.000000,0.000000,0.000000,0.000000,0.000000,3.378164,2.350847,-0.593484
1649933215.613114,231.000000,1649933215.612957,0.000000,0.000000,1.000000,0.000000,0.000000,0.000000,0.000000,3.378020,2.351651,-0.600085
1649933215.713025,232.000000,1649933215.712891,0.000000,0.000000,1.000000,0.000000,0.000000,0.000000,0.000000,3.376814,2.351330,-0.607130
1649933215.813020,233.000000,1649933215.812787,0.000000,0.000000,1.000000,0.000000,0.000000,0.000000,0.000000,3.376787,2.352126,-0.610559
1649933215.913291,234.000000,1649933215.913183,0.000000,0.000000,1.000000,0.000000,0.000000,0.000000,0.000000,3.376783,2.351794,-0.608905
1649933216.012647,235.000000,1649933216.012496,0.000000,0.000000,1.000000,0.000000,0.000000,0.000000,0.000000,3.376800,2.351487,-0.608832
1649933216.112590,236.000000,1649933216.112455,0.000000,0.000000,1.000000,0.000000,0.000000,0.000000,0.000000,3.375745,2.351204,-0.607054
1649933216.212720,237.000000,1649933216.212576,0.000000,0.000000,1.000000,0.000000,0.000000,0.000000,0.000000,3.374768,2.352035,-0.602841
1649933216.312748,238.000000,1649933216.312608,0.000000,0.000000,1.000000,0.000000,0.000000,0.000000,0.000000,3.373868,2.353915,-0.597107
1649933216.412732,239.000000,1649933216.412604,0.000000,0.000000,1.000000,0.000000,0.000000,0.000000,0.000000,3.374133,2.354602,-0.597186
1649933216.512944,240.000000,1649933216.512784,0.000000,0.000000,1.000000,0.000000,0.000000,0.000000,0.000000,3.374405,2.355247,-0.597200
1649933216.613008,241.000000,1649933216.612800,0.000000,0.000000,1.000000,0.000000,0.000000,0.000000,0.000000,3.374683,2.354762,-0.600381
1649933216.712955,242.000000,1649933216.712805,0.000000,0.000000,1.000000,0.000000,0.000000,0.000000,0.000000,3.374964,2.354300,-0.604984
1649933216.813030,243.000000,1649933216.812891,0.000000,0.000000,1.000000,0.000000,0.000000,0.000000,0.000000,3.375246,2.352770,-0.612561
1649933216.913182,244.000000,1649933216.912976,0.000000,0.000000,1.000000,0.000000,0.000000,0.000000,0.000000,3.375527,2.350237,-0.622175
1649933217.013087,245.000000,1649933217.012944,0.000000,0.000000,1.000000,0.000000,0.000000,0.000000,0.000000,3.376896,2.348943,-0.628085
1649933217.112983,246.000000,1649933217.112741,0.000000,0.000000,1.000000,0.000000,0.000000,0.000000,0.000000,3.378198,2.348824,-0.629628
1649933217.212743,247.000000,1649933217.212614,0.000000,0.000000,1.000000,0.000000,0.000000,0.000000,0.000000,3.378343,2.348726,-0.631015
1649933217.312693,248.000000,1649933217.312519,0.000000,0.000000,1.000000,0.000000,0.000000,0.000000,0.000000,3.377391,2.349736,-0.631445
1649933217.412656,249.000000,1649933217.412517,0.000000,0.000000,1.000000,0.000000,0.000000,0.000000,0.000000,3.377587,2.351792,-0.630962
1649933217.512632,250.000000,1649933217.512445,0.000000,0.000000,1.000000,0.000000,0.000000,0.000000,0.000000,3.376687,2.352647,-0.637671
1649933217.612599,251.000000,1649933217.612471,0.000000,0.000000,1.000000,0.000000,0.000000,0.000000,0.000000,3.376933,2.353456,-0.644016
1649933217.712549,252.000000,1649933217.712431,0.000000,0.000000,1.000000,0.000000,0.000000,0.000000,0.000000,3.376081,2.353127,-0.653232
1649933217.812690,253.000000,1649933217.812556,0.000000,0.000000,1.000000,0.000000,0.000000,0.000000,0.000000,3.375284,2.352814,-0.649061
1649933217.912766,254.000000,1649933217.912624,0.000000,0.000000,1.000000,0.000000,0.000000,0.000000,0.000000,3.374540,2.353608,-0.648991
1649933218.012639,255.000000,1649933218.012473,0.000000,0.000000,1.000000,0.000000,0.000000,0.000000,0.000000,3.373849,2.354356,-0.651247
1649933218.112676,256.000000,1649933218.112534,0.000000,0.000000,1.000000,0.000000,0.000000,0.000000,0.000000,3.374299,2.355057,-0.654930
1649933218.212946,257.000000,1649933218.212785,0.000000,0.000000,1.000000,0.000000,0.000000,0.000000,0.000000,3.374737,2.356804,-0.655142
1649933218.312567,258.000000,1649933218.312441,0.000000,0.000000,1.000000,0.000000,0.000000,0.000000,0.000000,3.375159,2.357353,-0.653638
1649933218.412565,259.000000,1649933218.412450,0.000000,0.000000,1.000000,0.000000,0.000000,0.000000,0.000000,3.375566,2.356768,-0.649688
1649933218.513110,260.000000,1649933218.512980,0.000000,0.000000,1.000000,0.000000,0.000000,0.000000,0.000000,3.377047,2.356205,-0.650659
1649933218.612924,261.000000,1649933218.612704,0.000000,0.000000,1.000000,0.000000,0.000000,0.000000,0.000000,3.378448,2.356754,-0.645871
1649933218.712924,262.000000,1649933218.712773,0.000000,0.000000,1.000000,0.000000,0.000000,0.000000,0.000000,3.380859,2.357264,-0.639598
1649933218.812717,263.000000,1649933218.812574,0.000000,0.000000,1.000000,0.000000,0.000000,0.000000,0.000000,3.382038,2.358826,-0.633528
1649933218.912720,264.000000,1649933218.912575,0.000000,0.000000,1.000000,0.000000,0.000000,0.000000,0.000000,3.383138,2.359197,-0.627664
1649933219.013523,265.000000,1649933219.013307,0.000000,0.000000,1.000000,0.000000,0.000000,0.000000,0.000000,3.384161,2.357352,-0.628462
1649933219.112922,266.000000,1649933219.112704,0.000000,0.000000,1.000000,0.000000,0.000000,0.000000,0.000000,3.384019,2.354509,-0.633232
1649933219.213055,267.000000,1649933219.212861,0.000000,0.000000,1.000000,0.000000,0.000000,0.000000,0.000000,3.383867,2.352912,-0.637777
1649933219.312676,268.000000,1649933219.312485,0.000000,0.000000,1.000000,0.000000,0.000000,0.000000,0.000000,3.384798,2.351408,-0.640485
1649933219.412789,269.000000,1649933219.412644,0.000000,0.000000,1.000000,0.000000,0.000000,0.000000,0.000000,3.385660,2.351086,-0.641428
1649933219.513026,270.000000,1649933219.512854,0.000000,0.000000,1.000000,0.000000,0.000000,0.000000,0.000000,3.386456,2.349703,-0.639870
1649933219.613206,271.000000,1649933219.612989,0.000000,0.000000,1.000000,0.000000,0.000000,0.000000,0.000000,3.387187,2.349499,-0.638337
1649933219.712739,272.000000,1649933219.712610,0.000000,0.000000,1.000000,0.000000,0.000000,0.000000,0.000000,3.387856,2.349321,-0.638445
1649933219.812649,273.000000,1649933219.812532,0.000000,0.000000,1.000000,0.000000,0.000000,0.000000,0.000000,3.387375,2.348076,-0.641741
1649933219.912530,274.000000,1649933219.912425,0.000000,0.000000,1.000000,0.000000,0.000000,0.000000,0.000000,3.387990,2.346916,-0.642448
1649933220.012628,275.000000,1649933220.012519,0.000000,0.000000,1.000000,0.000000,0.000000,0.000000,0.000000,3.388551,2.345839,-0.646315
1649933220.112704,276.000000,1649933220.112542,0.000000,0.000000,1.000000,0.000000,0.000000,0.000000,0.000000,3.386880,2.345933,-0.645952
1649933220.212705,277.000000,1649933220.212567,0.000000,0.000000,1.000000,0.000000,0.000000,0.000000,0.000000,3.385284,2.347133,-0.638306
1649933220.312826,278.000000,1649933220.312682,0.000000,0.000000,1.000000,0.000000,0.000000,0.000000,0.000000,3.383766,2.348283,-0.631750
1649933220.412657,279.000000,1649933220.412525,0.000000,0.000000,1.000000,0.000000,0.000000,0.000000,0.000000,3.382327,2.350472,-0.626253
1649933220.512710,280.000000,1649933220.512559,0.000000,0.000000,1.000000,0.000000,0.000000,0.000000,0.000000,3.382058,2.351454,-0.623393
1649933220.612676,281.000000,1649933220.612523,0.000000,0.000000,1.000000,0.000000,0.000000,0.000000,0.000000,3.381805,2.353474,-0.620651
1649933220.712988,282.000000,1649933220.712848,0.000000,0.000000,1.000000,0.000000,0.000000,0.000000,0.000000,3.380478,2.354287,-0.620445
1649933220.812681,283.000000,1649933220.812564,0.000000,0.000000,1.000000,0.000000,0.000000,0.000000,0.000000,3.380320,2.355047,-0.624287
1649933220.912652,284.000000,1649933220.912477,0.000000,0.000000,1.000000,0.000000,0.000000,0.000000,0.000000,3.380177,2.353575,-0.629586
1649933221.012683,285.000000,1649933221.012549,0.000000,0.000000,1.000000,0.000000,0.000000,0.000000,0.000000,3.380049,2.352178,-0.634663
1649933221.112747,286.000000,1649933221.112571,0.000000,0.000000,1.000000,0.000000,0.000000,0.000000,0.000000,3.379934,2.351947,-0.632261
1649933221.212768,287.000000,1649933221.212553,0.000000,0.000000,1.000000,0.000000,0.000000,0.000000,0.000000,3.380923,2.350638,-0.637200
1649933221.312578,288.000000,1649933221.312460,0.000000,0.000000,1.000000,0.000000,0.000000,0.000000,0.000000,3.380771,2.350496,-0.639501
1649933221.412985,289.000000,1649933221.412735,0.000000,0.000000,1.000000,0.000000,0.000000,0.000000,0.000000,3.381721,2.349276,-0.643299
1649933221.512985,290.000000,1649933221.512856,0.000000,0.000000,1.000000,0.000000,0.000000,0.000000,0.000000,3.381529,2.349220,-0.642883
1649933221.612884,291.000000,1649933221.612775,0.000000,0.000000,1.000000,0.000000,0.000000,0.000000,0.000000,3.382438,2.349176,-0.642456
1649933221.712630,292.000000,1649933221.712525,0.000000,0.000000,1.000000,0.000000,0.000000,0.000000,0.000000,3.384387,2.348051,-0.643635
1649933221.812680,293.000000,1649933221.812561,0.000000,0.000000,1.000000,0.000000,0.000000,0.000000,0.000000,3.386221,2.348089,-0.643127
1649933221.912812,294.000000,1649933221.912581,0.000000,0.000000,1.000000,0.000000,0.000000,0.000000,0.000000,3.387942,2.348135,-0.643422
1649933222.012671,295.000000,1649933222.012570,0.000000,0.000000,1.000000,0.000000,0.000000,0.000000,0.000000,3.389551,2.348187,-0.642876
1649933222.112669,296.000000,1649933222.112513,0.000000,0.000000,1.000000,0.000000,0.000000,0.000000,0.000000,3.389960,2.349335,-0.632652
1649933222.212698,297.000000,1649933222.212537,0.000000,0.000000,1.000000,0.000000,0.000000,0.000000,0.000000,3.390325,2.349335,-0.625256
1649933222.312607,298.000000,1649933222.312475,0.000000,0.000000,1.000000,0.000000,0.000000,0.000000,0.000000,3.389557,2.350430,-0.618974
1649933222.412703,299.000000,1649933222.412578,0.000000,0.000000,1.000000,0.000000,0.000000,0.000000,0.000000,3.389904,2.351465,-0.612965
1649933222.512674,300.000000,1649933222.512523,0.000000,0.000000,1.000000,0.000000,0.000000,0.000000,0.000000,3.389123,2.351351,-0.612066
1649933222.612645,301.000000,1649933222.612485,0.000000,0.000000,1.000000,0.000000,0.000000,0.000000,0.000000,3.388369,2.353421,-0.605588
1649933222.712745,302.000000,1649933222.712599,0.000000,0.000000,1.000000,0.000000,0.000000,0.000000,0.000000,3.387645,2.354280,-0.604248
1649933222.812777,303.000000,1649933222.812655,0.000000,0.000000,1.000000,0.000000,0.000000,0.000000,0.000000,3.388043,2.355081,-0.601388
1649933222.912718,304.000000,1649933222.912603,0.000000,0.000000,1.000000,0.000000,0.000000,0.000000,0.000000,3.387319,2.355826,-0.593042
1649933223.012588,305.000000,1649933223.012478,0.000000,0.000000,1.000000,0.000000,0.000000,0.000000,0.000000,3.386628,2.357606,-0.583475
1649933223.112638,306.000000,1649933223.112523,0.000000,0.000000,1.000000,0.000000,0.000000,0.000000,0.000000,3.385970,2.359270,-0.575974
1649933223.212874,307.000000,1649933223.212656,0.000000,0.000000,1.000000,0.000000,0.000000,0.000000,0.000000,3.385347,2.358639,-0.574501
1649933223.312886,308.000000,1649933223.312725,0.000000,0.000000,1.000000,0.000000,0.000000,0.000000,0.000000,3.384758,2.358023,-0.573971
1649933223.413262,309.000000,1649933223.412944,0.000000,0.000000,1.000000,0.000000,0.000000,0.000000,0.000000,3.384203,2.357424,-0.574345
1649933223.513032,310.000000,1649933223.512816,0.000000,0.000000,1.000000,0.000000,0.000000,0.000000,0.000000,3.382592,2.357933,-0.573163
1649933223.612956,311.000000,1649933223.612820,0.000000,0.000000,1.000000,0.000000,0.000000,0.000000,0.000000,3.381077,2.357310,-0.576131
1649933223.713102,312.000000,1649933223.712825,0.000000,0.000000,1.000000,0.000000,0.000000,0.000000,0.000000,3.380748,2.355618,-0.579849
1649933223.813017,313.000000,1649933223.812845,0.000000,0.000000,1.000000,0.000000,0.000000,0.000000,0.000000,3.382631,2.354012,-0.581859
1649933223.912779,314.000000,1649933223.912593,0.000000,0.000000,1.000000,0.000000,0.000000,0.000000,0.000000,3.383328,2.351403,-0.584642
1649933224.012674,315.000000,1649933224.012550,0.000000,0.000000,1.000000,0.000000,0.000000,0.000000,0.000000,3.383991,2.348944,-0.593806
1649933224.112652,316.000000,1649933224.112481,0.000000,0.000000,1.000000,0.000000,0.000000,0.000000,0.000000,3.384619,2.346633,-0.602625
1649933224.212817,317.000000,1649933224.212695,0.000000,0.000000,1.000000,0.000000,0.000000,0.000000,0.000000,3.383032,2.344470,-0.612709
1649933224.313312,318.000000,1649933224.313166,0.000000,0.000000,1.000000,0.000000,0.000000,0.000000,0.000000,3.381536,2.343542,-0.619152
1649933224.412742,319.000000,1649933224.412607,0.000000,0.000000,1.000000,0.000000,0.000000,0.000000,0.000000,3.381221,2.341603,-0.630961
1649933224.513194,320.000000,1649933224.513051,0.000000,0.000000,1.000000,0.000000,0.000000,0.000000,0.000000,3.382022,2.341983,-0.634997
1649933224.613171,321.000000,1649933224.613000,0.000000,0.000000,1.000000,0.000000,0.000000,0.000000,0.000000,3.381697,2.343462,-0.634794
1649933224.713044,322.000000,1649933224.712842,0.000000,0.000000,1.000000,0.000000,0.000000,0.000000,0.000000,3.381396,2.344884,-0.633750
1649933224.812566,323.000000,1649933224.812461,0.000000,0.000000,1.000000,0.000000,0.000000,0.000000,0.000000,3.381119,2.347336,-0.631098
1649933224.912749,324.000000,1649933224.912567,0.000000,0.000000,1.000000,0.000000,0.000000,0.000000,0.000000,3.379775,2.349664,-0.629326
1649933225.013016,325.000000,1649933225.012854,0.000000,0.000000,1.000000,0.000000,0.000000,0.000000,0.000000,3.378516,2.351866,-0.625178
1649933225.113064,326.000000,1649933225.112849,0.000000,0.000000,1.000000,0.000000,0.000000,0.000000,0.000000,3.377340,2.353942,-0.625211
1649933225.213095,327.000000,1649933225.212900,0.000000,0.000000,1.000000,0.000000,0.000000,0.000000,0.000000,3.375157,2.354802,-0.626835
1649933225.313040,328.000000,1649933225.312891,0.000000,0.000000,1.000000,0.000000,0.000000,0.000000,0.000000,3.374206,2.355601,-0.629180
1649933225.412982,329.000000,1649933225.412833,0.000000,0.000000,1.000000,0.000000,0.000000,0.000000,0.000000,3.373333,2.354160,-0.635439
1649933225.513014,330.000000,1649933225.512864,0.000000,0.000000,1.000000,0.000000,0.000000,0.000000,0.000000,3.371443,2.353877,-0.641412
1649933225.613046,331.000000,1649933225.612854,0.000000,0.000000,1.000000,0.000000,0.000000,0.000000,0.000000,3.370778,2.354691,-0.645488
1649933225.712613,332.000000,1649933225.712476,0.000000,0.000000,1.000000,0.000000,0.000000,0.000000,0.000000,3.369090,2.355450,-0.649353
1649933225.812656,333.000000,1649933225.812511,0.000000,0.000000,1.000000,0.000000,0.000000,0.000000,0.000000,3.368619,2.357245,-0.652204
1649933225.912791,334.000000,1649933225.912655,0.000000,0.000000,1.000000,0.000000,0.000000,0.000000,0.000000,3.369299,2.358925,-0.650046
1649933226.012634,335.000000,1649933226.012511,0.000000,0.000000,1.000000,0.000000,0.000000,0.000000,0.000000,3.369972,2.359400,-0.648734
1649933226.112643,336.000000,1649933226.112506,0.000000,0.000000,1.000000,0.000000,0.000000,0.000000,0.000000,3.370635,2.360918,-0.645816
1649933226.212762,337.000000,1649933226.212585,0.000000,0.000000,1.000000,0.000000,0.000000,0.000000,0.000000,3.371284,2.361238,-0.647011
1649933226.312942,338.000000,1649933226.312766,0.000000,0.000000,1.000000,0.000000,0.000000,0.000000,0.000000,3.371917,2.360424,-0.645701
1649933226.412807,339.000000,1649933226.412653,0.000000,0.000000,1.000000,0.000000,0.000000,0.000000,0.000000,3.373623,2.359633,-0.641989
1649933226.513401,340.000000,1649933226.513005,0.000000,0.000000,1.000000,0.000000,0.000000,0.000000,0.000000,3.374155,2.358868,-0.641626
1649933226.612959,341.000000,1649933226.612804,0.000000,0.000000,1.000000,0.000000,0.000000,0.000000,0.000000,3.374666,2.357040,-0.638028
1649933226.713144,342.000000,1649933226.712917,0.000000,0.000000,1.000000,0.000000,0.000000,0.000000,0.000000,3.376245,2.357486,-0.632944
1649933226.812978,343.000000,1649933226.812778,0.000000,0.000000,1.000000,0.000000,0.000000,0.000000,0.000000,3.377739,2.357898,-0.628863
1649933226.912732,344.000000,1649933226.912598,0.000000,0.000000,1.000000,0.000000,0.000000,0.000000,0.000000,3.378056,2.359369,-0.625752
1649933227.012899,345.000000,1649933227.012744,0.000000,0.000000,1.000000,0.000000,0.000000,0.000000,0.000000,3.378352,2.359656,-0.621157
1649933227.112799,346.000000,1649933227.112676,0.000000,0.000000,1.000000,0.000000,0.000000,0.000000,0.000000,3.378625,2.359914,-0.614341
1649933227.212658,347.000000,1649933227.212504,0.000000,0.000000,1.000000,0.000000,0.000000,0.000000,0.000000,3.378877,2.360144,-0.609435
1649933227.312605,348.000000,1649933227.312456,0.000000,0.000000,1.000000,0.000000,0.000000,0.000000,0.000000,3.378018,2.360349,-0.606370
1649933227.412730,349.000000,1649933227.412576,0.000000,0.000000,1.000000,0.000000,0.000000,0.000000,0.000000,3.377203,2.360529,-0.603463
1649933227.512660,350.000000,1649933227.512537,0.000000,0.000000,1.000000,0.000000,0.000000,0.000000,0.000000,3.376431,2.360686,-0.599904
1649933227.613203,351.000000,1649933227.612909,0.000000,0.000000,1.000000,0.000000,0.000000,0.000000,0.000000,3.376793,2.361911,-0.593305
1649933227.713094,352.000000,1649933227.712918,0.000000,0.000000,1.000000,0.000000,0.000000,0.000000,0.000000,3.377136,2.364145,-0.586217
1649933227.813015,353.000000,1649933227.812865,0.000000,0.000000,1.000000,0.000000,0.000000,0.000000,0.000000,3.377460,2.365144,-0.581089
1649933227.913064,354.000000,1649933227.912911,0.000000,0.000000,1.000000,0.000000,0.000000,0.000000,0.000000,3.376673,2.361704,-0.587526
1649933228.013167,355.000000,1649933228.012929,0.000000,0.000000,1.000000,0.000000,0.000000,0.000000,0.000000,3.377021,2.359529,-0.592145
1649933228.112956,356.000000,1649933228.112830,0.000000,0.000000,1.000000,0.000000,0.000000,0.000000,0.000000,3.378441,2.358559,-0.595814
1649933228.213234,357.000000,1649933228.213019,0.000000,0.000000,1.000000,0.000000,0.000000,0.000000,0.000000,3.377597,2.357641,-0.599371
1649933228.313023,358.000000,1649933228.312901,0.000000,0.000000,1.000000,0.000000,0.000000,0.000000,0.000000,3.378978,2.355685,-0.606039
1649933228.413198,359.000000,1649933228.413020,0.000000,0.000000,1.000000,0.000000,0.000000,0.000000,0.000000,3.380278,2.353843,-0.609228
1649933228.513051,360.000000,1649933228.512878,0.000000,0.000000,1.000000,0.000000,0.000000,0.000000,0.000000,3.380407,2.353205,-0.613104
1649933228.613219,361.000000,1649933228.612958,0.000000,0.000000,1.000000,0.000000,0.000000,0.000000,0.000000,3.380520,2.352617,-0.619246
1649933228.713195,362.000000,1649933228.712996,0.000000,0.000000,1.000000,0.000000,0.000000,0.000000,0.000000,3.379526,2.353167,-0.626746
1649933228.812604,363.000000,1649933228.812449,0.000000,0.000000,1.000000,0.000000,0.000000,0.000000,0.000000,3.379672,2.353700,-0.629084
1649933228.912619,364.000000,1649933228.912470,0.000000,0.000000,1.000000,0.000000,0.000000,0.000000,0.000000,3.379803,2.353123,-0.628885
1649933229.012924,365.000000,1649933229.012769,0.000000,0.000000,1.000000,0.000000,0.000000,0.000000,0.000000,3.379922,2.354771,-0.623834
1649933229.112689,366.000000,1649933229.112561,0.000000,0.000000,1.000000,0.000000,0.000000,0.000000,0.000000,3.378937,2.357426,-0.618973
1649933229.212743,367.000000,1649933229.212587,0.000000,0.000000,1.000000,0.000000,0.000000,0.000000,0.000000,3.378004,2.358842,-0.614304
1649933229.312661,368.000000,1649933229.312511,0.000000,0.000000,1.000000,0.000000,0.000000,0.000000,0.000000,3.376032,2.361265,-0.610635
1649933229.412783,369.000000,1649933229.412631,0.000000,0.000000,1.000000,0.000000,0.000000,0.000000,0.000000,3.375264,2.362451,-0.607123
1649933229.512803,370.000000,1649933229.512671,0.000000,0.000000,1.000000,0.000000,0.000000,0.000000,0.000000,3.375637,2.363556,-0.609414
1649933229.612656,371.000000,1649933229.612521,0.000000,0.000000,1.000000,0.000000,0.000000,0.000000,0.000000,3.375997,2.363490,-0.614850
1649933229.712608,372.000000,1649933229.712461,0.000000,0.000000,1.000000,0.000000,0.000000,0.000000,0.000000,3.375253,2.363409,-0.620068
1649933229.812702,373.000000,1649933229.812574,0.000000,0.000000,1.000000,0.000000,0.000000,0.000000,0.000000,3.374556,2.363316,-0.623456
1649933229.912943,374.000000,1649933229.912794,0.000000,0.000000,1.000000,0.000000,0.000000,0.000000,0.000000,3.372817,2.363211,-0.625888
1649933230.013109,375.000000,1649933230.012909,0.000000,0.000000,1.000000,0.000000,0.000000,0.000000,0.000000,3.371187,2.362008,-0.626592
1649933230.113051,376.000000,1649933230.112862,0.000000,0.000000,1.000000,0.000000,0.000000,0.000000,0.000000,3.369664,2.361951,-0.622413
1649933230.213218,377.000000,1649933230.213025,0.000000,0.000000,1.000000,0.000000,0.000000,0.000000,0.000000,3.369336,2.361888,-0.614361
1649933230.312688,378.000000,1649933230.312580,0.000000,0.000000,1.000000,0.000000,0.000000,0.000000,0.000000,3.369049,2.361819,-0.608251
1649933230.412667,379.000000,1649933230.412486,0.000000,0.000000,1.000000,0.000000,0.000000,0.000000,0.000000,3.368798,2.361747,-0.604822
1649933230.512538,380.000000,1649933230.512419,0.000000,0.000000,1.000000,0.000000,0.000000,0.000000,0.000000,3.368583,2.360581,-0.600745
1649933230.612640,381.000000,1649933230.612508,0.000000,0.000000,1.000000,0.000000,0.000000,0.000000,0.000000,3.369490,2.359476,-0.604923
1649933230.712694,382.000000,1649933230.712575,0.000000,0.000000,1.000000,0.000000,0.000000,0.000000,0.000000,3.372546,2.358432,-0.608144
1649933230.812629,383.000000,1649933230.812487,0.000000,0.000000,1.000000,0.000000,0.000000,0.000000,0.000000,3.374350,2.357448,-0.608022
1649933230.912675,384.000000,1649933230.912543,0.000000,0.000000,1.000000,0.000000,0.000000,0.000000,0.000000,3.376057,2.357615,-0.602271
1649933231.012781,385.000000,1649933231.012625,0.000000,0.000000,1.000000,0.000000,0.000000,0.000000,0.000000,3.377665,2.356689,-0.599192
1649933231.112784,386.000000,1649933231.112669,0.000000,0.000000,1.000000,0.000000,0.000000,0.000000,0.000000,3.378085,2.354731,-0.599488
1649933231.212613,387.000000,1649933231.212478,0.000000,0.000000,1.000000,0.000000,0.000000,0.000000,0.000000,3.378471,2.353984,-0.596571
1649933231.312645,388.000000,1649933231.312464,0.000000,0.000000,1.000000,0.000000,0.000000,0.000000,0.000000,3.378825,2.354384,-0.588153
1649933231.412885,389.000000,1649933231.412727,0.000000,0.000000,1.000000,0.000000,0.000000,0.000000,0.000000,3.378057,2.353686,-0.581728
1649933231.513319,390.000000,1649933231.513080,0.000000,0.000000,1.000000,0.000000,0.000000,0.000000,0.000000,3.378412,2.354130,-0.578838
1649933231.612791,391.000000,1649933231.612639,0.000000,0.000000,1.000000,0.000000,0.000000,0.000000,0.000000,3.377649,2.355654,-0.572891
1649933231.712688,392.000000,1649933231.712575,0.000000,0.000000,1.000000,0.000000,0.000000,0.000000,0.000000,3.378011,2.357102,-0.561600
1649933231.812654,393.000000,1649933231.812527,0.000000,0.000000,1.000000,0.000000,0.000000,0.000000,0.000000,3.378345,2.358473,-0.551647
1649933231.912817,394.000000,1649933231.912678,0.000000,0.000000,1.000000,0.000000,0.000000,0.000000,0.000000,3.378654,2.358676,-0.550250
1649933232.012657,395.000000,1649933232.012504,0.000000,0.000000,1.000000,0.000000,0.000000,0.000000,0.000000,3.377848,2.357776,-0.550613
1649933232.112751,396.000000,1649933232.112549,0.000000,0.000000,1.000000,0.000000,0.000000,0.000000,0.000000,3.378170,2.356925,-0.548626
1649933232.212767,397.000000,1649933232.212605,0.000000,0.000000,1.000000,0.000000,0.000000,0.000000,0.000000,3.379559,2.355032,-0.549223
1649933232.312732,398.000000,1649933232.312539,0.000000,0.000000,1.000000,0.000000,0.000000,0.000000,0.000000,3.380862,2.354342,-0.553103
1649933232.412818,399.000000,1649933232.412643,0.000000,0.000000,1.000000,0.000000,0.000000,0.000000,0.000000,3.382081,2.354790,-0.551251
1649933232.512722,400.000000,1649933232.512571,0.000000,0.000000,1.000000,0.000000,0.000000,0.000000,0.000000,3.383216,2.356312,-0.546319
1649933232.612659,401.000000,1649933232.612493,0.000000,0.000000,1.000000,0.000000,0.000000,0.000000,0.000000,3.384271,2.356664,-0.543274
1649933232.712825,402.000000,1649933232.712656,0.000000,0.000000,1.000000,0.000000,0.000000,0.000000,0.000000,3.384156,2.355909,-0.542849
1649933232.812699,403.000000,1649933232.812556,0.000000,0.000000,1.000000,0.000000,0.000000,0.000000,0.000000,3.385118,2.354108,-0.542516
1649933232.912746,404.000000,1649933232.912588,0.000000,0.000000,1.000000,0.000000,0.000000,0.000000,0.000000,3.387096,2.352414,-0.546302
1649933233.012774,405.000000,1649933233.012621,0.000000,0.000000,1.000000,0.000000,0.000000,0.000000,0.000000,3.388940,2.351918,-0.545966
1649933233.112753,406.000000,1649933233.112587,0.000000,0.000000,1.000000,0.000000,0.000000,0.000000,0.000000,3.390652,2.351464,-0.548124
1649933233.212904,407.000000,1649933233.212751,0.000000,0.000000,1.000000,0.000000,0.000000,0.000000,0.000000,3.392236,2.349959,-0.553476
1649933233.312721,408.000000,1649933233.312581,0.000000,0.000000,1.000000,0.000000,0.000000,0.000000,0.000000,3.392606,2.347466,-0.561881
1649933233.412743,409.000000,1649933233.412585,0.000000,0.000000,1.000000,0.000000,0.000000,0.000000,0.000000,3.391829,2.346225,-0.568363
1649933233.512699,410.000000,1649933233.512557,0.000000,0.000000,1.000000,0.000000,0.000000,0.000000,0.000000,3.391062,2.346170,-0.575405
1649933233.612702,411.000000,1649933233.612571,0.000000,0.000000,1.000000,0.000000,0.000000,0.000000,0.000000,3.390310,2.346146,-0.580552
1649933233.712716,412.000000,1649933233.712561,0.000000,0.000000,1.000000,0.000000,0.000000,0.000000,0.000000,3.388484,2.346148,-0.587099
1649933233.812753,413.000000,1649933233.812620,0.000000,0.000000,1.000000,0.000000,0.000000,0.000000,0.000000,3.387831,2.347265,-0.589333
1649933233.912817,414.000000,1649933233.912653,0.000000,0.000000,1.000000,0.000000,0.000000,0.000000,0.000000,3.388290,2.348340,-0.591457
1649933234.012776,415.000000,1649933234.012611,0.000000,0.000000,1.000000,0.000000,0.000000,0.000000,0.000000,3.388710,2.350462,-0.594279
1649933234.112751,416.000000,1649933234.112627,0.000000,0.000000,1.000000,0.000000,0.000000,0.000000,0.000000,3.389093,2.351385,-0.598573
1649933234.212821,417.000000,1649933234.212667,0.000000,0.000000,1.000000,0.000000,0.000000,0.000000,0.000000,3.389439,2.351171,-0.601855
1649933234.312638,418.000000,1649933234.312488,0.000000,0.000000,1.000000,0.000000,0.000000,0.000000,0.000000,3.389752,2.353154,-0.601742
1649933234.412584,419.000000,1649933234.412483,0.000000,0.000000,1.000000,0.000000,0.000000,0.000000,0.000000,3.390031,2.353936,-0.606437
1649933234.512604,420.000000,1649933234.512478,0.000000,0.000000,1.000000,0.000000,0.000000,0.000000,0.000000,3.390280,2.354671,-0.603643
1649933234.612778,421.000000,1649933234.612641,0.000000,0.000000,1.000000,0.000000,0.000000,0.000000,0.000000,3.390500,2.353179,-0.602540
1649933234.712851,422.000000,1649933234.712706,0.000000,0.000000,1.000000,0.000000,0.000000,0.000000,0.000000,3.390693,2.352857,-0.609513
1649933234.812697,423.000000,1649933234.812553,0.000000,0.000000,1.000000,0.000000,0.000000,0.000000,0.000000,3.389771,2.352552,-0.612131
1649933234.912699,424.000000,1649933234.912534,0.000000,0.000000,1.000000,0.000000,0.000000,0.000000,0.000000,3.388887,2.353354,-0.614598
1649933235.013031,425.000000,1649933235.012793,0.000000,0.000000,1.000000,0.000000,0.000000,0.000000,0.000000,3.388044,2.354111,-0.615305
1649933235.113146,426.000000,1649933235.112969,0.000000,0.000000,1.000000,0.000000,0.000000,0.000000,0.000000,3.387242,2.355913,-0.609486
1649933235.213039,427.000000,1649933235.212870,0.000000,0.000000,1.000000,0.000000,0.000000,0.000000,0.000000,3.387572,2.356517,-0.607093
1649933235.313108,428.000000,1649933235.312948,0.000000,0.000000,1.000000,0.000000,0.000000,0.000000,0.000000,3.387882,2.354896,-0.606379
1649933235.413129,429.000000,1649933235.413000,0.000000,0.000000,1.000000,0.000000,0.000000,0.000000,0.000000,3.388171,2.353358,-0.608894
1649933235.512972,430.000000,1649933235.512818,0.000000,0.000000,1.000000,0.000000,0.000000,0.000000,0.000000,3.388440,2.352994,-0.607245
1649933235.612682,431.000000,1649933235.612557,0.000000,0.000000,1.000000,0.000000,0.000000,0.000000,0.000000,3.389780,2.353741,-0.604023
1649933235.712631,432.000000,1649933235.712496,0.000000,0.000000,1.000000,0.000000,0.000000,0.000000,0.000000,3.388857,2.354446,-0.604945
