__time,/dwm1001/id_458E/pose_kf/header/seq,/dwm1001/id_458E/pose_kf/header/stamp,/dwm1001/id_458E/pose_kf/pose/orientation/pitch_deg,/dwm1001/id_458E/pose_kf/pose/orientation/roll_deg,/dwm1001/id_458E/pose_kf/pose/orientation/w,/dwm1001/id_458E/pose_kf/pose/orientation/x,/dwm1001/id_458E/pose_kf/pose/orientation/y,/dwm1001/id_458E/pose_kf/pose/orientation/yaw_deg,/dwm1001/id_458E/pose_kf/pose/orientation/z,/dwm1001/id_458E/pose_kf/pose/position/x,/dwm1001/id_458E/pose_kf/pose/position/y,/dwm1001/id_458E/pose_kf/pose/position/z
1650623387.802153,1912.000000,1650623387.801989,0.000000,0.000000,1.000000,0.000000,0.000000,0.000000,0.000000,1.528461,18.427959,1.335683
1650623387.902176,1913.000000,1650623387.902000,0.000000,0.000000,1.000000,0.000000,0.000000,0.000000,0.000000,1.529846,18.426944,1.346162
1650623388.002139,1914.000000,1650623388.001990,0.000000,0.000000,1.000000,0.000000,0.000000,0.000000,0.000000,1.543074,18.422725,1.288542
1650623388.102045,1915.000000,1650623388.101897,0.000000,0.000000,1.000000,0.000000,0.000000,0.000000,0.000000,1.572917,18.417669,1.186629
1650623388.202131,1916.000000,1650623388.201963,0.000000,0.000000,1.000000,0.000000,0.000000,0.000000,0.000000,1.591120,18.414018,1.118988
1650623388.302217,1917.000000,1650623388.302023,0.000000,0.000000,1.000000,0.000000,0.000000,0.000000,0.000000,1.600455,18.411704,1.075469
1650623388.402136,1918.000000,1650623388.401955,0.000000,0.000000,1.000000,0.000000,0.000000,0.000000,0.000000,1.604659,18.409569,1.055960
1650623388.502040,1919.000000,1650623388.501884,0.000000,0.000000,1.000000,0.000000,0.000000,0.000000,0.000000,1.604013,18.407607,1.054669
1650623388.602091,1920.000000,1650623388.601940,0.000000,0.000000,1.000000,0.000000,0.000000,0.000000,0.000000,1.620607,18.403630,1.014391
1650623388.703152,1921.000000,1650623388.702501,0.000000,0.000000,1.000000,0.000000,0.000000,0.000000,0.000000,1.632746,18.401028,0.994809
1650623388.802519,1922.000000,1650623388.802266,0.000000,0.000000,1.000000,0.000000,0.000000,0.000000,0.000000,1.637380,18.398640,0.982199
1650623388.902468,1923.000000,1650623388.902260,0.000000,0.000000,1.000000,0.000000,0.000000,0.000000,0.000000,1.632739,18.398640,0.977083
1650623389.002454,1924.000000,1650623389.002274,0.000000,0.000000,1.000000,0.000000,0.000000,0.000000,0.000000,1.632444,18.398710,0.979147
1650623389.102442,1925.000000,1650623389.102262,0.000000,0.000000,1.000000,0.000000,0.000000,0.000000,0.000000,1.650451,18.396664,0.938881
1650623389.202498,1926.000000,1650623389.202260,0.000000,0.000000,1.000000,0.000000,0.000000,0.000000,0.000000,1.659552,18.391527,0.898362
1650623389.302443,1927.000000,1650623389.302260,0.000000,0.000000,1.000000,0.000000,0.000000,0.000000,0.000000,1.664580,18.387843,0.885872
1650623389.402469,1928.000000,1650623389.402239,0.000000,0.000000,1.000000,0.000000,0.000000,0.000000,0.000000,1.664670,18.385538,0.889794
1650623389.502944,1929.000000,1650623389.502566,0.000000,0.000000,1.000000,0.000000,0.000000,0.000000,0.000000,1.661198,18.384540,0.907015
1650623389.602527,1930.000000,1650623389.602258,0.000000,0.000000,1.000000,0.000000,0.000000,0.000000,0.000000,1.658747,18.384776,0.930496
1650623389.702282,1931.000000,1650623389.702050,0.000000,0.000000,1.000000,0.000000,0.000000,0.000000,0.000000,1.650741,18.386172,0.956697
1650623389.802109,1932.000000,1650623389.801909,0.000000,0.000000,1.000000,0.000000,0.000000,0.000000,0.000000,1.638613,18.387566,0.991091
1650623389.902131,1933.000000,1650623389.901943,0.000000,0.000000,1.000000,0.000000,0.000000,0.000000,0.000000,1.620456,18.388949,1.019564
1650623390.002095,1934.000000,1650623390.001923,0.000000,0.000000,1.000000,0.000000,0.000000,0.000000,0.000000,1.620652,18.388133,0.981810
1650623390.102088,1935.000000,1650623390.101919,0.000000,0.000000,1.000000,0.000000,0.000000,0.000000,0.000000,1.619669,18.388508,0.966035
1650623390.202152,1936.000000,1650623390.201960,0.000000,0.000000,1.000000,0.000000,0.000000,0.000000,0.000000,1.612127,18.388915,0.963303
1650623390.302111,1937.000000,1650623390.301915,0.000000,0.000000,1.000000,0.000000,0.000000,0.000000,0.000000,1.609316,18.390437,0.973887
1650623390.402527,1938.000000,1650623390.402315,0.000000,0.000000,1.000000,0.000000,0.000000,0.000000,0.000000,1.606626,18.391917,0.993187
1650623390.502451,1939.000000,1650623390.502251,0.000000,0.000000,1.000000,0.000000,0.000000,0.000000,0.000000,1.604062,18.394439,1.015970
1650623390.602156,1940.000000,1650623390.601966,0.000000,0.000000,1.000000,0.000000,0.000000,0.000000,0.000000,1.600536,18.396847,1.044465
1650623390.702524,1941.000000,1650623390.702282,0.000000,0.000000,1.000000,0.000000,0.000000,0.000000,0.000000,1.592841,18.400229,1.070322
1650623390.802505,1942.000000,1650623390.802288,0.000000,0.000000,1.000000,0.000000,0.000000,0.000000,0.000000,1.580137,18.403429,1.089566
1650623390.902419,1943.000000,1650623390.902221,0.000000,0.000000,1.000000,0.000000,0.000000,0.000000,0.000000,1.567098,18.405357,1.116945
1650623391.002419,1944.000000,1650623391.002219,0.000000,0.000000,1.000000,0.000000,0.000000,0.000000,0.000000,1.553780,18.407167,1.146436
1650623391.103009,1945.000000,1650623391.102652,0.000000,0.000000,1.000000,0.000000,0.000000,0.000000,0.000000,1.540233,18.408860,1.178712
1650623391.202442,1946.000000,1650623391.202269,0.000000,0.000000,1.000000,0.000000,0.000000,0.000000,0.000000,1.533047,18.411530,1.213609
1650623391.302385,1947.000000,1650623391.302181,0.000000,0.000000,1.000000,0.000000,0.000000,0.000000,0.000000,1.529708,18.414024,1.252578
1650623391.402434,1948.000000,1650623391.402250,0.000000,0.000000,1.000000,0.000000,0.000000,0.000000,0.000000,1.523464,18.417437,1.277655
1650623391.502450,1949.000000,1650623391.502256,0.000000,0.000000,1.000000,0.000000,0.000000,0.000000,0.000000,1.507940,18.421711,1.307915
1650623391.602461,1950.000000,1650623391.602263,0.000000,0.000000,1.000000,0.000000,0.000000,0.000000,0.000000,1.491311,18.424606,1.338270
1650623391.702457,1951.000000,1650623391.702223,0.000000,0.000000,1.000000,0.000000,0.000000,0.000000,0.000000,1.476948,18.427282,1.371097
1650623391.802450,1952.000000,1650623391.802226,0.000000,0.000000,1.000000,0.000000,0.000000,0.000000,0.000000,1.468029,18.429747,1.401415
1650623391.902637,1953.000000,1650623391.902367,0.000000,0.000000,1.000000,0.000000,0.000000,0.000000,0.000000,1.458816,18.430917,1.434936
1650623392.002495,1954.000000,1650623392.002244,0.000000,0.000000,1.000000,0.000000,0.000000,0.000000,0.000000,1.449335,18.433044,1.455362
1650623392.102798,1955.000000,1650623392.102587,0.000000,0.000000,1.000000,0.000000,0.000000,0.000000,0.000000,1.442884,18.434983,1.472882
1650623392.202471,1956.000000,1650623392.202260,0.000000,0.000000,1.000000,0.000000,0.000000,0.000000,0.000000,1.439300,18.435652,1.490023
1650623392.304405,1957.000000,1650623392.303792,0.000000,0.000000,1.000000,0.000000,0.000000,0.000000,0.000000,1.441688,18.434031,1.493082
1650623392.402645,1958.000000,1650623392.402379,0.000000,0.000000,1.000000,0.000000,0.000000,0.000000,0.000000,1.440975,18.432436,1.501997
1650623392.502862,1959.000000,1650623392.502384,0.000000,0.000000,1.000000,0.000000,0.000000,0.000000,0.000000,1.439494,18.430873,1.493955
1650623392.602814,1960.000000,1650623392.602440,0.000000,0.000000,1.000000,0.000000,0.000000,0.000000,0.000000,1.440548,18.429350,1.473705
1650623392.703382,1961.000000,1650623392.702722,0.000000,0.000000,1.000000,0.000000,0.000000,0.000000,0.000000,1.441798,18.427871,1.470825
1650623392.802173,1962.000000,1650623392.801982,0.000000,0.000000,1.000000,0.000000,0.000000,0.000000,0.000000,1.441034,18.427531,1.472539
1650623392.902146,1963.000000,1650623392.901964,0.000000,0.000000,1.000000,0.000000,0.000000,0.000000,0.000000,1.441627,18.426091,1.480286
1650623393.002245,1964.000000,1650623393.002072,0.000000,0.000000,1.000000,0.000000,0.000000,0.000000,0.000000,1.444577,18.424706,1.493826
1650623393.102155,1965.000000,1650623393.101968,0.000000,0.000000,1.000000,0.000000,0.000000,0.000000,0.000000,1.436650,18.422289,1.508883
1650623393.202120,1966.000000,1650623393.201935,0.000000,0.000000,1.000000,0.000000,0.000000,0.000000,0.000000,1.448984,18.417815,1.487483
1650623393.302120,1967.000000,1650623393.301934,0.000000,0.000000,1.000000,0.000000,0.000000,0.000000,0.000000,1.460797,18.414681,1.477921
1650623393.402096,1968.000000,1650623393.401914,0.000000,0.000000,1.000000,0.000000,0.000000,0.000000,0.000000,1.465530,18.413914,1.470072
1650623393.502164,1969.000000,1650623393.501977,0.000000,0.000000,1.000000,0.000000,0.000000,0.000000,0.000000,1.464638,18.414297,1.442925
1650623393.602130,1970.000000,1650623393.601939,0.000000,0.000000,1.000000,0.000000,0.000000,0.000000,0.000000,1.461696,18.414674,1.408604
1650623393.702155,1971.000000,1650623393.701979,0.000000,0.000000,1.000000,0.000000,0.000000,0.000000,0.000000,1.463363,18.413953,1.363434
1650623393.802129,1972.000000,1650623393.801916,0.000000,0.000000,1.000000,0.000000,0.000000,0.000000,0.000000,1.458473,18.414376,1.332127
1650623393.902176,1973.000000,1650623393.901973,0.000000,0.000000,1.000000,0.000000,0.000000,0.000000,0.000000,1.459389,18.415878,1.320632
1650623394.002135,1974.000000,1650623394.001935,0.000000,0.000000,1.000000,0.000000,0.000000,0.000000,0.000000,1.461426,18.416216,1.323331
1650623394.102134,1975.000000,1650623394.101950,0.000000,0.000000,1.000000,0.000000,0.000000,0.000000,0.000000,1.461239,18.413269,1.330775
1650623394.202145,1976.000000,1650623394.201964,0.000000,0.000000,1.000000,0.000000,0.000000,0.000000,0.000000,1.462219,18.412678,1.344373
1650623394.302173,1977.000000,1650623394.301950,0.000000,0.000000,1.000000,0.000000,0.000000,0.000000,0.000000,1.465384,18.412134,1.331595
1650623394.402129,1978.000000,1650623394.401938,0.000000,0.000000,1.000000,0.000000,0.000000,0.000000,0.000000,1.471693,18.411636,1.325786
1650623394.502161,1979.000000,1650623394.501979,0.000000,0.000000,1.000000,0.000000,0.000000,0.000000,0.000000,1.477681,18.411183,1.325060
1650623394.602126,1980.000000,1650623394.601944,0.000000,0.000000,1.000000,0.000000,0.000000,0.000000,0.000000,1.483345,18.410771,1.310667
1650623394.702061,1981.000000,1650623394.701892,0.000000,0.000000,1.000000,0.000000,0.000000,0.000000,0.000000,1.482143,18.412580,1.313018
1650623394.802107,1982.000000,1650623394.801943,0.000000,0.000000,1.000000,0.000000,0.000000,0.000000,0.000000,1.483177,18.413211,1.325790
1650623394.902794,1983.000000,1650623394.902573,0.000000,0.000000,1.000000,0.000000,0.000000,0.000000,0.000000,1.484140,18.412726,1.321118
1650623395.002497,1984.000000,1650623395.002278,0.000000,0.000000,1.000000,0.000000,0.000000,0.000000,0.000000,1.480674,18.413366,1.318263
1650623395.102797,1985.000000,1650623395.102472,0.000000,0.000000,1.000000,0.000000,0.000000,0.000000,0.000000,1.479574,18.413979,1.323607
1650623395.202611,1986.000000,1650623395.202328,0.000000,0.000000,1.000000,0.000000,0.000000,0.000000,0.000000,1.480714,18.414563,1.331971
1650623395.302591,1987.000000,1650623395.302341,0.000000,0.000000,1.000000,0.000000,0.000000,0.000000,0.000000,1.490511,18.414027,1.333541
1650623395.406806,1988.000000,1650623395.405757,0.000000,0.000000,1.000000,0.000000,0.000000,0.000000,0.000000,1.493198,18.413524,1.340685
1650623395.502604,1989.000000,1650623395.502379,0.000000,0.000000,1.000000,0.000000,0.000000,0.000000,0.000000,1.498969,18.411963,1.333812
1650623395.602603,1990.000000,1650623395.602379,0.000000,0.000000,1.000000,0.000000,0.000000,0.000000,0.000000,1.503278,18.410497,1.340919
1650623395.702690,1991.000000,1650623395.702415,0.000000,0.000000,1.000000,0.000000,0.000000,0.000000,0.000000,1.506195,18.409125,1.354979
1650623395.802614,1992.000000,1650623395.802358,0.000000,0.000000,1.000000,0.000000,0.000000,0.000000,0.000000,1.509972,18.407845,1.349076
1650623395.902970,1993.000000,1650623395.902472,0.000000,0.000000,1.000000,0.000000,0.000000,0.000000,0.000000,1.522186,18.404475,1.304671
1650623396.002600,1994.000000,1650623396.002333,0.000000,0.000000,1.000000,0.000000,0.000000,0.000000,0.000000,1.544524,18.400228,1.229845
1650623396.102710,1995.000000,1650623396.102499,0.000000,0.000000,1.000000,0.000000,0.000000,0.000000,0.000000,1.575282,18.394072,1.123528
1650623396.202667,1996.000000,1650623396.202423,0.000000,0.000000,1.000000,0.000000,0.000000,0.000000,0.000000,1.595376,18.390492,1.049260
1650623396.302742,1997.000000,1650623396.302413,0.000000,0.000000,1.000000,0.000000,0.000000,0.000000,0.000000,1.609703,18.388263,1.007474
1650623396.402683,1998.000000,1650623396.402377,0.000000,0.000000,1.000000,0.000000,0.000000,0.000000,0.000000,1.622909,18.387316,0.989654
1650623396.502269,1999.000000,1650623396.502031,0.000000,0.000000,1.000000,0.000000,0.000000,0.000000,0.000000,1.628493,18.388669,0.981133
1650623396.602364,2000.000000,1650623396.602123,0.000000,0.000000,1.000000,0.000000,0.000000,0.000000,0.000000,1.626871,18.390010,0.988788
1650623396.702614,2001.000000,1650623396.702242,0.000000,0.000000,1.000000,0.000000,0.000000,0.000000,0.000000,1.621735,18.391329,1.004674
1650623396.802166,2002.000000,1650623396.801969,0.000000,0.000000,1.000000,0.000000,0.000000,0.000000,0.000000,1.612220,18.391533,1.031639
1650623396.902255,2003.000000,1650623396.902030,0.000000,0.000000,1.000000,0.000000,0.000000,0.000000,0.000000,1.605154,18.392857,1.063526
1650623397.002444,2004.000000,1650623397.002186,0.000000,0.000000,1.000000,0.000000,0.000000,0.000000,0.000000,1.599350,18.394145,1.095229
1650623397.102612,2005.000000,1650623397.102375,0.000000,0.000000,1.000000,0.000000,0.000000,0.000000,0.000000,1.595861,18.396483,1.129109
1650623397.202384,2006.000000,1650623397.202009,0.000000,0.000000,1.000000,0.000000,0.000000,0.000000,0.000000,1.591310,18.398714,1.148882
1650623397.302270,2007.000000,1650623397.302033,0.000000,0.000000,1.000000,0.000000,0.000000,0.000000,0.000000,1.593412,18.400835,1.176044
1650623397.402241,2008.000000,1650623397.402042,0.000000,0.000000,1.000000,0.000000,0.000000,0.000000,0.000000,1.590901,18.403937,1.204601
1650623397.502316,2009.000000,1650623397.502054,0.000000,0.000000,1.000000,0.000000,0.000000,0.000000,0.000000,1.590588,18.405773,1.236864
1650623397.602297,2010.000000,1650623397.602095,0.000000,0.000000,1.000000,0.000000,0.000000,0.000000,0.000000,1.585818,18.407499,1.266984
1650623397.702161,2011.000000,1650623397.701923,0.000000,0.000000,1.000000,0.000000,0.000000,0.000000,0.000000,1.575765,18.409116,1.291772
1650623397.802202,2012.000000,1650623397.801933,0.000000,0.000000,1.000000,0.000000,0.000000,0.000000,0.000000,1.570567,18.410624,1.296081
1650623397.902245,2013.000000,1650623397.902009,0.000000,0.000000,1.000000,0.000000,0.000000,0.000000,0.000000,1.564527,18.412027,1.275090
1650623398.002248,2014.000000,1650623398.002017,0.000000,0.000000,1.000000,0.000000,0.000000,0.000000,0.000000,1.564254,18.412237,1.254859
1650623398.102219,2015.000000,1650623398.101994,0.000000,0.000000,1.000000,0.000000,0.000000,0.000000,0.000000,1.561804,18.412410,1.248299
1650623398.202734,2016.000000,1650623398.202410,0.000000,0.000000,1.000000,0.000000,0.000000,0.000000,0.000000,1.561664,18.412549,1.256485
1650623398.304047,2017.000000,1650623398.303106,0.000000,0.000000,1.000000,0.000000,0.000000,0.000000,0.000000,1.581156,18.409386,1.198971
1650623398.402548,2018.000000,1650623398.402294,0.000000,0.000000,1.000000,0.000000,0.000000,0.000000,0.000000,1.590799,18.408563,1.156730
1650623398.502720,2019.000000,1650623398.502334,0.000000,0.000000,1.000000,0.000000,0.000000,0.000000,0.000000,1.596555,18.408867,1.135669
1650623398.602626,2020.000000,1650623398.602342,0.000000,0.000000,1.000000,0.000000,0.000000,0.000000,0.000000,1.610617,18.406964,1.059157
1650623398.702626,2021.000000,1650623398.702379,0.000000,0.000000,1.000000,0.000000,0.000000,0.000000,0.000000,1.615048,18.405161,1.017457
1650623398.802897,2022.000000,1650623398.802576,0.000000,0.000000,1.000000,0.000000,0.000000,0.000000,0.000000,1.614728,18.405641,0.994708
1650623398.902639,2023.000000,1650623398.902361,0.000000,0.000000,1.000000,0.000000,0.000000,0.000000,0.000000,1.603384,18.407186,0.980493
1650623399.002666,2024.000000,1650623399.002398,0.000000,0.000000,1.000000,0.000000,0.000000,0.000000,0.000000,1.596925,18.409733,0.982542
1650623399.103093,2025.000000,1650623399.102526,0.000000,0.000000,1.000000,0.000000,0.000000,0.000000,0.000000,1.587478,18.409950,0.991309
1650623399.202669,2026.000000,1650623399.202323,0.000000,0.000000,1.000000,0.000000,0.000000,0.000000,0.000000,1.603589,18.407962,0.954882
1650623399.302525,2027.000000,1650623399.302292,0.000000,0.000000,1.000000,0.000000,0.000000,0.000000,0.000000,1.617649,18.407169,0.923516
1650623399.402702,2028.000000,1650623399.402363,0.000000,0.000000,1.000000,0.000000,0.000000,0.000000,0.000000,1.619915,18.406417,0.888176
1650623399.502631,2029.000000,1650623399.502392,0.000000,0.000000,1.000000,0.000000,0.000000,0.000000,0.000000,1.617574,18.406797,0.878902
1650623399.602749,2030.000000,1650623399.602423,0.000000,0.000000,1.000000,0.000000,0.000000,0.000000,0.000000,1.616342,18.406065,0.889803
1650623399.702637,2031.000000,1650623399.702400,0.000000,0.000000,1.000000,0.000000,0.000000,0.000000,0.000000,1.613988,18.405375,0.891801
1650623399.802453,2032.000000,1650623399.802114,0.000000,0.000000,1.000000,0.000000,0.000000,0.000000,0.000000,1.605134,18.405817,0.903785
1650623399.902229,2033.000000,1650623399.901995,0.000000,0.000000,1.000000,0.000000,0.000000,0.000000,0.000000,1.592349,18.407327,0.903540
1650623400.002308,2034.000000,1650623400.002039,0.000000,0.000000,1.000000,0.000000,0.000000,0.000000,0.000000,1.581341,18.408752,0.910900
1650623400.102267,2035.000000,1650623400.101971,0.000000,0.000000,1.000000,0.000000,0.000000,0.000000,0.000000,1.569868,18.410093,0.924725
1650623400.202712,2036.000000,1650623400.202472,0.000000,0.000000,1.000000,0.000000,0.000000,0.000000,0.000000,1.569985,18.409169,0.897943
1650623400.305403,2037.000000,1650623400.304484,0.000000,0.000000,1.000000,0.000000,0.000000,0.000000,0.000000,1.569061,18.408288,0.894324
1650623400.402212,2038.000000,1650623400.401988,0.000000,0.000000,1.000000,0.000000,0.000000,0.000000,0.000000,1.566064,18.408542,0.906473
1650623400.502255,2039.000000,1650623400.502025,0.000000,0.000000,1.000000,0.000000,0.000000,0.000000,0.000000,1.561111,18.408777,0.928078
1650623400.602239,2040.000000,1650623400.602020,0.000000,0.000000,1.000000,0.000000,0.000000,0.000000,0.000000,1.553231,18.408994,0.955484
1650623400.702438,2041.000000,1650623400.702174,0.000000,0.000000,1.000000,0.000000,0.000000,0.000000,0.000000,1.546966,18.410284,0.984368
1650623400.802738,2042.000000,1650623400.802431,0.000000,0.000000,1.000000,0.000000,0.000000,0.000000,0.000000,1.536790,18.411494,1.009777
1650623400.902324,2043.000000,1650623400.902029,0.000000,0.000000,1.000000,0.000000,0.000000,0.000000,0.000000,1.527304,18.413717,1.039868
1650623401.002313,2044.000000,1650623401.002029,0.000000,0.000000,1.000000,0.000000,0.000000,0.000000,0.000000,1.530485,18.414709,1.047785
1650623401.102252,2045.000000,1650623401.101992,0.000000,0.000000,1.000000,0.000000,0.000000,0.000000,0.000000,1.530360,18.414536,1.071505
1650623401.202252,2046.000000,1650623401.202004,0.000000,0.000000,1.000000,0.000000,0.000000,0.000000,0.000000,1.536914,18.414353,1.081319
1650623401.302276,2047.000000,1650623401.302033,0.000000,0.000000,1.000000,0.000000,0.000000,0.000000,0.000000,1.541033,18.413073,1.101967
1650623401.404402,2048.000000,1650623401.403299,0.000000,0.000000,1.000000,0.000000,0.000000,0.000000,0.000000,1.550463,18.412940,1.131366
1650623401.502300,2049.000000,1650623401.502051,0.000000,0.000000,1.000000,0.000000,0.000000,0.000000,0.000000,1.558338,18.412803,1.160247
1650623401.602292,2050.000000,1650623401.602034,0.000000,0.000000,1.000000,0.000000,0.000000,0.000000,0.000000,1.564714,18.413754,1.195039
1650623401.702321,2051.000000,1650623401.702035,0.000000,0.000000,1.000000,0.000000,0.000000,0.000000,0.000000,1.571834,18.414640,1.233033
1650623401.802309,2052.000000,1650623401.802061,0.000000,0.000000,1.000000,0.000000,0.000000,0.000000,0.000000,1.573091,18.415464,1.265175
1650623401.902736,2053.000000,1650623401.902358,0.000000,0.000000,1.000000,0.000000,0.000000,0.000000,0.000000,1.572074,18.417316,1.296497
1650623402.002748,2054.000000,1650623402.002358,0.000000,0.000000,1.000000,0.000000,0.000000,0.000000,0.000000,1.576544,18.417956,1.309251
1650623402.103109,2055.000000,1650623402.102747,0.000000,0.000000,1.000000,0.000000,0.000000,0.000000,0.000000,1.580737,18.418540,1.328372
1650623402.202632,2056.000000,1650623402.202428,0.000000,0.000000,1.000000,0.000000,0.000000,0.000000,0.000000,1.582476,18.419068,1.344717
1650623402.303051,2057.000000,1650623402.302632,0.000000,0.000000,1.000000,0.000000,0.000000,0.000000,0.000000,1.579711,18.419545,1.364032
1650623402.402244,2058.000000,1650623402.401948,0.000000,0.000000,1.000000,0.000000,0.000000,0.000000,0.000000,1.571609,18.419973,1.370857
1650623402.502255,2059.000000,1650623402.502011,0.000000,0.000000,1.000000,0.000000,0.000000,0.000000,0.000000,1.566121,18.420354,1.379413
1650623402.602333,2060.000000,1650623402.602058,0.000000,0.000000,1.000000,0.000000,0.000000,0.000000,0.000000,1.562031,18.421782,1.388019
1650623402.702252,2061.000000,1650623402.702004,0.000000,0.000000,1.000000,0.000000,0.000000,0.000000,0.000000,1.557095,18.423106,1.400710
1650623402.802584,2062.000000,1650623402.802212,0.000000,0.000000,1.000000,0.000000,0.000000,0.000000,0.000000,1.555735,18.424329,1.414895
1650623402.902340,2063.000000,1650623402.902064,0.000000,0.000000,1.000000,0.000000,0.000000,0.000000,0.000000,1.545764,18.426545,1.418412
1650623403.002275,2064.000000,1650623403.002052,0.000000,0.000000,1.000000,0.000000,0.000000,0.000000,0.000000,1.532042,18.428604,1.424605
1650623403.102354,2065.000000,1650623403.102105,0.000000,0.000000,1.000000,0.000000,0.000000,0.000000,0.000000,1.520265,18.431600,1.414825
1650623403.202291,2066.000000,1650623403.202054,0.000000,0.000000,1.000000,0.000000,0.000000,0.000000,0.000000,1.509266,18.434385,1.414749
1650623403.302315,2067.000000,1650623403.302080,0.000000,0.000000,1.000000,0.000000,0.000000,0.000000,0.000000,1.497941,18.435875,1.414324
1650623403.402282,2068.000000,1650623403.402046,0.000000,0.000000,1.000000,0.000000,0.000000,0.000000,0.000000,1.490694,18.437228,1.423257
1650623403.502324,2069.000000,1650623403.502067,0.000000,0.000000,1.000000,0.000000,0.000000,0.000000,0.000000,1.486225,18.438451,1.437944
1650623403.602323,2070.000000,1650623403.602071,0.000000,0.000000,1.000000,0.000000,0.000000,0.000000,0.000000,1.483295,18.438460,1.456530
1650623403.702332,2071.000000,1650623403.702084,0.000000,0.000000,1.000000,0.000000,0.000000,0.000000,0.000000,1.475274,18.437325,1.472388
1650623403.802303,2072.000000,1650623403.802047,0.000000,0.000000,1.000000,0.000000,0.000000,0.000000,0.000000,1.468996,18.436204,1.490457
1650623403.902748,2073.000000,1650623403.902183,0.000000,0.000000,1.000000,0.000000,0.000000,0.000000,0.000000,1.463283,18.435103,1.511438
1650623404.002234,2074.000000,1650623404.002026,0.000000,0.000000,1.000000,0.000000,0.000000,0.000000,0.000000,1.464652,18.432937,1.529550
1650623404.102793,2075.000000,1650623404.102436,0.000000,0.000000,1.000000,0.000000,0.000000,0.000000,0.000000,1.487965,18.427592,1.488443
1650623404.202381,2076.000000,1650623404.202067,0.000000,0.000000,1.000000,0.000000,0.000000,0.000000,0.000000,1.499229,18.423620,1.462367
1650623404.302332,2077.000000,1650623404.302043,0.000000,0.000000,1.000000,0.000000,0.000000,0.000000,0.000000,1.513233,18.419870,1.417708
1650623404.402281,2078.000000,1650623404.402033,0.000000,0.000000,1.000000,0.000000,0.000000,0.000000,0.000000,1.551587,18.414161,1.349658
1650623404.502326,2079.000000,1650623404.502045,0.000000,0.000000,1.000000,0.000000,0.000000,0.000000,0.000000,1.569225,18.409886,1.304445
1650623404.602416,2080.000000,1650623404.602132,0.000000,0.000000,1.000000,0.000000,0.000000,0.000000,0.000000,1.580312,18.406979,1.282841
1650623404.703031,2081.000000,1650623404.702542,0.000000,0.000000,1.000000,0.000000,0.000000,0.000000,0.000000,1.602622,18.402102,1.221833
1650623404.802258,2082.000000,1650623404.802040,0.000000,0.000000,1.000000,0.000000,0.000000,0.000000,0.000000,1.616948,18.399736,1.180369
1650623404.904583,2083.000000,1650623404.904231,0.000000,0.000000,1.000000,0.000000,0.000000,0.000000,0.000000,1.620421,18.397566,1.161758
1650623405.003145,2084.000000,1650623405.002467,0.000000,0.000000,1.000000,0.000000,0.000000,0.000000,0.000000,1.641986,18.393405,1.114295
1650623405.106122,2085.000000,1650623405.105397,0.000000,0.000000,1.000000,0.000000,0.000000,0.000000,0.000000,1.653345,18.391730,1.091632
1650623405.204885,2086.000000,1650623405.203929,0.000000,0.000000,1.000000,0.000000,0.000000,0.000000,0.000000,1.661578,18.391318,1.087151
1650623405.303834,2087.000000,1650623405.303358,0.000000,0.000000,1.000000,0.000000,0.000000,0.000000,0.000000,1.702832,18.386644,1.050111
1650623405.405249,2088.000000,1650623405.404194,0.000000,0.000000,1.000000,0.000000,0.000000,0.000000,0.000000,1.726128,18.384492,1.030263
1650623405.505792,2089.000000,1650623405.505311,0.000000,0.000000,1.000000,0.000000,0.000000,0.000000,0.000000,1.740032,18.383638,1.026123
1650623405.605745,2090.000000,1650623405.603985,0.000000,0.000000,1.000000,0.000000,0.000000,0.000000,0.000000,1.769027,18.380735,0.962050
1650623405.704254,2091.000000,1650623405.703474,0.000000,0.000000,1.000000,0.000000,0.000000,0.000000,0.000000,1.778427,18.378082,0.913132
1650623405.805782,2092.000000,1650623405.803996,0.000000,0.000000,1.000000,0.000000,0.000000,0.000000,0.000000,1.776935,18.376758,0.889305
1650623405.903022,2093.000000,1650623405.902439,0.000000,0.000000,1.000000,0.000000,0.000000,0.000000,0.000000,1.796804,18.372327,0.813770
1650623406.003360,2094.000000,1650623406.002766,0.000000,0.000000,1.000000,0.000000,0.000000,0.000000,0.000000,1.800855,18.369329,0.758876
1650623406.102754,2095.000000,1650623406.102441,0.000000,0.000000,1.000000,0.000000,0.000000,0.000000,0.000000,1.793240,18.367690,0.738372
1650623406.202455,2096.000000,1650623406.202134,0.000000,0.000000,1.000000,0.000000,0.000000,0.000000,0.000000,1.803001,18.365153,0.688781
1650623406.305055,2097.000000,1650623406.303853,0.000000,0.000000,1.000000,0.000000,0.000000,0.000000,0.000000,1.810651,18.363952,0.672618
1650623406.405665,2098.000000,1650623406.404581,0.000000,0.000000,1.000000,0.000000,0.000000,0.000000,0.000000,1.806495,18.362919,0.648208
1650623406.502546,2099.000000,1650623406.502214,0.000000,0.000000,1.000000,0.000000,0.000000,0.000000,0.000000,1.815208,18.360953,0.600569
1650623406.602971,2100.000000,1650623406.602495,0.000000,0.000000,1.000000,0.000000,0.000000,0.000000,0.000000,1.816458,18.360286,0.587137
1650623406.705619,2101.000000,1650623406.704520,0.000000,0.000000,1.000000,0.000000,0.000000,0.000000,0.000000,1.812855,18.360843,0.598456
1650623406.802392,2102.000000,1650623406.802110,0.000000,0.000000,1.000000,0.000000,0.000000,0.000000,0.000000,1.827597,18.359279,0.556056
1650623406.903594,2103.000000,1650623406.903060,0.000000,0.000000,1.000000,0.000000,0.000000,0.000000,0.000000,1.830221,18.358980,0.533108
1650623407.002947,2104.000000,1650623407.002424,0.000000,0.000000,1.000000,0.000000,0.000000,0.000000,0.000000,1.826853,18.359874,0.521576
1650623407.104368,2105.000000,1650623407.103504,0.000000,0.000000,1.000000,0.000000,0.000000,0.000000,0.000000,1.845114,18.357526,0.466953
1650623407.202386,2106.000000,1650623407.202158,0.000000,0.000000,1.000000,0.000000,0.000000,0.000000,0.000000,1.848896,18.358658,0.443616
1650623407.306450,2107.000000,1650623407.305211,0.000000,0.000000,1.000000,0.000000,0.000000,0.000000,0.000000,1.845542,18.360891,0.450306
1650623407.407187,2108.000000,1650623407.405526,0.000000,0.000000,1.000000,0.000000,0.000000,0.000000,0.000000,1.862732,18.360883,0.436573
1650623407.503070,2109.000000,1650623407.502608,0.000000,0.000000,1.000000,0.000000,0.000000,0.000000,0.000000,1.864422,18.363114,0.440325
1650623407.604599,2110.000000,1650623407.603933,0.000000,0.000000,1.000000,0.000000,0.000000,0.000000,0.000000,1.852564,18.366361,0.460818
1650623407.702428,2111.000000,1650623407.702156,0.000000,0.000000,1.000000,0.000000,0.000000,0.000000,0.000000,1.862846,18.366195,0.425535
1650623407.803048,2112.000000,1650623407.802662,0.000000,0.000000,1.000000,0.000000,0.000000,0.000000,0.000000,1.863518,18.368251,0.400466
1650623407.903457,2113.000000,1650623407.902369,0.000000,0.000000,1.000000,0.000000,0.000000,0.000000,0.000000,1.854030,18.370220,0.401340
1650623408.003879,2114.000000,1650623408.002862,0.000000,0.000000,1.000000,0.000000,0.000000,0.000000,0.000000,1.860060,18.369918,0.383529
1650623408.102849,2115.000000,1650623408.102447,0.000000,0.000000,1.000000,0.000000,0.000000,0.000000,0.000000,1.875310,18.370740,0.330852
1650623408.205137,2116.000000,1650623408.204306,0.000000,0.000000,1.000000,0.000000,0.000000,0.000000,0.000000,1.876345,18.373712,0.314935
1650623408.303137,2117.000000,1650623408.302579,0.000000,0.000000,1.000000,0.000000,0.000000,0.000000,0.000000,1.880309,18.374344,0.269776
1650623408.403427,2118.000000,1650623408.402720,0.000000,0.000000,1.000000,0.000000,0.000000,0.000000,0.000000,1.873963,18.376033,0.260307
1650623408.504770,2119.000000,1650623408.503965,0.000000,0.000000,1.000000,0.000000,0.000000,0.000000,0.000000,1.854633,18.379806,0.270556
1650623408.604519,2120.000000,1650623408.603743,0.000000,0.000000,1.000000,0.000000,0.000000,0.000000,0.000000,1.843818,18.381178,0.240000
1650623408.705340,2121.000000,1650623408.704328,0.000000,0.000000,1.000000,0.000000,0.000000,0.000000,0.000000,1.824744,18.384636,0.224337
1650623408.803297,2122.000000,1650623408.802855,0.000000,0.000000,1.000000,0.000000,0.000000,0.000000,0.000000,1.806649,18.388967,0.232638
1650623408.903359,2123.000000,1650623408.902697,0.000000,0.000000,1.000000,0.000000,0.000000,0.000000,0.000000,1.803717,18.389750,0.213086
1650623409.003404,2124.000000,1650623409.002707,0.000000,0.000000,1.000000,0.000000,0.000000,0.000000,0.000000,1.793323,18.390449,0.225678
1650623409.104058,2125.000000,1650623409.103625,0.000000,0.000000,1.000000,0.000000,0.000000,0.000000,0.000000,1.776995,18.392159,0.257777
1650623409.203760,2126.000000,1650623409.203089,0.000000,0.000000,1.000000,0.000000,0.000000,0.000000,0.000000,1.787818,18.390461,0.249642
1650623409.303876,2127.000000,1650623409.303280,0.000000,0.000000,1.000000,0.000000,0.000000,0.000000,0.000000,1.791562,18.389910,0.269016
1650623409.402850,2128.000000,1650623409.402508,0.000000,0.000000,1.000000,0.000000,0.000000,0.000000,0.000000,1.782054,18.391538,0.307473
1650623409.504298,2129.000000,1650623409.503645,0.000000,0.000000,1.000000,0.000000,0.000000,0.000000,0.000000,1.796028,18.388679,0.289965
1650623409.603519,2130.000000,1650623409.602654,0.000000,0.000000,1.000000,0.000000,0.000000,0.000000,0.000000,1.816891,18.384862,0.231662
1650623409.703132,2131.000000,1650623409.702778,0.000000,0.000000,1.000000,0.000000,0.000000,0.000000,0.000000,1.821303,18.382332,0.220579
1650623409.802559,2132.000000,1650623409.802264,0.000000,0.000000,1.000000,0.000000,0.000000,0.000000,0.000000,1.835228,18.378846,0.193521
1650623409.904224,2133.000000,1650623409.903402,0.000000,0.000000,1.000000,0.000000,0.000000,0.000000,0.000000,1.839571,18.377740,0.196316
1650623410.003427,2134.000000,1650623410.002881,0.000000,0.000000,1.000000,0.000000,0.000000,0.000000,0.000000,1.833755,18.378887,0.215638
1650623410.104410,2135.000000,1650623410.103756,0.000000,0.000000,1.000000,0.000000,0.000000,0.000000,0.000000,1.855432,18.376707,0.189475
1650623410.202601,2136.000000,1650623410.202257,0.000000,0.000000,1.000000,0.000000,0.000000,0.000000,0.000000,1.860516,18.376841,0.198719
1650623410.305310,2137.000000,1650623410.304085,0.000000,0.000000,1.000000,0.000000,0.000000,0.000000,0.000000,1.855354,18.376980,0.208035
1650623410.405490,2138.000000,1650623410.404816,0.000000,0.000000,1.000000,0.000000,0.000000,0.000000,0.000000,1.868881,18.374942,0.187547
1650623410.503326,2139.000000,1650623410.502934,0.000000,0.000000,1.000000,0.000000,0.000000,0.000000,0.000000,1.869512,18.375213,0.192507
1650623410.603027,2140.000000,1650623410.602628,0.000000,0.000000,1.000000,0.000000,0.000000,0.000000,0.000000,1.861228,18.376575,0.221862
1650623410.703240,2141.000000,1650623410.702712,0.000000,0.000000,1.000000,0.000000,0.000000,0.000000,0.000000,1.871810,18.375692,0.217305
1650623410.802587,2142.000000,1650623410.802255,0.000000,0.000000,1.000000,0.000000,0.000000,0.000000,0.000000,1.868582,18.375960,0.243905
1650623410.904130,2143.000000,1650623410.903537,0.000000,0.000000,1.000000,0.000000,0.000000,0.000000,0.000000,1.857768,18.377315,0.287444
1650623411.002997,2144.000000,1650623411.002577,0.000000,0.000000,1.000000,0.000000,0.000000,0.000000,0.000000,1.871443,18.375330,0.276187
1650623411.103548,2145.000000,1650623411.102753,0.000000,0.000000,1.000000,0.000000,0.000000,0.000000,0.000000,1.876615,18.375647,0.289774
1650623411.204417,2146.000000,1650623411.203820,0.000000,0.000000,1.000000,0.000000,0.000000,0.000000,0.000000,1.870466,18.377046,0.308622
1650623411.303491,2147.000000,1650623411.303095,0.000000,0.000000,1.000000,0.000000,0.000000,0.000000,0.000000,1.888533,18.375104,0.304256
1650623411.403813,2148.000000,1650623411.402552,0.000000,0.000000,1.000000,0.000000,0.000000,0.000000,0.000000,1.890192,18.375458,0.322774
1650623411.503362,2149.000000,1650623411.502637,0.000000,0.000000,1.000000,0.000000,0.000000,0.000000,0.000000,1.881792,18.377984,0.351928
1650623411.605675,2150.000000,1650623411.604347,0.000000,0.000000,1.000000,0.000000,0.000000,0.000000,0.000000,1.885725,18.378192,0.346879
1650623411.704413,2151.000000,1650623411.703616,0.000000,0.000000,1.000000,0.000000,0.000000,0.000000,0.000000,1.877324,18.379479,0.374337
1650623411.803583,2152.000000,1650623411.803102,0.000000,0.000000,1.000000,0.000000,0.000000,0.000000,0.000000,1.887827,18.378511,0.362781
1650623411.909623,2153.000000,1650623411.907736,0.000000,0.000000,1.000000,0.000000,0.000000,0.000000,0.000000,1.894367,18.375414,0.333965
1650623412.003336,2154.000000,1650623412.002946,0.000000,0.000000,1.000000,0.000000,0.000000,0.000000,0.000000,1.887334,18.374676,0.312020
1650623412.108600,2155.000000,1650623412.107792,0.000000,0.000000,1.000000,0.000000,0.000000,0.000000,0.000000,1.883852,18.372899,0.271703
1650623412.203245,2156.000000,1650623412.202914,0.000000,0.000000,1.000000,0.000000,0.000000,0.000000,0.000000,1.890287,18.370143,0.225916
1650623412.302986,2157.000000,1650623412.302671,0.000000,0.000000,1.000000,0.000000,0.000000,0.000000,0.000000,1.888638,18.369742,0.220111
1650623412.404366,2158.000000,1650623412.403640,0.000000,0.000000,1.000000,0.000000,0.000000,0.000000,0.000000,1.877175,18.371568,0.244613
1650623412.503149,2159.000000,1650623412.502698,0.000000,0.000000,1.000000,0.000000,0.000000,0.000000,0.000000,1.879372,18.371129,0.247343
1650623412.606933,2160.000000,1650623412.605808,0.000000,0.000000,1.000000,0.000000,0.000000,0.000000,0.000000,1.895572,18.368551,0.223519
1650623412.703838,2161.000000,1650623412.703262,0.000000,0.000000,1.000000,0.000000,0.000000,0.000000,0.000000,1.895522,18.368317,0.214568
1650623412.804817,2162.000000,1650623412.804208,0.000000,0.000000,1.000000,0.000000,0.000000,0.000000,0.000000,1.909556,18.365939,0.184414
1650623412.902988,2163.000000,1650623412.902585,0.000000,0.000000,1.000000,0.000000,0.000000,0.000000,0.000000,1.901974,18.366991,0.171857
1650623413.003956,2164.000000,1650623413.003180,0.000000,0.000000,1.000000,0.000000,0.000000,0.000000,0.000000,1.888160,18.368010,0.172972
1650623413.103473,2165.000000,1650623413.102975,0.000000,0.000000,1.000000,0.000000,0.000000,0.000000,0.000000,1.896854,18.371175,0.160582
1650623413.202670,2166.000000,1650623413.202234,0.000000,0.000000,1.000000,0.000000,0.000000,0.000000,0.000000,1.891913,18.375266,0.169114
1650623413.302704,2167.000000,1650623413.302259,0.000000,0.000000,1.000000,0.000000,0.000000,0.000000,0.000000,1.879551,18.378039,0.184795
1650623413.408114,2168.000000,1650623413.406433,0.000000,0.000000,1.000000,0.000000,0.000000,0.000000,0.000000,1.854763,18.381738,0.224236
1650623413.503105,2169.000000,1650623413.502773,0.000000,0.000000,1.000000,0.000000,0.000000,0.000000,0.000000,1.828118,18.386302,0.279147
1650623413.603074,2170.000000,1650623413.602727,0.000000,0.000000,1.000000,0.000000,0.000000,0.000000,0.000000,1.801979,18.389491,0.350418
1650623413.706449,2171.000000,1650623413.705224,0.000000,0.000000,1.000000,0.000000,0.000000,0.000000,0.000000,1.776391,18.391370,0.431623
1650623413.806676,2172.000000,1650623413.805682,0.000000,0.000000,1.000000,0.000000,0.000000,0.000000,0.000000,1.745941,18.394189,0.516583
1650623413.911306,2173.000000,1650623413.910038,0.000000,0.000000,1.000000,0.000000,0.000000,0.000000,0.000000,1.716425,18.396800,0.597753
1650623414.002726,2174.000000,1650623414.002259,0.000000,0.000000,1.000000,0.000000,0.000000,0.000000,0.000000,1.690045,18.400300,0.670327
1650623414.105917,2175.000000,1650623414.104530,0.000000,0.000000,1.000000,0.000000,0.000000,0.000000,0.000000,1.667777,18.402452,0.723256
1650623414.202907,2176.000000,1650623414.202541,0.000000,0.000000,1.000000,0.000000,0.000000,0.000000,0.000000,1.665796,18.402236,0.725817
1650623414.303542,2177.000000,1650623414.303109,0.000000,0.000000,1.000000,0.000000,0.000000,0.000000,0.000000,1.675339,18.399785,0.684901
1650623414.403004,2178.000000,1650623414.402517,0.000000,0.000000,1.000000,0.000000,0.000000,0.000000,0.000000,1.681544,18.397415,0.682195
1650623414.504340,2179.000000,1650623414.503891,0.000000,0.000000,1.000000,0.000000,0.000000,0.000000,0.000000,1.678003,18.397311,0.694413
1650623414.603043,2180.000000,1650623414.602519,0.000000,0.000000,1.000000,0.000000,0.000000,0.000000,0.000000,1.693587,18.394992,0.673372
1650623414.705198,2181.000000,1650623414.704634,0.000000,0.000000,1.000000,0.000000,0.000000,0.000000,0.000000,1.693379,18.393858,0.670470
1650623414.804836,2182.000000,1650623414.804319,0.000000,0.000000,1.000000,0.000000,0.000000,0.000000,0.000000,1.701120,18.390581,0.641452
1650623414.903807,2183.000000,1650623414.903335,0.000000,0.000000,1.000000,0.000000,0.000000,0.000000,0.000000,1.717425,18.386378,0.570501
1650623415.002590,2184.000000,1650623415.002220,0.000000,0.000000,1.000000,0.000000,0.000000,0.000000,0.000000,1.716683,18.384585,0.530412
1650623415.103031,2185.000000,1650623415.102479,0.000000,0.000000,1.000000,0.000000,0.000000,0.000000,0.000000,1.708535,18.383986,0.523243
1650623415.203665,2186.000000,1650623415.203128,0.000000,0.000000,1.000000,0.000000,0.000000,0.000000,0.000000,1.691220,18.384518,0.544460
1650623415.304228,2187.000000,1650623415.303465,0.000000,0.000000,1.000000,0.000000,0.000000,0.000000,0.000000,1.680545,18.383936,0.578373
1650623415.403784,2188.000000,1650623415.403167,0.000000,0.000000,1.000000,0.000000,0.000000,0.000000,0.000000,1.675077,18.383392,0.622000
1650623415.502882,2189.000000,1650623415.502426,0.000000,0.000000,1.000000,0.000000,0.000000,0.000000,0.000000,1.694162,18.380706,0.633754
1650623415.603001,2190.000000,1650623415.602482,0.000000,0.000000,1.000000,0.000000,0.000000,0.000000,0.000000,1.709127,18.379273,0.668944
1650623415.707680,2191.000000,1650623415.706086,0.000000,0.000000,1.000000,0.000000,0.000000,0.000000,0.000000,1.719049,18.379028,0.691095
1650623415.806017,2192.000000,1650623415.804651,0.000000,0.000000,1.000000,0.000000,0.000000,0.000000,0.000000,1.749241,18.375544,0.656353
1650623415.904430,2193.000000,1650623415.903527,0.000000,0.000000,1.000000,0.000000,0.000000,0.000000,0.000000,1.769059,18.374461,0.655794
1650623416.004203,2194.000000,1650623416.003485,0.000000,0.000000,1.000000,0.000000,0.000000,0.000000,0.000000,1.793180,18.372377,0.638860
1650623416.104005,2195.000000,1650623416.103598,0.000000,0.000000,1.000000,0.000000,0.000000,0.000000,0.000000,1.828932,18.367172,0.591736
1650623416.204180,2196.000000,1650623416.203538,0.000000,0.000000,1.000000,0.000000,0.000000,0.000000,0.000000,1.842864,18.364481,0.573791
1650623416.304221,2197.000000,1650623416.303524,0.000000,0.000000,1.000000,0.000000,0.000000,0.000000,0.000000,1.841587,18.364172,0.582274
1650623416.402665,2198.000000,1650623416.402298,0.000000,0.000000,1.000000,0.000000,0.000000,0.000000,0.000000,1.858662,18.360664,0.561270
1650623416.505044,2199.000000,1650623416.504368,0.000000,0.000000,1.000000,0.000000,0.000000,0.000000,0.000000,1.863609,18.359588,0.573298
1650623416.603613,2200.000000,1650623416.602828,0.000000,0.000000,1.000000,0.000000,0.000000,0.000000,0.000000,1.855999,18.359723,0.604107
1650623416.707417,2201.000000,1650623416.705930,0.000000,0.000000,1.000000,0.000000,0.000000,0.000000,0.000000,1.864908,18.358817,0.601277
1650623416.805352,2202.000000,1650623416.804294,0.000000,0.000000,1.000000,0.000000,0.000000,0.000000,0.000000,1.889422,18.355837,0.549241
1650623416.902950,2203.000000,1650623416.902495,0.000000,0.000000,1.000000,0.000000,0.000000,0.000000,0.000000,1.893736,18.356353,0.527494
1650623417.002658,2204.000000,1650623417.002360,0.000000,0.000000,1.000000,0.000000,0.000000,0.000000,0.000000,1.910579,18.354718,0.463886
1650623417.102884,2205.000000,1650623417.102541,0.000000,0.000000,1.000000,0.000000,0.000000,0.000000,0.000000,1.914154,18.354322,0.444082
1650623417.202406,2206.000000,1650623417.202141,0.000000,0.000000,1.000000,0.000000,0.000000,0.000000,0.000000,1.906283,18.354005,0.442153
1650623417.302607,2207.000000,1650623417.302333,0.000000,0.000000,1.000000,0.000000,0.000000,0.000000,0.000000,1.911623,18.352669,0.394473
1650623417.402889,2208.000000,1650623417.402595,0.000000,0.000000,1.000000,0.000000,0.000000,0.000000,0.000000,1.910919,18.352553,0.362637
1650623417.502641,2209.000000,1650623417.502375,0.000000,0.000000,1.000000,0.000000,0.000000,0.000000,0.000000,1.903428,18.354678,0.366214
1650623417.602380,2210.000000,1650623417.602135,0.000000,0.000000,1.000000,0.000000,0.000000,0.000000,0.000000,1.915731,18.355639,0.354565
1650623417.702858,2211.000000,1650623417.702534,0.000000,0.000000,1.000000,0.000000,0.000000,0.000000,0.000000,1.911831,18.357677,0.375089
1650623417.803213,2212.000000,1650623417.802857,0.000000,0.000000,1.000000,0.000000,0.000000,0.000000,0.000000,1.903543,18.359633,0.419185
1650623417.902792,2213.000000,1650623417.902538,0.000000,0.000000,1.000000,0.000000,0.000000,0.000000,0.000000,1.909682,18.360413,0.405174
1650623418.002468,2214.000000,1650623418.002228,0.000000,0.000000,1.000000,0.000000,0.000000,0.000000,0.000000,1.900014,18.362259,0.419288
1650623418.102530,2215.000000,1650623418.102223,0.000000,0.000000,1.000000,0.000000,0.000000,0.000000,0.000000,1.884166,18.365106,0.455525
1650623418.203021,2216.000000,1650623418.202693,0.000000,0.000000,1.000000,0.000000,0.000000,0.000000,0.000000,1.863623,18.367799,0.508088
1650623418.302747,2217.000000,1650623418.302489,0.000000,0.000000,1.000000,0.000000,0.000000,0.000000,0.000000,1.839804,18.370338,0.572197
1650623418.402742,2218.000000,1650623418.402504,0.000000,0.000000,1.000000,0.000000,0.000000,0.000000,0.000000,1.806421,18.373814,0.637601
1650623418.502891,2219.000000,1650623418.502577,0.000000,0.000000,1.000000,0.000000,0.000000,0.000000,0.000000,1.778272,18.377076,0.710595
1650623418.602884,2220.000000,1650623418.602585,0.000000,0.000000,1.000000,0.000000,0.000000,0.000000,0.000000,1.752972,18.381217,0.763342
1650623418.702843,2221.000000,1650623418.702563,0.000000,0.000000,1.000000,0.000000,0.000000,0.000000,0.000000,1.726072,18.385087,0.827228
1650623418.802752,2222.000000,1650623418.802492,0.000000,0.000000,1.000000,0.000000,0.000000,0.000000,0.000000,1.699906,18.389783,0.888812
1650623418.902706,2223.000000,1650623418.902453,0.000000,0.000000,1.000000,0.000000,0.000000,0.000000,0.000000,1.678858,18.394157,0.929556
1650623419.002634,2224.000000,1650623419.002377,0.000000,0.000000,1.000000,0.000000,0.000000,0.000000,0.000000,1.662692,18.398216,0.978483
1650623419.102622,2225.000000,1650623419.102306,0.000000,0.000000,1.000000,0.000000,0.000000,0.000000,0.000000,1.643532,18.401970,1.023111
1650623419.202300,2226.000000,1650623419.202058,0.000000,0.000000,1.000000,0.000000,0.000000,0.000000,0.000000,1.629207,18.406519,1.073244
1650623419.302525,2227.000000,1650623419.302288,0.000000,0.000000,1.000000,0.000000,0.000000,0.000000,0.000000,1.611835,18.409629,1.125382
1650623419.402377,2228.000000,1650623419.402100,0.000000,0.000000,1.000000,0.000000,0.000000,0.000000,0.000000,1.597059,18.413555,1.171326
1650623419.502588,2229.000000,1650623419.502282,0.000000,0.000000,1.000000,0.000000,0.000000,0.000000,0.000000,1.584752,18.417157,1.212091
1650623419.605131,2230.000000,1650623419.604088,0.000000,0.000000,1.000000,0.000000,0.000000,0.000000,0.000000,1.566060,18.419357,1.251885
1650623419.702399,2231.000000,1650623419.702144,0.000000,0.000000,1.000000,0.000000,0.000000,0.000000,0.000000,1.551172,18.421320,1.267334
1650623419.802206,2232.000000,1650623419.801964,0.000000,0.000000,1.000000,0.000000,0.000000,0.000000,0.000000,1.533350,18.424152,1.275561
1650623419.902223,2233.000000,1650623419.901968,0.000000,0.000000,1.000000,0.000000,0.000000,0.000000,0.000000,1.525858,18.427802,1.298659
1650623420.002432,2234.000000,1650623420.002217,0.000000,0.000000,1.000000,0.000000,0.000000,0.000000,0.000000,1.519398,18.430040,1.331189
1650623420.102589,2235.000000,1650623420.102278,0.000000,0.000000,1.000000,0.000000,0.000000,0.000000,0.000000,1.512808,18.430944,1.363884
1650623420.202211,2236.000000,1650623420.202015,0.000000,0.000000,1.000000,0.000000,0.000000,0.000000,0.000000,1.501718,18.431681,1.397528
1650623420.302639,2237.000000,1650623420.302392,0.000000,0.000000,1.000000,0.000000,0.000000,0.000000,0.000000,1.490736,18.433353,1.428034
1650623420.402347,2238.000000,1650623420.402120,0.000000,0.000000,1.000000,0.000000,0.000000,0.000000,0.000000,1.483128,18.432642,1.463581
1650623420.502255,2239.000000,1650623420.502024,0.000000,0.000000,1.000000,0.000000,0.000000,0.000000,0.000000,1.478700,18.432956,1.500722
1650623420.602242,2240.000000,1650623420.601974,0.000000,0.000000,1.000000,0.000000,0.000000,0.000000,0.000000,1.479438,18.432064,1.520825
1650623420.702257,2241.000000,1650623420.701993,0.000000,0.000000,1.000000,0.000000,0.000000,0.000000,0.000000,1.473033,18.433311,1.526196
1650623420.802367,2242.000000,1650623420.802166,0.000000,0.000000,1.000000,0.000000,0.000000,0.000000,0.000000,1.468587,18.434402,1.536819
1650623420.902248,2243.000000,1650623420.902029,0.000000,0.000000,1.000000,0.000000,0.000000,0.000000,0.000000,1.467067,18.435345,1.546861
1650623421.002195,2244.000000,1650623421.001979,0.000000,0.000000,1.000000,0.000000,0.000000,0.000000,0.000000,1.469380,18.435062,1.544270
1650623421.102254,2245.000000,1650623421.102011,0.000000,0.000000,1.000000,0.000000,0.000000,0.000000,0.000000,1.475282,18.434715,1.552988
1650623421.202220,2246.000000,1650623421.201989,0.000000,0.000000,1.000000,0.000000,0.000000,0.000000,0.000000,1.470358,18.435404,1.553225
1650623421.302218,2247.000000,1650623421.301998,0.000000,0.000000,1.000000,0.000000,0.000000,0.000000,0.000000,1.461733,18.437073,1.556652
1650623421.402233,2248.000000,1650623421.402023,0.000000,0.000000,1.000000,0.000000,0.000000,0.000000,0.000000,1.450704,18.438580,1.554297
1650623421.502209,2249.000000,1650623421.502003,0.000000,0.000000,1.000000,0.000000,0.000000,0.000000,0.000000,1.446136,18.438840,1.531914
1650623421.602242,2250.000000,1650623421.601989,0.000000,0.000000,1.000000,0.000000,0.000000,0.000000,0.000000,1.444398,18.437926,1.524253
1650623421.702186,2251.000000,1650623421.701955,0.000000,0.000000,1.000000,0.000000,0.000000,0.000000,0.000000,1.443135,18.436999,1.500118
1650623421.802187,2252.000000,1650623421.801974,0.000000,0.000000,1.000000,0.000000,0.000000,0.000000,0.000000,1.443396,18.434976,1.469917
1650623421.902200,2253.000000,1650623421.901952,0.000000,0.000000,1.000000,0.000000,0.000000,0.000000,0.000000,1.446165,18.431926,1.433971
1650623422.002164,2254.000000,1650623422.001954,0.000000,0.000000,1.000000,0.000000,0.000000,0.000000,0.000000,1.448007,18.430097,1.416789
1650623422.102548,2255.000000,1650623422.102337,0.000000,0.000000,1.000000,0.000000,0.000000,0.000000,0.000000,1.447857,18.428342,1.394273
1650623422.202208,2256.000000,1650623422.202011,0.000000,0.000000,1.000000,0.000000,0.000000,0.000000,0.000000,1.450169,18.426663,1.390886
1650623422.302154,2257.000000,1650623422.301944,0.000000,0.000000,1.000000,0.000000,0.000000,0.000000,0.000000,1.453696,18.425062,1.378458
1650623422.402180,2258.000000,1650623422.401942,0.000000,0.000000,1.000000,0.000000,0.000000,0.000000,0.000000,1.452894,18.423540,1.357387
1650623422.502468,2259.000000,1650623422.502151,0.000000,0.000000,1.000000,0.000000,0.000000,0.000000,0.000000,1.463254,18.419919,1.299842
1650623422.602207,2260.000000,1650623422.601944,0.000000,0.000000,1.000000,0.000000,0.000000,0.000000,0.000000,1.486304,18.415414,1.200949
1650623422.702294,2261.000000,1650623422.702070,0.000000,0.000000,1.000000,0.000000,0.000000,0.000000,0.000000,1.527812,18.408996,1.083515
1650623422.802271,2262.000000,1650623422.802005,0.000000,0.000000,1.000000,0.000000,0.000000,0.000000,0.000000,1.556106,18.405151,1.001710
1650623422.902203,2263.000000,1650623422.902015,0.000000,0.000000,1.000000,0.000000,0.000000,0.000000,0.000000,1.577273,18.402657,0.953420
1650623423.002348,2264.000000,1650623423.002136,0.000000,0.000000,1.000000,0.000000,0.000000,0.000000,0.000000,1.590550,18.401446,0.931715
1650623423.102199,2265.000000,1650623423.102014,0.000000,0.000000,1.000000,0.000000,0.000000,0.000000,0.000000,1.594156,18.401448,0.921025
1650623423.202180,2266.000000,1650623423.202002,0.000000,0.000000,1.000000,0.000000,0.000000,0.000000,0.000000,1.592981,18.400413,0.931389
1650623423.302419,2267.000000,1650623423.302122,0.000000,0.000000,1.000000,0.000000,0.000000,0.000000,0.000000,1.596026,18.400579,0.926437
1650623423.402262,2268.000000,1650623423.402043,0.000000,0.000000,1.000000,0.000000,0.000000,0.000000,0.000000,1.591068,18.401877,0.923713
1650623423.502210,2269.000000,1650623423.501992,0.000000,0.000000,1.000000,0.000000,0.000000,0.000000,0.000000,1.584022,18.403147,0.936017
1650623423.602168,2270.000000,1650623423.601966,0.000000,0.000000,1.000000,0.000000,0.000000,0.000000,0.000000,1.577216,18.403294,0.960287
1650623423.702228,2271.000000,1650623423.702055,0.000000,0.000000,1.000000,0.000000,0.000000,0.000000,0.000000,1.576118,18.403467,0.994371
1650623423.802202,2272.000000,1650623423.802016,0.000000,0.000000,1.000000,0.000000,0.000000,0.000000,0.000000,1.573885,18.403663,1.032157
1650623423.902163,2273.000000,1650623423.901971,0.000000,0.000000,1.000000,0.000000,0.000000,0.000000,0.000000,1.572773,18.404967,1.062939
1650623424.002141,2274.000000,1650623424.001939,0.000000,0.000000,1.000000,0.000000,0.000000,0.000000,0.000000,1.568368,18.408405,1.082906
1650623424.102369,2275.000000,1650623424.102105,0.000000,0.000000,1.000000,0.000000,0.000000,0.000000,0.000000,1.561958,18.411667,1.109393
1650623424.202534,2276.000000,1650623424.202293,0.000000,0.000000,1.000000,0.000000,0.000000,0.000000,0.000000,1.554766,18.414751,1.140476
1650623424.302599,2277.000000,1650623424.302376,0.000000,0.000000,1.000000,0.000000,0.000000,0.000000,0.000000,1.551222,18.416567,1.173497
1650623424.402570,2278.000000,1650623424.402339,0.000000,0.000000,1.000000,0.000000,0.000000,0.000000,0.000000,1.545688,18.418270,1.186549
1650623424.502583,2279.000000,1650623424.502356,0.000000,0.000000,1.000000,0.000000,0.000000,0.000000,0.000000,1.540469,18.418771,1.177999
1650623424.602623,2280.000000,1650623424.602401,0.000000,0.000000,1.000000,0.000000,0.000000,0.000000,0.000000,1.536655,18.415954,1.181801
1650623424.702630,2281.000000,1650623424.702347,0.000000,0.000000,1.000000,0.000000,0.000000,0.000000,0.000000,1.534180,18.414371,1.196649
1650623424.802617,2282.000000,1650623424.802330,0.000000,0.000000,1.000000,0.000000,0.000000,0.000000,0.000000,1.530795,18.412870,1.221269
1650623424.902896,2283.000000,1650623424.902472,0.000000,0.000000,1.000000,0.000000,0.000000,0.000000,0.000000,1.523287,18.413632,1.238295
1650623425.002665,2284.000000,1650623425.002373,0.000000,0.000000,1.000000,0.000000,0.000000,0.000000,0.000000,1.515171,18.413261,1.243172
1650623425.102639,2285.000000,1650623425.102350,0.000000,0.000000,1.000000,0.000000,0.000000,0.000000,0.000000,1.507594,18.412910,1.257357
1650623425.202559,2286.000000,1650623425.202327,0.000000,0.000000,1.000000,0.000000,0.000000,0.000000,0.000000,1.498362,18.412579,1.278843
1650623425.302613,2287.000000,1650623425.302368,0.000000,0.000000,1.000000,0.000000,0.000000,0.000000,0.000000,1.488679,18.413359,1.299246
1650623425.402568,2288.000000,1650623425.402337,0.000000,0.000000,1.000000,0.000000,0.000000,0.000000,0.000000,1.479683,18.414095,1.321000
1650623425.502578,2289.000000,1650623425.502369,0.000000,0.000000,1.000000,0.000000,0.000000,0.000000,0.000000,1.472446,18.413697,1.350479
1650623425.602623,2290.000000,1650623425.602342,0.000000,0.000000,1.000000,0.000000,0.000000,0.000000,0.000000,1.469064,18.413320,1.381685
1650623425.702802,2291.000000,1650623425.702435,0.000000,0.000000,1.000000,0.000000,0.000000,0.000000,0.000000,1.469329,18.412963,1.412091
1650623425.803043,2292.000000,1650623425.802817,0.000000,0.000000,1.000000,0.000000,0.000000,0.000000,0.000000,1.468667,18.413716,1.438466
1650623425.902201,2293.000000,1650623425.901953,0.000000,0.000000,1.000000,0.000000,0.000000,0.000000,0.000000,1.467121,18.414427,1.460138
1650623426.002157,2294.000000,1650623426.001975,0.000000,0.000000,1.000000,0.000000,0.000000,0.000000,0.000000,1.459283,18.416186,1.477276
1650623426.102250,2295.000000,1650623426.102033,0.000000,0.000000,1.000000,0.000000,0.000000,0.000000,0.000000,1.449871,18.417840,1.494891
1650623426.202264,2296.000000,1650623426.202074,0.000000,0.000000,1.000000,0.000000,0.000000,0.000000,0.000000,1.440081,18.419390,1.517792
1650623426.302249,2297.000000,1650623426.302059,0.000000,0.000000,1.000000,0.000000,0.000000,0.000000,0.000000,1.433224,18.420838,1.536875
1650623426.402282,2298.000000,1650623426.402074,0.000000,0.000000,1.000000,0.000000,0.000000,0.000000,0.000000,1.431331,18.422186,1.560346
1650623426.502312,2299.000000,1650623426.502092,0.000000,0.000000,1.000000,0.000000,0.000000,0.000000,0.000000,1.425400,18.423436,1.576719
1650623426.602398,2300.000000,1650623426.602196,0.000000,0.000000,1.000000,0.000000,0.000000,0.000000,0.000000,1.422199,18.424591,1.597563
1650623426.702309,2301.000000,1650623426.702061,0.000000,0.000000,1.000000,0.000000,0.000000,0.000000,0.000000,1.417216,18.425654,1.600104
1650623426.802202,2302.000000,1650623426.801989,0.000000,0.000000,1.000000,0.000000,0.000000,0.000000,0.000000,1.432357,18.424448,1.533484
1650623426.902262,2303.000000,1650623426.902071,0.000000,0.000000,1.000000,0.000000,0.000000,0.000000,0.000000,1.449021,18.422191,1.469980
1650623427.002457,2304.000000,1650623427.002270,0.000000,0.000000,1.000000,0.000000,0.000000,0.000000,0.000000,1.460519,18.421132,1.434591
1650623427.102577,2305.000000,1650623427.102413,0.000000,0.000000,1.000000,0.000000,0.000000,0.000000,0.000000,1.491079,18.417937,1.342382
1650623427.202242,2306.000000,1650623427.202037,0.000000,0.000000,1.000000,0.000000,0.000000,0.000000,0.000000,1.513393,18.414915,1.258711
1650623427.302324,2307.000000,1650623427.302095,0.000000,0.000000,1.000000,0.000000,0.000000,0.000000,0.000000,1.527844,18.414247,1.200312
1650623427.402459,2308.000000,1650623427.402193,0.000000,0.000000,1.000000,0.000000,0.000000,0.000000,0.000000,1.537000,18.413624,1.140454
1650623427.502309,2309.000000,1650623427.502068,0.000000,0.000000,1.000000,0.000000,0.000000,0.000000,0.000000,1.537859,18.413047,1.111545
1650623427.602295,2310.000000,1650623427.602054,0.000000,0.000000,1.000000,0.000000,0.000000,0.000000,0.000000,1.537421,18.412513,1.099472
1650623427.702156,2311.000000,1650623427.701982,0.000000,0.000000,1.000000,0.000000,0.000000,0.000000,0.000000,1.540130,18.412022,1.071303
1650623427.802263,2312.000000,1650623427.802043,0.000000,0.000000,1.000000,0.000000,0.000000,0.000000,0.000000,1.536000,18.412662,1.057558
1650623427.902215,2313.000000,1650623427.902054,0.000000,0.000000,1.000000,0.000000,0.000000,0.000000,0.000000,1.559228,18.410007,1.005245
1650623428.002198,2314.000000,1650623428.002020,0.000000,0.000000,1.000000,0.000000,0.000000,0.000000,0.000000,1.575546,18.408607,0.975667
1650623428.102359,2315.000000,1650623428.102153,0.000000,0.000000,1.000000,0.000000,0.000000,0.000000,0.000000,1.592922,18.407304,0.954228
1650623428.202664,2316.000000,1650623428.202427,0.000000,0.000000,1.000000,0.000000,0.000000,0.000000,0.000000,1.605806,18.407189,0.944649
1650623428.302230,2317.000000,1650623428.302032,0.000000,0.000000,1.000000,0.000000,0.000000,0.000000,0.000000,1.612238,18.408194,0.933543
1650623428.402263,2318.000000,1650623428.402076,0.000000,0.000000,1.000000,0.000000,0.000000,0.000000,0.000000,1.612565,18.409163,0.933873
1650623428.502254,2319.000000,1650623428.502056,0.000000,0.000000,1.000000,0.000000,0.000000,0.000000,0.000000,1.611499,18.410095,0.942736
1650623428.602303,2320.000000,1650623428.602117,0.000000,0.000000,1.000000,0.000000,0.000000,0.000000,0.000000,1.606953,18.412078,0.958946
1650623428.702291,2321.000000,1650623428.702108,0.000000,0.000000,1.000000,0.000000,0.000000,0.000000,0.000000,1.602419,18.412868,0.986194
1650623428.802643,2322.000000,1650623428.802394,0.000000,0.000000,1.000000,0.000000,0.000000,0.000000,0.000000,1.594652,18.413616,1.021552
1650623428.902226,2323.000000,1650623428.902038,0.000000,0.000000,1.000000,0.000000,0.000000,0.000000,0.000000,1.588227,18.414323,1.058975
1650623429.002192,2324.000000,1650623429.001972,0.000000,0.000000,1.000000,0.000000,0.000000,0.000000,0.000000,1.584191,18.413898,1.086206
1650623429.102211,2325.000000,1650623429.101977,0.000000,0.000000,1.000000,0.000000,0.000000,0.000000,0.000000,1.574802,18.413494,1.111669
1650623429.202213,2326.000000,1650623429.201982,0.000000,0.000000,1.000000,0.000000,0.000000,0.000000,0.000000,1.564750,18.415294,1.133772
1650623429.302219,2327.000000,1650623429.302000,0.000000,0.000000,1.000000,0.000000,0.000000,0.000000,0.000000,1.551927,18.416990,1.161480
1650623429.402284,2328.000000,1650623429.402090,0.000000,0.000000,1.000000,0.000000,0.000000,0.000000,0.000000,1.536526,18.419673,1.184035
1650623429.502357,2329.000000,1650623429.502139,0.000000,0.000000,1.000000,0.000000,0.000000,0.000000,0.000000,1.522009,18.422192,1.209671
1650623429.602315,2330.000000,1650623429.602089,0.000000,0.000000,1.000000,0.000000,0.000000,0.000000,0.000000,1.512731,18.423457,1.238222
1650623429.702348,2331.000000,1650623429.702107,0.000000,0.000000,1.000000,0.000000,0.000000,0.000000,0.000000,1.500799,18.424626,1.238881
1650623429.802362,2332.000000,1650623429.802006,0.000000,0.000000,1.000000,0.000000,0.000000,0.000000,0.000000,1.489659,18.424611,1.249873
1650623429.902211,2333.000000,1650623429.902027,0.000000,0.000000,1.000000,0.000000,0.000000,0.000000,0.000000,1.478206,18.423478,1.250606
1650623430.002247,2334.000000,1650623430.002059,0.000000,0.000000,1.000000,0.000000,0.000000,0.000000,0.000000,1.466481,18.422384,1.259241
1650623430.102217,2335.000000,1650623430.102034,0.000000,0.000000,1.000000,0.000000,0.000000,0.000000,0.000000,1.461069,18.421331,1.272224
1650623430.202228,2336.000000,1650623430.202053,0.000000,0.000000,1.000000,0.000000,0.000000,0.000000,0.000000,1.458358,18.420321,1.291784
1650623430.302255,2337.000000,1650623430.302088,0.000000,0.000000,1.000000,0.000000,0.000000,0.000000,0.000000,1.457106,18.420448,1.299887
1650623430.402197,2338.000000,1650623430.402030,0.000000,0.000000,1.000000,0.000000,0.000000,0.000000,0.000000,1.458316,18.420557,1.298601
