__time,/dwm1001/id_458E/pose_kf/header/seq,/dwm1001/id_458E/pose_kf/header/stamp,/dwm1001/id_458E/pose_kf/pose/orientation/pitch_deg,/dwm1001/id_458E/pose_kf/pose/orientation/roll_deg,/dwm1001/id_458E/pose_kf/pose/orientation/w,/dwm1001/id_458E/pose_kf/pose/orientation/x,/dwm1001/id_458E/pose_kf/pose/orientation/y,/dwm1001/id_458E/pose_kf/pose/orientation/yaw_deg,/dwm1001/id_458E/pose_kf/pose/orientation/z,/dwm1001/id_458E/pose_kf/pose/position/x,/dwm1001/id_458E/pose_kf/pose/position/y,/dwm1001/id_458E/pose_kf/pose/position/z
1650625043.306671,1203.000000,1650625043.306467,0.000000,0.000000,1.000000,0.000000,0.000000,0.000000,0.000000,3.395196,4.870171,-0.833821
1650625043.406357,1204.000000,1650625043.406173,0.000000,0.000000,1.000000,0.000000,0.000000,0.000000,0.000000,3.393077,4.870686,-0.832507
1650625043.506273,1205.000000,1650625043.506097,0.000000,0.000000,1.000000,0.000000,0.000000,0.000000,0.000000,3.391044,4.870050,-0.839254
1650625043.606352,1206.000000,1650625043.606183,0.000000,0.000000,1.000000,0.000000,0.000000,0.000000,0.000000,3.391281,4.869420,-0.848889
1650625043.706399,1207.000000,1650625043.706188,0.000000,0.000000,1.000000,0.000000,0.000000,0.000000,0.000000,3.392575,4.868800,-0.863701
1650625043.806225,1208.000000,1650625043.806056,0.000000,0.000000,1.000000,0.000000,0.000000,0.000000,0.000000,3.391593,4.869282,-0.869749
1650625043.906230,1209.000000,1650625043.906078,0.000000,0.000000,1.000000,0.000000,0.000000,0.000000,0.000000,3.390646,4.869717,-0.881091
1650625044.006339,1210.000000,1650625044.006154,0.000000,0.000000,1.000000,0.000000,0.000000,0.000000,0.000000,3.388644,4.869015,-0.882983
1650625044.106343,1211.000000,1650625044.106116,0.000000,0.000000,1.000000,0.000000,0.000000,0.000000,0.000000,3.388924,4.867243,-0.892743
1650625044.206357,1212.000000,1650625044.206159,0.000000,0.000000,1.000000,0.000000,0.000000,0.000000,0.000000,3.388090,4.866646,-0.899559
1650625044.306330,1213.000000,1650625044.306144,0.000000,0.000000,1.000000,0.000000,0.000000,0.000000,0.000000,3.386206,4.864981,-0.912413
1650625044.406342,1214.000000,1650625044.406150,0.000000,0.000000,1.000000,0.000000,0.000000,0.000000,0.000000,3.384425,4.864495,-0.928628
1650625044.506390,1215.000000,1650625044.506160,0.000000,0.000000,1.000000,0.000000,0.000000,0.000000,0.000000,3.381657,4.864033,-0.945627
1650625044.606326,1216.000000,1650625044.606098,0.000000,0.000000,1.000000,0.000000,0.000000,0.000000,0.000000,3.377964,4.864686,-0.957713
1650625044.706334,1217.000000,1650625044.706122,0.000000,0.000000,1.000000,0.000000,0.000000,0.000000,0.000000,3.376679,4.865302,-0.953780
1650625044.806288,1218.000000,1650625044.806111,0.000000,0.000000,1.000000,0.000000,0.000000,0.000000,0.000000,3.375492,4.866971,-0.934490
1650625044.906288,1219.000000,1650625044.906112,0.000000,0.000000,1.000000,0.000000,0.000000,0.000000,0.000000,3.373309,4.868539,-0.927115
1650625045.006240,1220.000000,1650625045.006070,0.000000,0.000000,1.000000,0.000000,0.000000,0.000000,0.000000,3.373461,4.868918,-0.927969
1650625045.106266,1221.000000,1650625045.106103,0.000000,0.000000,1.000000,0.000000,0.000000,0.000000,0.000000,3.372548,4.870353,-0.928659
1650625045.206264,1222.000000,1650625045.206091,0.000000,0.000000,1.000000,0.000000,0.000000,0.000000,0.000000,3.372808,4.871693,-0.935648
1650625045.306329,1223.000000,1650625045.306119,0.000000,0.000000,1.000000,0.000000,0.000000,0.000000,0.000000,3.373086,4.872938,-0.943030
1650625045.406220,1224.000000,1650625045.406061,0.000000,0.000000,1.000000,0.000000,0.000000,0.000000,0.000000,3.374467,4.873002,-0.945138
1650625045.506219,1225.000000,1650625045.506052,0.000000,0.000000,1.000000,0.000000,0.000000,0.000000,0.000000,3.373614,4.870859,-0.943798
1650625045.606265,1226.000000,1650625045.606078,0.000000,0.000000,1.000000,0.000000,0.000000,0.000000,0.000000,3.373922,4.867728,-0.947222
1650625045.706230,1227.000000,1650625045.706015,0.000000,0.000000,1.000000,0.000000,0.000000,0.000000,0.000000,3.374235,4.863674,-0.949574
1650625045.806258,1228.000000,1650625045.806034,0.000000,0.000000,1.000000,0.000000,0.000000,0.000000,0.000000,3.374549,4.858760,-0.954122
1650625045.906285,1229.000000,1650625045.906094,0.000000,0.000000,1.000000,0.000000,0.000000,0.000000,0.000000,3.374864,4.853047,-0.959165
1650625046.006274,1230.000000,1650625046.006086,0.000000,0.000000,1.000000,0.000000,0.000000,0.000000,0.000000,3.376267,4.849867,-0.960645
1650625046.106395,1231.000000,1650625046.106179,0.000000,0.000000,1.000000,0.000000,0.000000,0.000000,0.000000,3.377604,4.845818,-0.960323
1650625046.206211,1232.000000,1650625046.206012,0.000000,0.000000,1.000000,0.000000,0.000000,0.000000,0.000000,3.376692,4.842048,-0.962310
1650625046.306607,1233.000000,1650625046.306381,0.000000,0.000000,1.000000,0.000000,0.000000,0.000000,0.000000,3.373657,4.839641,-0.960062
1650625046.406679,1234.000000,1650625046.406414,0.000000,0.000000,1.000000,0.000000,0.000000,0.000000,0.000000,3.371894,4.838526,-0.945695
1650625046.506693,1235.000000,1650625046.506427,0.000000,0.000000,1.000000,0.000000,0.000000,0.000000,0.000000,3.369158,4.838632,-0.923759
1650625046.606700,1236.000000,1650625046.606425,0.000000,0.000000,1.000000,0.000000,0.000000,0.000000,0.000000,3.367690,4.839889,-0.905890
1650625046.706651,1237.000000,1650625046.706381,0.000000,0.000000,1.000000,0.000000,0.000000,0.000000,0.000000,3.367425,4.842226,-0.895988
1650625046.806649,1238.000000,1650625046.806404,0.000000,0.000000,1.000000,0.000000,0.000000,0.000000,0.000000,3.366114,4.844482,-0.892137
1650625046.906758,1239.000000,1650625046.906500,0.000000,0.000000,1.000000,0.000000,0.000000,0.000000,0.000000,3.367088,4.845563,-0.894905
1650625047.006662,1240.000000,1650625047.006417,0.000000,0.000000,1.000000,0.000000,0.000000,0.000000,0.000000,3.368037,4.846617,-0.903214
1650625047.106512,1241.000000,1650625047.106318,0.000000,0.000000,1.000000,0.000000,0.000000,0.000000,0.000000,3.367868,4.848730,-0.891019
1650625047.206477,1242.000000,1650625047.206315,0.000000,0.000000,1.000000,0.000000,0.000000,0.000000,0.000000,3.368821,4.849657,-0.887395
1650625047.306547,1243.000000,1650625047.306372,0.000000,0.000000,1.000000,0.000000,0.000000,0.000000,0.000000,3.371921,4.848366,-0.888774
1650625047.406664,1244.000000,1650625047.406452,0.000000,0.000000,1.000000,0.000000,0.000000,0.000000,0.000000,3.373770,4.848254,-0.873986
1650625047.506265,1245.000000,1650625047.506117,0.000000,0.000000,1.000000,0.000000,0.000000,0.000000,0.000000,3.375519,4.849256,-0.849350
1650625047.606259,1246.000000,1650625047.606094,0.000000,0.000000,1.000000,0.000000,0.000000,0.000000,0.000000,3.376078,4.848036,-0.838691
1650625047.706335,1247.000000,1650625047.706152,0.000000,0.000000,1.000000,0.000000,0.000000,0.000000,0.000000,3.376601,4.846897,-0.817267
1650625047.806198,1248.000000,1650625047.805990,0.000000,0.000000,1.000000,0.000000,0.000000,0.000000,0.000000,3.374907,4.844750,-0.803286
1650625047.906215,1249.000000,1650625047.906044,0.000000,0.000000,1.000000,0.000000,0.000000,0.000000,0.000000,3.373304,4.844924,-0.790014
1650625048.006242,1250.000000,1650625048.006061,0.000000,0.000000,1.000000,0.000000,0.000000,0.000000,0.000000,3.371793,4.846202,-0.771794
1650625048.106241,1251.000000,1650625048.106030,0.000000,0.000000,1.000000,0.000000,0.000000,0.000000,0.000000,3.371462,4.846336,-0.769012
1650625048.206287,1252.000000,1650625048.206109,0.000000,0.000000,1.000000,0.000000,0.000000,0.000000,0.000000,3.368977,4.846480,-0.774589
1650625048.306724,1253.000000,1650625048.306510,0.000000,0.000000,1.000000,0.000000,0.000000,0.000000,0.000000,3.367735,4.846629,-0.786560
1650625048.406284,1254.000000,1650625048.406096,0.000000,0.000000,1.000000,0.000000,0.000000,0.000000,0.000000,3.365488,4.846784,-0.786090
1650625048.506279,1255.000000,1650625048.506091,0.000000,0.000000,1.000000,0.000000,0.000000,0.000000,0.000000,3.368841,4.843671,-0.748676
1650625048.606378,1256.000000,1650625048.606193,0.000000,0.000000,1.000000,0.000000,0.000000,0.000000,0.000000,3.372025,4.841838,-0.727478
1650625048.706310,1257.000000,1650625048.706131,0.000000,0.000000,1.000000,0.000000,0.000000,0.000000,0.000000,3.390303,4.843402,-0.717032
1650625048.806597,1258.000000,1650625048.806382,0.000000,0.000000,1.000000,0.000000,0.000000,0.000000,0.000000,3.402078,4.845991,-0.697557
1650625048.906654,1259.000000,1650625048.906427,0.000000,0.000000,1.000000,0.000000,0.000000,0.000000,0.000000,3.409851,4.849539,-0.675893
1650625049.006674,1260.000000,1650625049.006398,0.000000,0.000000,1.000000,0.000000,0.000000,0.000000,0.000000,3.416002,4.852891,-0.659412
1650625049.106325,1261.000000,1650625049.106126,0.000000,0.000000,1.000000,0.000000,0.000000,0.000000,0.000000,3.420605,4.856049,-0.655986
1650625049.206244,1262.000000,1650625049.206082,0.000000,0.000000,1.000000,0.000000,0.000000,0.000000,0.000000,3.423739,4.859013,-0.657824
1650625049.306357,1263.000000,1650625049.306178,0.000000,0.000000,1.000000,0.000000,0.000000,0.000000,0.000000,3.425479,4.861785,-0.653409
1650625049.406296,1264.000000,1650625049.406091,0.000000,0.000000,1.000000,0.000000,0.000000,0.000000,0.000000,3.428086,4.862190,-0.651052
1650625049.506155,1265.000000,1650625049.506019,0.000000,0.000000,1.000000,0.000000,0.000000,0.000000,0.000000,3.430421,4.863627,-0.657923
1650625049.606225,1266.000000,1650625049.606054,0.000000,0.000000,1.000000,0.000000,0.000000,0.000000,0.000000,3.432498,4.863857,-0.667175
1650625049.706269,1267.000000,1650625049.706055,0.000000,0.000000,1.000000,0.000000,0.000000,0.000000,0.000000,3.434333,4.864037,-0.665782
1650625049.806440,1268.000000,1650625049.806268,0.000000,0.000000,1.000000,0.000000,0.000000,0.000000,0.000000,3.439212,4.860901,-0.623522
1650625049.906275,1269.000000,1650625049.906043,0.000000,0.000000,1.000000,0.000000,0.000000,0.000000,0.000000,3.439329,4.860094,-0.595332
1650625050.006230,1270.000000,1650625050.006030,0.000000,0.000000,1.000000,0.000000,0.000000,0.000000,0.000000,3.438220,4.859311,-0.572616
1650625050.106275,1271.000000,1650625050.106108,0.000000,0.000000,1.000000,0.000000,0.000000,0.000000,0.000000,3.435964,4.859645,-0.551146
1650625050.206201,1272.000000,1650625050.206040,0.000000,0.000000,1.000000,0.000000,0.000000,0.000000,0.000000,3.431548,4.858855,-0.542186
1650625050.306219,1273.000000,1650625050.306046,0.000000,0.000000,1.000000,0.000000,0.000000,0.000000,0.000000,3.426198,4.857005,-0.540393
1650625050.406135,1274.000000,1650625050.406016,0.000000,0.000000,1.000000,0.000000,0.000000,0.000000,0.000000,3.421078,4.856340,-0.531756
1650625050.506222,1275.000000,1650625050.506077,0.000000,0.000000,1.000000,0.000000,0.000000,0.000000,0.000000,3.415104,4.855707,-0.534293
1650625050.606285,1276.000000,1650625050.606134,0.000000,0.000000,1.000000,0.000000,0.000000,0.000000,0.000000,3.410525,4.855108,-0.532213
1650625050.706248,1277.000000,1650625050.706076,0.000000,0.000000,1.000000,0.000000,0.000000,0.000000,0.000000,3.406191,4.854541,-0.541015
1650625050.806243,1278.000000,1650625050.806099,0.000000,0.000000,1.000000,0.000000,0.000000,0.000000,0.000000,3.402101,4.854008,-0.555393
1650625050.906456,1279.000000,1650625050.906302,0.000000,0.000000,1.000000,0.000000,0.000000,0.000000,0.000000,3.403708,4.851327,-0.533956
1650625051.006295,1280.000000,1650625051.006105,0.000000,0.000000,1.000000,0.000000,0.000000,0.000000,0.000000,3.403061,4.852076,-0.529788
1650625051.106237,1281.000000,1650625051.106074,0.000000,0.000000,1.000000,0.000000,0.000000,0.000000,0.000000,3.402465,4.853883,-0.537349
1650625051.205697,1282.000000,1650625051.205511,0.000000,0.000000,1.000000,0.000000,0.000000,0.000000,0.000000,3.401918,4.855594,-0.544851
1650625051.306251,1283.000000,1650625051.306099,0.000000,0.000000,1.000000,0.000000,0.000000,0.000000,0.000000,3.399239,4.858300,-0.513564
1650625051.406234,1284.000000,1650625051.406085,0.000000,0.000000,1.000000,0.000000,0.000000,0.000000,0.000000,3.395640,4.860847,-0.499934
1650625051.506446,1285.000000,1650625051.506253,0.000000,0.000000,1.000000,0.000000,0.000000,0.000000,0.000000,3.391182,4.863237,-0.500036
1650625051.606310,1286.000000,1650625051.606098,0.000000,0.000000,1.000000,0.000000,0.000000,0.000000,0.000000,3.388104,4.864382,-0.494756
1650625051.706308,1287.000000,1650625051.706132,0.000000,0.000000,1.000000,0.000000,0.000000,0.000000,0.000000,3.384157,4.865437,-0.502856
1650625051.806247,1288.000000,1650625051.806041,0.000000,0.000000,1.000000,0.000000,0.000000,0.000000,0.000000,3.383760,4.865315,-0.522160
1650625051.906285,1289.000000,1650625051.906073,0.000000,0.000000,1.000000,0.000000,0.000000,0.000000,0.000000,3.380174,4.864083,-0.540077
1650625052.006260,1290.000000,1650625052.006082,0.000000,0.000000,1.000000,0.000000,0.000000,0.000000,0.000000,3.377943,4.863987,-0.550171
1650625052.106266,1291.000000,1650625052.106081,0.000000,0.000000,1.000000,0.000000,0.000000,0.000000,0.000000,3.375905,4.863876,-0.557574
1650625052.206290,1292.000000,1650625052.206101,0.000000,0.000000,1.000000,0.000000,0.000000,0.000000,0.000000,3.374052,4.864844,-0.555925
1650625052.305654,1293.000000,1650625052.305489,0.000000,0.000000,1.000000,0.000000,0.000000,0.000000,0.000000,3.372376,4.865738,-0.554455
1650625052.406610,1294.000000,1650625052.406373,0.000000,0.000000,1.000000,0.000000,0.000000,0.000000,0.000000,3.367596,4.867652,-0.516867
1650625052.506024,1295.000000,1650625052.505800,0.000000,0.000000,1.000000,0.000000,0.000000,0.000000,0.000000,3.363164,4.869435,-0.480964
1650625052.605732,1296.000000,1650625052.605554,0.000000,0.000000,1.000000,0.000000,0.000000,0.000000,0.000000,3.359069,4.871090,-0.446734
1650625052.706158,1297.000000,1650625052.705943,0.000000,0.000000,1.000000,0.000000,0.000000,0.000000,0.000000,3.355301,4.873711,-0.402059
1650625052.806302,1298.000000,1650625052.806066,0.000000,0.000000,1.000000,0.000000,0.000000,0.000000,0.000000,3.351847,4.866336,-0.398232
1650625052.905989,1299.000000,1650625052.905813,0.000000,0.000000,1.000000,0.000000,0.000000,0.000000,0.000000,3.347605,4.860437,-0.399729
1650625053.005947,1300.000000,1650625053.005789,0.000000,0.000000,1.000000,0.000000,0.000000,0.000000,0.000000,3.344805,4.855955,-0.403091
1650625053.105997,1301.000000,1650625053.105833,0.000000,0.000000,1.000000,0.000000,0.000000,0.000000,0.000000,3.343371,4.851735,-0.408225
1650625053.205989,1302.000000,1650625053.205750,0.000000,0.000000,1.000000,0.000000,0.000000,0.000000,0.000000,3.341044,4.848866,-0.414232
1650625053.306348,1303.000000,1650625053.306132,0.000000,0.000000,1.000000,0.000000,0.000000,0.000000,0.000000,3.341146,4.847282,-0.430733
1650625053.406009,1304.000000,1650625053.405803,0.000000,0.000000,1.000000,0.000000,0.000000,0.000000,0.000000,3.343535,4.845824,-0.440330
1650625053.505985,1305.000000,1650625053.505790,0.000000,0.000000,1.000000,0.000000,0.000000,0.000000,0.000000,3.345894,4.843398,-0.462632
1650625053.606106,1306.000000,1650625053.605891,0.000000,0.000000,1.000000,0.000000,0.000000,0.000000,0.000000,3.347119,4.840062,-0.488210
1650625053.706018,1307.000000,1650625053.705804,0.000000,0.000000,1.000000,0.000000,0.000000,0.000000,0.000000,3.347265,4.835874,-0.518495
1650625053.806011,1308.000000,1650625053.805815,0.000000,0.000000,1.000000,0.000000,0.000000,0.000000,0.000000,3.348565,4.831979,-0.549209
1650625053.906014,1309.000000,1650625053.905825,0.000000,0.000000,1.000000,0.000000,0.000000,0.000000,0.000000,3.350949,4.829461,-0.571412
1650625054.006159,1310.000000,1650625054.005957,0.000000,0.000000,1.000000,0.000000,0.000000,0.000000,0.000000,3.352165,4.827158,-0.595086
1650625054.105981,1311.000000,1650625054.105801,0.000000,0.000000,1.000000,0.000000,0.000000,0.000000,0.000000,3.353361,4.826151,-0.621748
1650625054.205940,1312.000000,1650625054.205760,0.000000,0.000000,1.000000,0.000000,0.000000,0.000000,0.000000,3.355621,4.825278,-0.640751
1650625054.305999,1313.000000,1650625054.305835,0.000000,0.000000,1.000000,0.000000,0.000000,0.000000,0.000000,3.355608,4.824531,-0.658829
1650625054.405284,1314.000000,1650625054.405125,0.000000,0.000000,1.000000,0.000000,0.000000,0.000000,0.000000,3.355624,4.823899,-0.675995
1650625054.506000,1315.000000,1650625054.505836,0.000000,0.000000,1.000000,0.000000,0.000000,0.000000,0.000000,3.357846,4.825555,-0.664846
1650625054.606349,1316.000000,1650625054.606157,0.000000,0.000000,1.000000,0.000000,0.000000,0.000000,0.000000,3.357785,4.827185,-0.670099
1650625054.706355,1317.000000,1650625054.706167,0.000000,0.000000,1.000000,0.000000,0.000000,0.000000,0.000000,3.359925,4.828780,-0.683832
1650625054.806378,1318.000000,1650625054.806147,0.000000,0.000000,1.000000,0.000000,0.000000,0.000000,0.000000,3.360868,4.830335,-0.704076
1650625054.906404,1319.000000,1650625054.906194,0.000000,0.000000,1.000000,0.000000,0.000000,0.000000,0.000000,3.360675,4.831844,-0.729735
1650625055.006284,1320.000000,1650625055.006072,0.000000,0.000000,1.000000,0.000000,0.000000,0.000000,0.000000,3.360498,4.833303,-0.758138
1650625055.106307,1321.000000,1650625055.106081,0.000000,0.000000,1.000000,0.000000,0.000000,0.000000,0.000000,3.360338,4.835798,-0.782685
1650625055.206283,1322.000000,1650625055.206087,0.000000,0.000000,1.000000,0.000000,0.000000,0.000000,0.000000,3.359103,4.837083,-0.802695
1650625055.306398,1323.000000,1650625055.306167,0.000000,0.000000,1.000000,0.000000,0.000000,0.000000,0.000000,3.356855,4.839400,-0.823977
1650625055.406350,1324.000000,1650625055.406169,0.000000,0.000000,1.000000,0.000000,0.000000,0.000000,0.000000,3.356926,4.842684,-0.844037
1650625055.506392,1325.000000,1650625055.506210,0.000000,0.000000,1.000000,0.000000,0.000000,0.000000,0.000000,3.358100,4.845782,-0.850003
1650625055.606342,1326.000000,1650625055.606142,0.000000,0.000000,1.000000,0.000000,0.000000,0.000000,0.000000,3.358130,4.849785,-0.857771
1650625055.706520,1327.000000,1650625055.706248,0.000000,0.000000,1.000000,0.000000,0.000000,0.000000,0.000000,3.357078,4.855722,-0.862434
1650625055.806397,1328.000000,1650625055.806184,0.000000,0.000000,1.000000,0.000000,0.000000,0.000000,0.000000,3.357187,4.859110,-0.872995
1650625055.906264,1329.000000,1650625055.906079,0.000000,0.000000,1.000000,0.000000,0.000000,0.000000,0.000000,3.358392,4.863350,-0.883567
1650625056.006403,1330.000000,1650625056.006200,0.000000,0.000000,1.000000,0.000000,0.000000,0.000000,0.000000,3.357358,4.865115,-0.888505
1650625056.106320,1331.000000,1650625056.106154,0.000000,0.000000,1.000000,0.000000,0.000000,0.000000,0.000000,3.360752,4.867808,-0.898524
1650625056.206340,1332.000000,1650625056.206157,0.000000,0.000000,1.000000,0.000000,0.000000,0.000000,0.000000,3.370502,4.867013,-0.862614
1650625056.306402,1333.000000,1650625056.306218,0.000000,0.000000,1.000000,0.000000,0.000000,0.000000,0.000000,3.377508,4.867289,-0.825442
1650625056.406371,1334.000000,1650625056.406142,0.000000,0.000000,1.000000,0.000000,0.000000,0.000000,0.000000,3.381900,4.867488,-0.792780
1650625056.506342,1335.000000,1650625056.506079,0.000000,0.000000,1.000000,0.000000,0.000000,0.000000,0.000000,3.381629,4.869799,-0.767737
1650625056.606260,1336.000000,1650625056.606007,0.000000,0.000000,1.000000,0.000000,0.000000,0.000000,0.000000,3.381314,4.873013,-0.750860
1650625056.706243,1337.000000,1650625056.706013,0.000000,0.000000,1.000000,0.000000,0.000000,0.000000,0.000000,3.378781,4.875984,-0.737016
1650625056.806292,1338.000000,1650625056.806032,0.000000,0.000000,1.000000,0.000000,0.000000,0.000000,0.000000,3.376343,4.878718,-0.732558
1650625056.906389,1339.000000,1650625056.906129,0.000000,0.000000,1.000000,0.000000,0.000000,0.000000,0.000000,3.375096,4.880135,-0.733087
1650625057.006357,1340.000000,1650625057.006114,0.000000,0.000000,1.000000,0.000000,0.000000,0.000000,0.000000,3.371709,4.881397,-0.741627
1650625057.106417,1341.000000,1650625057.106179,0.000000,0.000000,1.000000,0.000000,0.000000,0.000000,0.000000,3.369582,4.883603,-0.740907
1650625057.206384,1342.000000,1650625057.206132,0.000000,0.000000,1.000000,0.000000,0.000000,0.000000,0.000000,3.368654,4.883428,-0.749852
1650625057.306494,1343.000000,1650625057.306199,0.000000,0.000000,1.000000,0.000000,0.000000,0.000000,0.000000,3.368864,4.882097,-0.766445
1650625057.406386,1344.000000,1650625057.406143,0.000000,0.000000,1.000000,0.000000,0.000000,0.000000,0.000000,3.367967,4.881862,-0.785515
1650625057.506361,1345.000000,1650625057.506096,0.000000,0.000000,1.000000,0.000000,0.000000,0.000000,0.000000,3.367118,4.881578,-0.800480
1650625057.606287,1346.000000,1650625057.606049,0.000000,0.000000,1.000000,0.000000,0.000000,0.000000,0.000000,3.368497,4.881253,-0.817937
1650625057.706326,1347.000000,1650625057.706139,0.000000,0.000000,1.000000,0.000000,0.000000,0.000000,0.000000,3.369799,4.880892,-0.835342
1650625057.806340,1348.000000,1650625057.806125,0.000000,0.000000,1.000000,0.000000,0.000000,0.000000,0.000000,3.371022,4.879411,-0.847835
1650625057.906355,1349.000000,1650625057.906142,0.000000,0.000000,1.000000,0.000000,0.000000,0.000000,0.000000,3.374350,4.877970,-0.862053
1650625058.006326,1350.000000,1650625058.006071,0.000000,0.000000,1.000000,0.000000,0.000000,0.000000,0.000000,3.377476,4.878754,-0.881135
1650625058.106353,1351.000000,1650625058.106151,0.000000,0.000000,1.000000,0.000000,0.000000,0.000000,0.000000,3.377132,4.879460,-0.903249
1650625058.206306,1352.000000,1650625058.206126,0.000000,0.000000,1.000000,0.000000,0.000000,0.000000,0.000000,3.375690,4.879002,-0.925019
1650625058.306583,1353.000000,1650625058.306371,0.000000,0.000000,1.000000,0.000000,0.000000,0.000000,0.000000,3.380849,4.874176,-0.897240
1650625058.406334,1354.000000,1650625058.406108,0.000000,0.000000,1.000000,0.000000,0.000000,0.000000,0.000000,3.381330,4.871779,-0.870354
1650625058.506360,1355.000000,1650625058.506162,0.000000,0.000000,1.000000,0.000000,0.000000,0.000000,0.000000,3.383931,4.868415,-0.859704
1650625058.606396,1356.000000,1650625058.606225,0.000000,0.000000,1.000000,0.000000,0.000000,0.000000,0.000000,3.387440,4.866330,-0.858208
1650625058.706331,1357.000000,1650625058.706098,0.000000,0.000000,1.000000,0.000000,0.000000,0.000000,0.000000,3.390709,4.863280,-0.864700
1650625058.806493,1358.000000,1650625058.806178,0.000000,0.000000,1.000000,0.000000,0.000000,0.000000,0.000000,3.395923,4.861506,-0.859497
1650625058.906319,1359.000000,1650625058.906104,0.000000,0.000000,1.000000,0.000000,0.000000,0.000000,0.000000,3.400783,4.858762,-0.863248
1650625059.006278,1360.000000,1650625059.006048,0.000000,0.000000,1.000000,0.000000,0.000000,0.000000,0.000000,3.405297,4.857290,-0.869946
1650625059.106326,1361.000000,1650625059.106044,0.000000,0.000000,1.000000,0.000000,0.000000,0.000000,0.000000,3.407293,4.855933,-0.880271
1650625059.206271,1362.000000,1650625059.206061,0.000000,0.000000,1.000000,0.000000,0.000000,0.000000,0.000000,3.405818,4.856867,-0.885195
1650625059.306387,1363.000000,1650625059.306199,0.000000,0.000000,1.000000,0.000000,0.000000,0.000000,0.000000,3.401070,4.857781,-0.875256
1650625059.406344,1364.000000,1650625059.406093,0.000000,0.000000,1.000000,0.000000,0.000000,0.000000,0.000000,3.408512,4.858673,-0.875269
1650625059.506451,1365.000000,1650625059.506252,0.000000,0.000000,1.000000,0.000000,0.000000,0.000000,0.000000,3.427461,4.859539,-0.884840
1650625059.606372,1366.000000,1650625059.606162,0.000000,0.000000,1.000000,0.000000,0.000000,0.000000,0.000000,3.438699,4.860377,-0.890667
1650625059.706383,1367.000000,1650625059.706165,0.000000,0.000000,1.000000,0.000000,0.000000,0.000000,0.000000,3.454612,4.859003,-0.851769
1650625059.806311,1368.000000,1650625059.806106,0.000000,0.000000,1.000000,0.000000,0.000000,0.000000,0.000000,3.466182,4.858812,-0.832117
1650625059.906264,1369.000000,1650625059.906085,0.000000,0.000000,1.000000,0.000000,0.000000,0.000000,0.000000,3.495428,4.859740,-0.833390
1650625060.006292,1370.000000,1650625060.006079,0.000000,0.000000,1.000000,0.000000,0.000000,0.000000,0.000000,3.515140,4.862812,-0.820067
1650625060.106329,1371.000000,1650625060.106147,0.000000,0.000000,1.000000,0.000000,0.000000,0.000000,0.000000,3.529064,4.863540,-0.817760
1650625060.206322,1372.000000,1650625060.206138,0.000000,0.000000,1.000000,0.000000,0.000000,0.000000,0.000000,3.534221,4.865319,-0.825222
1650625060.306048,1373.000000,1650625060.305868,0.000000,0.000000,1.000000,0.000000,0.000000,0.000000,0.000000,3.534364,4.868087,-0.818660
1650625060.406411,1374.000000,1650625060.406117,0.000000,0.000000,1.000000,0.000000,0.000000,0.000000,0.000000,3.537420,4.870691,-0.805908
1650625060.506433,1375.000000,1650625060.506155,0.000000,0.000000,1.000000,0.000000,0.000000,0.000000,0.000000,3.535610,4.872042,-0.807401
1650625060.606297,1376.000000,1650625060.606075,0.000000,0.000000,1.000000,0.000000,0.000000,0.000000,0.000000,3.525951,4.873296,-0.812075
1650625060.706264,1377.000000,1650625060.706100,0.000000,0.000000,1.000000,0.000000,0.000000,0.000000,0.000000,3.517643,4.873366,-0.821407
1650625060.805983,1378.000000,1650625060.805825,0.000000,0.000000,1.000000,0.000000,0.000000,0.000000,0.000000,3.506292,4.873406,-0.834388
1650625060.906083,1379.000000,1650625060.905905,0.000000,0.000000,1.000000,0.000000,0.000000,0.000000,0.000000,3.494294,4.870149,-0.846815
1650625061.006022,1380.000000,1650625061.005870,0.000000,0.000000,1.000000,0.000000,0.000000,0.000000,0.000000,3.488274,4.864877,-0.817562
1650625061.106028,1381.000000,1650625061.105847,0.000000,0.000000,1.000000,0.000000,0.000000,0.000000,0.000000,3.479210,4.862078,-0.799974
1650625061.206078,1382.000000,1650625061.205858,0.000000,0.000000,1.000000,0.000000,0.000000,0.000000,0.000000,3.469482,4.858355,-0.797642
1650625061.306068,1383.000000,1650625061.305858,0.000000,0.000000,1.000000,0.000000,0.000000,0.000000,0.000000,3.460252,4.855950,-0.792213
1650625061.406002,1384.000000,1650625061.405799,0.000000,0.000000,1.000000,0.000000,0.000000,0.000000,0.000000,3.451523,4.854798,-0.793497
1650625061.506260,1385.000000,1650625061.506075,0.000000,0.000000,1.000000,0.000000,0.000000,0.000000,0.000000,3.436754,4.852650,-0.758476
1650625061.606232,1386.000000,1650625061.606018,0.000000,0.000000,1.000000,0.000000,0.000000,0.000000,0.000000,3.422860,4.851747,-0.722544
1650625061.706375,1387.000000,1650625061.706118,0.000000,0.000000,1.000000,0.000000,0.000000,0.000000,0.000000,3.410925,4.850932,-0.703534
1650625061.806306,1388.000000,1650625061.806075,0.000000,0.000000,1.000000,0.000000,0.000000,0.000000,0.000000,3.400872,4.849109,-0.699986
1650625061.906317,1389.000000,1650625061.906109,0.000000,0.000000,1.000000,0.000000,0.000000,0.000000,0.000000,3.391532,4.847428,-0.707242
1650625062.006300,1390.000000,1650625062.006080,0.000000,0.000000,1.000000,0.000000,0.000000,0.000000,0.000000,3.382886,4.848064,-0.717589
1650625062.106394,1391.000000,1650625062.106198,0.000000,0.000000,1.000000,0.000000,0.000000,0.000000,0.000000,3.376004,4.848706,-0.731684
1650625062.206340,1392.000000,1650625062.206084,0.000000,0.000000,1.000000,0.000000,0.000000,0.000000,0.000000,3.365347,4.848259,-0.702572
1650625062.306212,1393.000000,1650625062.306014,0.000000,0.000000,1.000000,0.000000,0.000000,0.000000,0.000000,3.356594,4.848961,-0.686073
1650625062.406382,1394.000000,1650625062.406147,0.000000,0.000000,1.000000,0.000000,0.000000,0.000000,0.000000,3.348565,4.848567,-0.669603
1650625062.506348,1395.000000,1650625062.506102,0.000000,0.000000,1.000000,0.000000,0.000000,0.000000,0.000000,3.342322,4.849314,-0.662859
1650625062.606330,1396.000000,1650625062.606144,0.000000,0.000000,1.000000,0.000000,0.000000,0.000000,0.000000,3.335592,4.848957,-0.661420
1650625062.706356,1397.000000,1650625062.706172,0.000000,0.000000,1.000000,0.000000,0.000000,0.000000,0.000000,3.329498,4.848646,-0.666679
1650625062.806381,1398.000000,1650625062.806150,0.000000,0.000000,1.000000,0.000000,0.000000,0.000000,0.000000,3.325098,4.848376,-0.672705
1650625062.906480,1399.000000,1650625062.906201,0.000000,0.000000,1.000000,0.000000,0.000000,0.000000,0.000000,3.324481,4.847057,-0.687513
1650625063.006245,1400.000000,1650625063.006017,0.000000,0.000000,1.000000,0.000000,0.000000,0.000000,0.000000,3.325245,4.845836,-0.701848
1650625063.106245,1401.000000,1650625063.106016,0.000000,0.000000,1.000000,0.000000,0.000000,0.000000,0.000000,3.325116,4.845803,-0.710860
1650625063.206202,1402.000000,1650625063.206051,0.000000,0.000000,1.000000,0.000000,0.000000,0.000000,0.000000,3.326312,4.844709,-0.726034
1650625063.306638,1403.000000,1650625063.306449,0.000000,0.000000,1.000000,0.000000,0.000000,0.000000,0.000000,3.327652,4.844795,-0.747094
1650625063.406318,1404.000000,1650625063.406148,0.000000,0.000000,1.000000,0.000000,0.000000,0.000000,0.000000,3.326932,4.845995,-0.769732
1650625063.506286,1405.000000,1650625063.506130,0.000000,0.000000,1.000000,0.000000,0.000000,0.000000,0.000000,3.325345,4.847152,-0.795459
1650625063.606316,1406.000000,1650625063.606084,0.000000,0.000000,1.000000,0.000000,0.000000,0.000000,0.000000,3.324023,4.848264,-0.820076
1650625063.706347,1407.000000,1650625063.706160,0.000000,0.000000,1.000000,0.000000,0.000000,0.000000,0.000000,3.326217,4.850418,-0.845201
1650625063.806260,1408.000000,1650625063.806103,0.000000,0.000000,1.000000,0.000000,0.000000,0.000000,0.000000,3.325176,4.853552,-0.850616
1650625063.906262,1409.000000,1650625063.906048,0.000000,0.000000,1.000000,0.000000,0.000000,0.000000,0.000000,3.325433,4.858691,-0.849208
1650625064.006323,1410.000000,1650625064.006126,0.000000,0.000000,1.000000,0.000000,0.000000,0.000000,0.000000,3.323635,4.862439,-0.854164
1650625064.106320,1411.000000,1650625064.106132,0.000000,0.000000,1.000000,0.000000,0.000000,0.000000,0.000000,3.324254,4.863771,-0.867646
1650625064.206482,1412.000000,1650625064.206239,0.000000,0.000000,1.000000,0.000000,0.000000,0.000000,0.000000,3.324968,4.867178,-0.875582
1650625064.306371,1413.000000,1650625064.306180,0.000000,0.000000,1.000000,0.000000,0.000000,0.000000,0.000000,3.325761,4.869267,-0.886255
1650625064.406343,1414.000000,1650625064.406143,0.000000,0.000000,1.000000,0.000000,0.000000,0.000000,0.000000,3.327711,4.872286,-0.893898
1650625064.506398,1415.000000,1650625064.506148,0.000000,0.000000,1.000000,0.000000,0.000000,0.000000,0.000000,3.331832,4.873996,-0.905079
1650625064.606352,1416.000000,1650625064.606167,0.000000,0.000000,1.000000,0.000000,0.000000,0.000000,0.000000,3.335807,4.874468,-0.920451
1650625064.706294,1417.000000,1650625064.706087,0.000000,0.000000,1.000000,0.000000,0.000000,0.000000,0.000000,3.340717,4.872679,-0.934988
1650625064.806233,1418.000000,1650625064.806054,0.000000,0.000000,1.000000,0.000000,0.000000,0.000000,0.000000,3.345401,4.870943,-0.953548
1650625064.906318,1419.000000,1650625064.906122,0.000000,0.000000,1.000000,0.000000,0.000000,0.000000,0.000000,3.349856,4.869264,-0.959818
1650625065.006310,1420.000000,1650625065.006112,0.000000,0.000000,1.000000,0.000000,0.000000,0.000000,0.000000,3.351896,4.867647,-0.968808
1650625065.106315,1421.000000,1650625065.106121,0.000000,0.000000,1.000000,0.000000,0.000000,0.000000,0.000000,3.352738,4.868276,-0.969920
1650625065.206317,1422.000000,1650625065.206151,0.000000,0.000000,1.000000,0.000000,0.000000,0.000000,0.000000,3.354624,4.868847,-0.964289
1650625065.306424,1423.000000,1650625065.306162,0.000000,0.000000,1.000000,0.000000,0.000000,0.000000,0.000000,3.355311,4.869364,-0.948978
1650625065.406341,1424.000000,1650625065.406108,0.000000,0.000000,1.000000,0.000000,0.000000,0.000000,0.000000,3.355952,4.868737,-0.942157
1650625065.506234,1425.000000,1650625065.506082,0.000000,0.000000,1.000000,0.000000,0.000000,0.000000,0.000000,3.355459,4.869214,-0.937051
1650625065.606350,1426.000000,1650625065.606101,0.000000,0.000000,1.000000,0.000000,0.000000,0.000000,0.000000,3.353894,4.869645,-0.922316
1650625065.706339,1427.000000,1650625065.706098,0.000000,0.000000,1.000000,0.000000,0.000000,0.000000,0.000000,3.352413,4.870030,-0.898373
1650625065.806297,1428.000000,1650625065.806077,0.000000,0.000000,1.000000,0.000000,0.000000,0.000000,0.000000,3.349925,4.870373,-0.887411
1650625065.906311,1429.000000,1650625065.906078,0.000000,0.000000,1.000000,0.000000,0.000000,0.000000,0.000000,3.348673,4.870677,-0.885705
1650625066.006360,1430.000000,1650625066.006174,0.000000,0.000000,1.000000,0.000000,0.000000,0.000000,0.000000,3.349683,4.870943,-0.867887
1650625066.106452,1431.000000,1650625066.106176,0.000000,0.000000,1.000000,0.000000,0.000000,0.000000,0.000000,3.350649,4.872265,-0.859638
1650625066.206356,1432.000000,1650625066.206118,0.000000,0.000000,1.000000,0.000000,0.000000,0.000000,0.000000,3.350478,4.873491,-0.852522
1650625066.306344,1433.000000,1650625066.306117,0.000000,0.000000,1.000000,0.000000,0.000000,0.000000,0.000000,3.351412,4.873534,-0.855379
1650625066.406281,1434.000000,1650625066.406087,0.000000,0.000000,1.000000,0.000000,0.000000,0.000000,0.000000,3.353389,4.873550,-0.846025
1650625066.506401,1435.000000,1650625066.506155,0.000000,0.000000,1.000000,0.000000,0.000000,0.000000,0.000000,3.356346,4.872452,-0.843518
1650625066.606333,1436.000000,1650625066.606112,0.000000,0.000000,1.000000,0.000000,0.000000,0.000000,0.000000,3.362400,4.871395,-0.833069
1650625066.706312,1437.000000,1650625066.706113,0.000000,0.000000,1.000000,0.000000,0.000000,0.000000,0.000000,3.368094,4.869291,-0.833563
1650625066.806400,1438.000000,1650625066.806103,0.000000,0.000000,1.000000,0.000000,0.000000,0.000000,0.000000,3.371249,4.866205,-0.842138
1650625066.906368,1439.000000,1650625066.906122,0.000000,0.000000,1.000000,0.000000,0.000000,0.000000,0.000000,3.373089,4.865471,-0.852806
1650625067.006512,1440.000000,1650625067.006280,0.000000,0.000000,1.000000,0.000000,0.000000,0.000000,0.000000,3.372590,4.862602,-0.863045
1650625067.106246,1441.000000,1650625067.106071,0.000000,0.000000,1.000000,0.000000,0.000000,0.000000,0.000000,3.373157,4.859903,-0.877693
1650625067.206423,1442.000000,1650625067.206186,0.000000,0.000000,1.000000,0.000000,0.000000,0.000000,0.000000,3.374733,4.859555,-0.874775
1650625067.306390,1443.000000,1650625067.306168,0.000000,0.000000,1.000000,0.000000,0.000000,0.000000,0.000000,3.400158,4.860337,-0.822747
1650625067.406442,1444.000000,1650625067.406234,0.000000,0.000000,1.000000,0.000000,0.000000,0.000000,0.000000,3.418617,4.861095,-0.779323
1650625067.506345,1445.000000,1650625067.506099,0.000000,0.000000,1.000000,0.000000,0.000000,0.000000,0.000000,3.430437,4.862917,-0.749066
1650625067.606383,1446.000000,1650625067.606117,0.000000,0.000000,1.000000,0.000000,0.000000,0.000000,0.000000,3.439226,4.864648,-0.734718
1650625067.706425,1447.000000,1650625067.706196,0.000000,0.000000,1.000000,0.000000,0.000000,0.000000,0.000000,3.447313,4.866286,-0.729202
1650625067.806387,1448.000000,1650625067.806193,0.000000,0.000000,1.000000,0.000000,0.000000,0.000000,0.000000,3.452544,4.865652,-0.723294
1650625067.906379,1449.000000,1650625067.906102,0.000000,0.000000,1.000000,0.000000,0.000000,0.000000,0.000000,3.455070,4.863961,-0.726688
1650625068.006418,1450.000000,1650625068.006154,0.000000,0.000000,1.000000,0.000000,0.000000,0.000000,0.000000,3.456135,4.864547,-0.732544
1650625068.106417,1451.000000,1650625068.106119,0.000000,0.000000,1.000000,0.000000,0.000000,0.000000,0.000000,3.455830,4.864013,-0.697197
1650625068.206397,1452.000000,1650625068.206180,0.000000,0.000000,1.000000,0.000000,0.000000,0.000000,0.000000,3.453151,4.862421,-0.672360
1650625068.306833,1453.000000,1650625068.306618,0.000000,0.000000,1.000000,0.000000,0.000000,0.000000,0.000000,3.450430,4.860925,-0.653612
1650625068.406013,1454.000000,1650625068.405873,0.000000,0.000000,1.000000,0.000000,0.000000,0.000000,0.000000,3.446598,4.857343,-0.644759
1650625068.506119,1455.000000,1650625068.505938,0.000000,0.000000,1.000000,0.000000,0.000000,0.000000,0.000000,3.442828,4.855069,-0.646214
1650625068.605988,1456.000000,1650625068.605821,0.000000,0.000000,1.000000,0.000000,0.000000,0.000000,0.000000,3.438046,4.852949,-0.643031
1650625068.705924,1457.000000,1650625068.705770,0.000000,0.000000,1.000000,0.000000,0.000000,0.000000,0.000000,3.434511,4.853159,-0.644262
1650625068.806155,1458.000000,1650625068.805973,0.000000,0.000000,1.000000,0.000000,0.000000,0.000000,0.000000,3.429990,4.852299,-0.654556
1650625068.906040,1459.000000,1650625068.905869,0.000000,0.000000,1.000000,0.000000,0.000000,0.000000,0.000000,3.423467,4.851518,-0.660615
1650625069.005999,1460.000000,1650625069.005844,0.000000,0.000000,1.000000,0.000000,0.000000,0.000000,0.000000,3.419437,4.850813,-0.676303
1650625069.106651,1461.000000,1650625069.106219,0.000000,0.000000,1.000000,0.000000,0.000000,0.000000,0.000000,3.413417,4.849089,-0.697968
1650625069.206407,1462.000000,1650625069.206199,0.000000,0.000000,1.000000,0.000000,0.000000,0.000000,0.000000,3.407718,4.847496,-0.723716
1650625069.306391,1463.000000,1650625069.306222,0.000000,0.000000,1.000000,0.000000,0.000000,0.000000,0.000000,3.401249,4.846029,-0.733170
1650625069.406324,1464.000000,1650625069.406166,0.000000,0.000000,1.000000,0.000000,0.000000,0.000000,0.000000,3.394073,4.845775,-0.730195
1650625069.506284,1465.000000,1650625069.506044,0.000000,0.000000,1.000000,0.000000,0.000000,0.000000,0.000000,3.388429,4.843394,-0.731424
1650625069.606237,1466.000000,1650625069.606021,0.000000,0.000000,1.000000,0.000000,0.000000,0.000000,0.000000,3.384250,4.842280,-0.731038
1650625069.706395,1467.000000,1650625069.706153,0.000000,0.000000,1.000000,0.000000,0.000000,0.000000,0.000000,3.380373,4.841272,-0.740390
1650625069.806343,1468.000000,1650625069.806148,0.000000,0.000000,1.000000,0.000000,0.000000,0.000000,0.000000,3.377881,4.840366,-0.755846
1650625069.906469,1469.000000,1650625069.906231,0.000000,0.000000,1.000000,0.000000,0.000000,0.000000,0.000000,3.375612,4.839557,-0.761808
1650625070.006420,1470.000000,1650625070.006179,0.000000,0.000000,1.000000,0.000000,0.000000,0.000000,0.000000,3.372464,4.838838,-0.776392
1650625070.106216,1471.000000,1650625070.106004,0.000000,0.000000,1.000000,0.000000,0.000000,0.000000,0.000000,3.368491,4.839296,-0.791967
1650625070.206058,1472.000000,1650625070.205849,0.000000,0.000000,1.000000,0.000000,0.000000,0.000000,0.000000,3.368105,4.836500,-0.762501
1650625070.306011,1473.000000,1650625070.305811,0.000000,0.000000,1.000000,0.000000,0.000000,0.000000,0.000000,3.367837,4.833905,-0.744700
1650625070.406043,1474.000000,1650625070.405861,0.000000,0.000000,1.000000,0.000000,0.000000,0.000000,0.000000,3.367674,4.833686,-0.738124
1650625070.506066,1475.000000,1650625070.505871,0.000000,0.000000,1.000000,0.000000,0.000000,0.000000,0.000000,3.370878,4.832441,-0.738300
1650625070.606126,1476.000000,1650625070.605891,0.000000,0.000000,1.000000,0.000000,0.000000,0.000000,0.000000,3.371798,4.832406,-0.748178
1650625070.706081,1477.000000,1650625070.705908,0.000000,0.000000,1.000000,0.000000,0.000000,0.000000,0.000000,3.370551,4.833513,-0.760899
1650625070.806035,1478.000000,1650625070.805869,0.000000,0.000000,1.000000,0.000000,0.000000,0.000000,0.000000,3.368347,4.834603,-0.781164
1650625070.906054,1479.000000,1650625070.905875,0.000000,0.000000,1.000000,0.000000,0.000000,0.000000,0.000000,3.364149,4.835672,-0.802183
1650625071.005983,1480.000000,1650625071.005830,0.000000,0.000000,1.000000,0.000000,0.000000,0.000000,0.000000,3.362438,4.838894,-0.820666
1650625071.105936,1481.000000,1650625071.105776,0.000000,0.000000,1.000000,0.000000,0.000000,0.000000,0.000000,3.360898,4.840871,-0.832656
1650625071.206048,1482.000000,1650625071.205834,0.000000,0.000000,1.000000,0.000000,0.000000,0.000000,0.000000,3.359521,4.842753,-0.839203
1650625071.306016,1483.000000,1650625071.305855,0.000000,0.000000,1.000000,0.000000,0.000000,0.000000,0.000000,3.357206,4.843447,-0.853426
1650625071.406018,1484.000000,1650625071.405870,0.000000,0.000000,1.000000,0.000000,0.000000,0.000000,0.000000,3.356189,4.845197,-0.857253
1650625071.506024,1485.000000,1650625071.505855,0.000000,0.000000,1.000000,0.000000,0.000000,0.000000,0.000000,3.358578,4.843579,-0.818845
1650625071.606350,1486.000000,1650625071.606189,0.000000,0.000000,1.000000,0.000000,0.000000,0.000000,0.000000,3.359813,4.842051,-0.799654
1650625071.706589,1487.000000,1650625071.706284,0.000000,0.000000,1.000000,0.000000,0.000000,0.000000,0.000000,3.363222,4.841705,-0.777165
1650625071.806125,1488.000000,1650625071.805877,0.000000,0.000000,1.000000,0.000000,0.000000,0.000000,0.000000,3.366491,4.841386,-0.767681
1650625071.906052,1489.000000,1650625071.905834,0.000000,0.000000,1.000000,0.000000,0.000000,0.000000,0.000000,3.369614,4.842183,-0.748920
1650625072.006002,1490.000000,1650625072.005848,0.000000,0.000000,1.000000,0.000000,0.000000,0.000000,0.000000,3.370406,4.842942,-0.743060
1650625072.106391,1491.000000,1650625072.106207,0.000000,0.000000,1.000000,0.000000,0.000000,0.000000,0.000000,3.368992,4.844754,-0.742331
1650625072.206349,1492.000000,1650625072.206180,0.000000,0.000000,1.000000,0.000000,0.000000,0.000000,0.000000,3.367676,4.845373,-0.749752
1650625072.306419,1493.000000,1650625072.306131,0.000000,0.000000,1.000000,0.000000,0.000000,0.000000,0.000000,3.365364,4.847045,-0.761753
1650625072.406420,1494.000000,1650625072.406137,0.000000,0.000000,1.000000,0.000000,0.000000,0.000000,0.000000,3.363208,4.848615,-0.776514
1650625072.506081,1495.000000,1650625072.505875,0.000000,0.000000,1.000000,0.000000,0.000000,0.000000,0.000000,3.361204,4.850087,-0.793899
1650625072.606084,1496.000000,1650625072.605877,0.000000,0.000000,1.000000,0.000000,0.000000,0.000000,0.000000,3.359348,4.850369,-0.815386
1650625072.705984,1497.000000,1650625072.705811,0.000000,0.000000,1.000000,0.000000,0.000000,0.000000,0.000000,3.357635,4.850619,-0.823838
1650625072.806069,1498.000000,1650625072.805891,0.000000,0.000000,1.000000,0.000000,0.000000,0.000000,0.000000,3.360423,4.850837,-0.797189
1650625072.906059,1499.000000,1650625072.905884,0.000000,0.000000,1.000000,0.000000,0.000000,0.000000,0.000000,3.362002,4.851026,-0.767548
1650625073.006083,1500.000000,1650625073.005898,0.000000,0.000000,1.000000,0.000000,0.000000,0.000000,0.000000,3.363523,4.851189,-0.755248
1650625073.106038,1501.000000,1650625073.105835,0.000000,0.000000,1.000000,0.000000,0.000000,0.000000,0.000000,3.363891,4.852416,-0.752353
1650625073.206021,1502.000000,1650625073.205844,0.000000,0.000000,1.000000,0.000000,0.000000,0.000000,0.000000,3.364257,4.854648,-0.758486
1650625073.307679,1503.000000,1650625073.307492,0.000000,0.000000,1.000000,0.000000,0.000000,0.000000,0.000000,3.363529,4.854552,-0.773272
1650625073.406037,1504.000000,1650625073.405852,0.000000,0.000000,1.000000,0.000000,0.000000,0.000000,0.000000,3.363949,4.855528,-0.794723
1650625073.506001,1505.000000,1650625073.505862,0.000000,0.000000,1.000000,0.000000,0.000000,0.000000,0.000000,3.359999,4.853155,-0.770114
1650625073.606285,1506.000000,1650625073.606132,0.000000,0.000000,1.000000,0.000000,0.000000,0.000000,0.000000,3.358472,4.851986,-0.759409
1650625073.706040,1507.000000,1650625073.705879,0.000000,0.000000,1.000000,0.000000,0.000000,0.000000,0.000000,3.359239,4.850868,-0.713679
1650625073.806023,1508.000000,1650625073.805871,0.000000,0.000000,1.000000,0.000000,0.000000,0.000000,0.000000,3.359991,4.849804,-0.686831
1650625073.906019,1509.000000,1650625073.905872,0.000000,0.000000,1.000000,0.000000,0.000000,0.000000,0.000000,3.359632,4.847704,-0.678952
1650625074.006130,1510.000000,1650625074.005812,0.000000,0.000000,1.000000,0.000000,0.000000,0.000000,0.000000,3.360406,4.846812,-0.680413
1650625074.106081,1511.000000,1650625074.105903,0.000000,0.000000,1.000000,0.000000,0.000000,0.000000,0.000000,3.362246,4.845974,-0.692442
1650625074.206091,1512.000000,1650625074.205874,0.000000,0.000000,1.000000,0.000000,0.000000,0.000000,0.000000,3.362907,4.846280,-0.704910
1650625074.306052,1513.000000,1650625074.305874,0.000000,0.000000,1.000000,0.000000,0.000000,0.000000,0.000000,3.363540,4.846577,-0.707288
1650625074.406075,1514.000000,1650625074.405842,0.000000,0.000000,1.000000,0.000000,0.000000,0.000000,0.000000,3.366325,4.846862,-0.720137
1650625074.506058,1515.000000,1650625074.505858,0.000000,0.000000,1.000000,0.000000,0.000000,0.000000,0.000000,3.370047,4.846046,-0.740590
1650625074.606089,1516.000000,1650625074.605886,0.000000,0.000000,1.000000,0.000000,0.000000,0.000000,0.000000,3.371370,4.845281,-0.749755
1650625074.706067,1517.000000,1650625074.705860,0.000000,0.000000,1.000000,0.000000,0.000000,0.000000,0.000000,3.370422,4.844566,-0.767426
1650625074.806082,1518.000000,1650625074.805888,0.000000,0.000000,1.000000,0.000000,0.000000,0.000000,0.000000,3.362970,4.841720,-0.738391
1650625074.906139,1519.000000,1650625074.905901,0.000000,0.000000,1.000000,0.000000,0.000000,0.000000,0.000000,3.355935,4.841227,-0.721840
1650625075.006140,1520.000000,1650625075.005925,0.000000,0.000000,1.000000,0.000000,0.000000,0.000000,0.000000,3.352585,4.840781,-0.719717
1650625075.106323,1521.000000,1650625075.106115,0.000000,0.000000,1.000000,0.000000,0.000000,0.000000,0.000000,3.349459,4.840379,-0.712088
1650625075.206145,1522.000000,1650625075.205954,0.000000,0.000000,1.000000,0.000000,0.000000,0.000000,0.000000,3.348732,4.840018,-0.714507
1650625075.306105,1523.000000,1650625075.305902,0.000000,0.000000,1.000000,0.000000,0.000000,0.000000,0.000000,3.349182,4.840787,-0.706401
1650625075.406088,1524.000000,1650625075.405924,0.000000,0.000000,1.000000,0.000000,0.000000,0.000000,0.000000,3.348561,4.841530,-0.687399
1650625075.506200,1525.000000,1650625075.505992,0.000000,0.000000,1.000000,0.000000,0.000000,0.000000,0.000000,3.353469,4.840064,-0.635390
1650625075.606092,1526.000000,1650625075.605903,0.000000,0.000000,1.000000,0.000000,0.000000,0.000000,0.000000,3.355954,4.840876,-0.606626
1650625075.706145,1527.000000,1650625075.705948,0.000000,0.000000,1.000000,0.000000,0.000000,0.000000,0.000000,3.358319,4.841656,-0.596179
1650625075.806023,1528.000000,1650625075.805839,0.000000,0.000000,1.000000,0.000000,0.000000,0.000000,0.000000,3.360562,4.842404,-0.601707
1650625075.905975,1529.000000,1650625075.905812,0.000000,0.000000,1.000000,0.000000,0.000000,0.000000,0.000000,3.362684,4.843118,-0.613676
1650625076.006279,1530.000000,1650625076.006124,0.000000,0.000000,1.000000,0.000000,0.000000,0.000000,0.000000,3.364683,4.844888,-0.626152
1650625076.106048,1531.000000,1650625076.105874,0.000000,0.000000,1.000000,0.000000,0.000000,0.000000,0.000000,3.366560,4.848741,-0.637472
1650625076.206026,1532.000000,1650625076.205847,0.000000,0.000000,1.000000,0.000000,0.000000,0.000000,0.000000,3.368317,4.851280,-0.654916
1650625076.306048,1533.000000,1650625076.305870,0.000000,0.000000,1.000000,0.000000,0.000000,0.000000,0.000000,3.371047,4.852570,-0.668524
1650625076.406043,1534.000000,1650625076.405829,0.000000,0.000000,1.000000,0.000000,0.000000,0.000000,0.000000,3.372508,4.854856,-0.688908
1650625076.506148,1535.000000,1650625076.505907,0.000000,0.000000,1.000000,0.000000,0.000000,0.000000,0.000000,3.374947,4.855898,-0.714145
1650625076.606092,1536.000000,1650625076.605893,0.000000,0.000000,1.000000,0.000000,0.000000,0.000000,0.000000,3.381576,4.853581,-0.698026
1650625076.706089,1537.000000,1650625076.705879,0.000000,0.000000,1.000000,0.000000,0.000000,0.000000,0.000000,3.386697,4.851368,-0.697893
1650625076.806064,1538.000000,1650625076.805845,0.000000,0.000000,1.000000,0.000000,0.000000,0.000000,0.000000,3.390378,4.850352,-0.704229
1650625076.906136,1539.000000,1650625076.905922,0.000000,0.000000,1.000000,0.000000,0.000000,0.000000,0.000000,3.391601,4.850472,-0.718375
1650625077.006098,1540.000000,1650625077.005881,0.000000,0.000000,1.000000,0.000000,0.000000,0.000000,0.000000,3.391590,4.850577,-0.726284
1650625077.106085,1541.000000,1650625077.105888,0.000000,0.000000,1.000000,0.000000,0.000000,0.000000,0.000000,3.393689,4.850666,-0.741903
1650625077.206107,1542.000000,1650625077.205906,0.000000,0.000000,1.000000,0.000000,0.000000,0.000000,0.000000,3.393417,4.851832,-0.759252
1650625077.305551,1543.000000,1650625077.305312,0.000000,0.000000,1.000000,0.000000,0.000000,0.000000,0.000000,3.393090,4.852922,-0.775814
1650625077.405998,1544.000000,1650625077.405831,0.000000,0.000000,1.000000,0.000000,0.000000,0.000000,0.000000,3.393808,4.855028,-0.789984
1650625077.506069,1545.000000,1650625077.505883,0.000000,0.000000,1.000000,0.000000,0.000000,0.000000,0.000000,3.394422,4.856998,-0.788936
1650625077.606082,1546.000000,1650625077.605902,0.000000,0.000000,1.000000,0.000000,0.000000,0.000000,0.000000,3.394943,4.857746,-0.799904
1650625077.706125,1547.000000,1650625077.705933,0.000000,0.000000,1.000000,0.000000,0.000000,0.000000,0.000000,3.397556,4.856245,-0.769163
1650625077.806061,1548.000000,1650625077.805871,0.000000,0.000000,1.000000,0.000000,0.000000,0.000000,0.000000,3.397781,4.856986,-0.746840
1650625077.906000,1549.000000,1650625077.905802,0.000000,0.000000,1.000000,0.000000,0.000000,0.000000,0.000000,3.390301,4.855485,-0.690702
1650625078.006061,1550.000000,1650625078.005819,0.000000,0.000000,1.000000,0.000000,0.000000,0.000000,0.000000,3.385374,4.852959,-0.652207
1650625078.106224,1551.000000,1650625078.105973,0.000000,0.000000,1.000000,0.000000,0.000000,0.000000,0.000000,3.380699,4.851655,-0.618611
1650625078.206024,1552.000000,1650625078.205792,0.000000,0.000000,1.000000,0.000000,0.000000,0.000000,0.000000,3.371916,4.848239,-0.555092
1650625078.306661,1553.000000,1650625078.306456,0.000000,0.000000,1.000000,0.000000,0.000000,0.000000,0.000000,3.365819,4.847199,-0.516180
1650625078.406393,1554.000000,1650625078.406193,0.000000,0.000000,1.000000,0.000000,0.000000,0.000000,0.000000,3.366641,4.845136,-0.462230
1650625078.506433,1555.000000,1650625078.506172,0.000000,0.000000,1.000000,0.000000,0.000000,0.000000,0.000000,3.368548,4.844293,-0.434247
1650625078.606483,1556.000000,1650625078.606237,0.000000,0.000000,1.000000,0.000000,0.000000,0.000000,0.000000,3.370382,4.846787,-0.420732
1650625078.706410,1557.000000,1650625078.706184,0.000000,0.000000,1.000000,0.000000,0.000000,0.000000,0.000000,3.369958,4.848064,-0.413848
1650625078.806408,1558.000000,1650625078.806191,0.000000,0.000000,1.000000,0.000000,0.000000,0.000000,0.000000,3.369581,4.849277,-0.406869
1650625078.906411,1559.000000,1650625078.906188,0.000000,0.000000,1.000000,0.000000,0.000000,0.000000,0.000000,3.368158,4.850425,-0.415116
1650625079.006268,1560.000000,1650625079.006043,0.000000,0.000000,1.000000,0.000000,0.000000,0.000000,0.000000,3.367928,4.852599,-0.427458
1650625079.106339,1561.000000,1650625079.106134,0.000000,0.000000,1.000000,0.000000,0.000000,0.000000,0.000000,3.365556,4.853554,-0.451757
1650625079.206306,1562.000000,1650625079.206101,0.000000,0.000000,1.000000,0.000000,0.000000,0.000000,0.000000,3.364435,4.854447,-0.485057
1650625079.306427,1563.000000,1650625079.306210,0.000000,0.000000,1.000000,0.000000,0.000000,0.000000,0.000000,3.362318,4.853096,-0.521279
1650625079.406439,1564.000000,1650625079.406220,0.000000,0.000000,1.000000,0.000000,0.000000,0.000000,0.000000,3.360354,4.852900,-0.553784
1650625079.506409,1565.000000,1650625079.506208,0.000000,0.000000,1.000000,0.000000,0.000000,0.000000,0.000000,3.358540,4.851617,-0.578627
1650625079.606385,1566.000000,1650625079.606184,0.000000,0.000000,1.000000,0.000000,0.000000,0.000000,0.000000,3.356869,4.851491,-0.592038
1650625079.706506,1567.000000,1650625079.706249,0.000000,0.000000,1.000000,0.000000,0.000000,0.000000,0.000000,3.355337,4.851370,-0.613808
1650625079.806360,1568.000000,1650625079.806117,0.000000,0.000000,1.000000,0.000000,0.000000,0.000000,0.000000,3.352849,4.852343,-0.628239
1650625079.906403,1569.000000,1650625079.906129,0.000000,0.000000,1.000000,0.000000,0.000000,0.000000,0.000000,3.351641,4.853259,-0.650926
1650625080.006301,1570.000000,1650625080.006097,0.000000,0.000000,1.000000,0.000000,0.000000,0.000000,0.000000,3.352735,4.854117,-0.679079
1650625080.106455,1571.000000,1650625080.106264,0.000000,0.000000,1.000000,0.000000,0.000000,0.000000,0.000000,3.353819,4.853828,-0.700336
1650625080.206542,1572.000000,1650625080.206369,0.000000,0.000000,1.000000,0.000000,0.000000,0.000000,0.000000,3.353796,4.854637,-0.719784
1650625080.306378,1573.000000,1650625080.306193,0.000000,0.000000,1.000000,0.000000,0.000000,0.000000,0.000000,3.352724,4.855392,-0.743919
1650625080.406457,1574.000000,1650625080.406195,0.000000,0.000000,1.000000,0.000000,0.000000,0.000000,0.000000,3.351752,4.855002,-0.771713
1650625080.506414,1575.000000,1650625080.506193,0.000000,0.000000,1.000000,0.000000,0.000000,0.000000,0.000000,3.350875,4.853534,-0.752173
1650625080.606495,1576.000000,1650625080.606228,0.000000,0.000000,1.000000,0.000000,0.000000,0.000000,0.000000,3.347907,4.853231,-0.734025
1650625080.706340,1577.000000,1650625080.706095,0.000000,0.000000,1.000000,0.000000,0.000000,0.000000,0.000000,3.348421,4.852940,-0.729349
1650625080.806416,1578.000000,1650625080.806201,0.000000,0.000000,1.000000,0.000000,0.000000,0.000000,0.000000,3.351133,4.852663,-0.727133
1650625080.906411,1579.000000,1650625080.906209,0.000000,0.000000,1.000000,0.000000,0.000000,0.000000,0.000000,3.355912,4.852399,-0.733738
1650625081.006381,1580.000000,1650625081.006161,0.000000,0.000000,1.000000,0.000000,0.000000,0.000000,0.000000,3.359356,4.853239,-0.747999
1650625081.106427,1581.000000,1650625081.106203,0.000000,0.000000,1.000000,0.000000,0.000000,0.000000,0.000000,3.361528,4.854030,-0.761523
1650625081.206358,1582.000000,1650625081.206170,0.000000,0.000000,1.000000,0.000000,0.000000,0.000000,0.000000,3.363579,4.855863,-0.767872
1650625081.306517,1583.000000,1650625081.306245,0.000000,0.000000,1.000000,0.000000,0.000000,0.000000,0.000000,3.364419,4.857585,-0.779430
1650625081.406426,1584.000000,1650625081.406210,0.000000,0.000000,1.000000,0.000000,0.000000,0.000000,0.000000,3.364112,4.860288,-0.777425
1650625081.506334,1585.000000,1650625081.506165,0.000000,0.000000,1.000000,0.000000,0.000000,0.000000,0.000000,3.363813,4.863910,-0.783384
1650625081.606269,1586.000000,1650625081.606097,0.000000,0.000000,1.000000,0.000000,0.000000,0.000000,0.000000,3.365703,4.867302,-0.795371
1650625081.706404,1587.000000,1650625081.706198,0.000000,0.000000,1.000000,0.000000,0.000000,0.000000,0.000000,3.367478,4.870467,-0.805871
1650625081.806425,1588.000000,1650625081.806204,0.000000,0.000000,1.000000,0.000000,0.000000,0.000000,0.000000,3.366956,4.872319,-0.804451
1650625081.906377,1589.000000,1650625081.906197,0.000000,0.000000,1.000000,0.000000,0.000000,0.000000,0.000000,3.368629,4.874017,-0.810959
1650625082.006388,1590.000000,1650625082.006200,0.000000,0.000000,1.000000,0.000000,0.000000,0.000000,0.000000,3.369100,4.875568,-0.807328
1650625082.106462,1591.000000,1650625082.106258,0.000000,0.000000,1.000000,0.000000,0.000000,0.000000,0.000000,3.369526,4.876978,-0.810112
1650625082.206359,1592.000000,1650625082.206138,0.000000,0.000000,1.000000,0.000000,0.000000,0.000000,0.000000,3.373179,4.873891,-0.776313
1650625082.306317,1593.000000,1650625082.306110,0.000000,0.000000,1.000000,0.000000,0.000000,0.000000,0.000000,3.376603,4.870928,-0.762309
1650625082.406450,1594.000000,1650625082.406238,0.000000,0.000000,1.000000,0.000000,0.000000,0.000000,0.000000,3.379801,4.869184,-0.757653
1650625082.506567,1595.000000,1650625082.506297,0.000000,0.000000,1.000000,0.000000,0.000000,0.000000,0.000000,3.389319,4.864238,-0.713593
1650625082.606445,1596.000000,1650625082.606242,0.000000,0.000000,1.000000,0.000000,0.000000,0.000000,0.000000,3.397154,4.860643,-0.690667
1650625082.706403,1597.000000,1650625082.706170,0.000000,0.000000,1.000000,0.000000,0.000000,0.000000,0.000000,3.401196,4.858338,-0.679996
1650625082.806086,1598.000000,1650625082.805889,0.000000,0.000000,1.000000,0.000000,0.000000,0.000000,0.000000,3.402735,4.858349,-0.676264
1650625082.906163,1599.000000,1650625082.905932,0.000000,0.000000,1.000000,0.000000,0.000000,0.000000,0.000000,3.406269,4.857280,-0.684841
1650625083.006391,1600.000000,1650625083.006178,0.000000,0.000000,1.000000,0.000000,0.000000,0.000000,0.000000,3.407324,4.857371,-0.695537
1650625083.106301,1601.000000,1650625083.106080,0.000000,0.000000,1.000000,0.000000,0.000000,0.000000,0.000000,3.408218,4.855288,-0.713083
1650625083.206443,1602.000000,1650625083.206217,0.000000,0.000000,1.000000,0.000000,0.000000,0.000000,0.000000,3.408963,4.854427,-0.723464
1650625083.306828,1603.000000,1650625083.306581,0.000000,0.000000,1.000000,0.000000,0.000000,0.000000,0.000000,3.408479,4.854722,-0.727758
1650625083.406456,1604.000000,1650625083.406149,0.000000,0.000000,1.000000,0.000000,0.000000,0.000000,0.000000,3.411203,4.856108,-0.735075
1650625083.506446,1605.000000,1650625083.506169,0.000000,0.000000,1.000000,0.000000,0.000000,0.000000,0.000000,3.416957,4.854160,-0.708991
1650625083.606441,1606.000000,1650625083.606204,0.000000,0.000000,1.000000,0.000000,0.000000,0.000000,0.000000,3.419020,4.853425,-0.697673
1650625083.706651,1607.000000,1650625083.706357,0.000000,0.000000,1.000000,0.000000,0.000000,0.000000,0.000000,3.421955,4.853839,-0.679577
1650625083.806341,1608.000000,1650625083.806123,0.000000,0.000000,1.000000,0.000000,0.000000,0.000000,0.000000,3.416987,4.850976,-0.628392
1650625083.906274,1609.000000,1650625083.906107,0.000000,0.000000,1.000000,0.000000,0.000000,0.000000,0.000000,3.413293,4.847203,-0.602796
1650625084.006316,1610.000000,1650625084.006055,0.000000,0.000000,1.000000,0.000000,0.000000,0.000000,0.000000,3.408639,4.845850,-0.575181
1650625084.106429,1611.000000,1650625084.106217,0.000000,0.000000,1.000000,0.000000,0.000000,0.000000,0.000000,3.403096,4.844608,-0.567442
1650625084.206455,1612.000000,1650625084.206227,0.000000,0.000000,1.000000,0.000000,0.000000,0.000000,0.000000,3.397824,4.844563,-0.569106
1650625084.306085,1613.000000,1650625084.305892,0.000000,0.000000,1.000000,0.000000,0.000000,0.000000,0.000000,3.396096,4.844557,-0.579780
1650625084.406415,1614.000000,1650625084.406189,0.000000,0.000000,1.000000,0.000000,0.000000,0.000000,0.000000,3.394455,4.846767,-0.591012
1650625084.506535,1615.000000,1650625084.506270,0.000000,0.000000,1.000000,0.000000,0.000000,0.000000,0.000000,3.392903,4.848882,-0.601944
1650625084.606378,1616.000000,1650625084.606140,0.000000,0.000000,1.000000,0.000000,0.000000,0.000000,0.000000,3.390348,4.849809,-0.622242
1650625084.706293,1617.000000,1650625084.706113,0.000000,0.000000,1.000000,0.000000,0.000000,0.000000,0.000000,3.386853,4.849609,-0.647455
1650625084.806428,1618.000000,1650625084.806182,0.000000,0.000000,1.000000,0.000000,0.000000,0.000000,0.000000,3.384661,4.849433,-0.676534
1650625084.906404,1619.000000,1650625084.906142,0.000000,0.000000,1.000000,0.000000,0.000000,0.000000,0.000000,3.381525,4.848189,-0.710077
1650625085.006533,1620.000000,1650625085.006278,0.000000,0.000000,1.000000,0.000000,0.000000,0.000000,0.000000,3.379686,4.848120,-0.743816
1650625085.106403,1621.000000,1650625085.106162,0.000000,0.000000,1.000000,0.000000,0.000000,0.000000,0.000000,3.377987,4.846979,-0.778494
1650625085.206063,1622.000000,1650625085.205827,0.000000,0.000000,1.000000,0.000000,0.000000,0.000000,0.000000,3.375332,4.848100,-0.795473
1650625085.306518,1623.000000,1650625085.306085,0.000000,0.000000,1.000000,0.000000,0.000000,0.000000,0.000000,3.372870,4.849174,-0.817217
1650625085.406025,1624.000000,1650625085.405843,0.000000,0.000000,1.000000,0.000000,0.000000,0.000000,0.000000,3.370596,4.850199,-0.839474
1650625085.506158,1625.000000,1650625085.505975,0.000000,0.000000,1.000000,0.000000,0.000000,0.000000,0.000000,3.371774,4.852264,-0.861388
1650625085.605985,1626.000000,1650625085.605788,0.000000,0.000000,1.000000,0.000000,0.000000,0.000000,0.000000,3.372938,4.855305,-0.879722
1650625085.706097,1627.000000,1650625085.705929,0.000000,0.000000,1.000000,0.000000,0.000000,0.000000,0.000000,3.372993,4.858171,-0.900244
1650625085.806123,1628.000000,1650625085.805940,0.000000,0.000000,1.000000,0.000000,0.000000,0.000000,0.000000,3.370905,4.859771,-0.925264
1650625085.906053,1629.000000,1650625085.905815,0.000000,0.000000,1.000000,0.000000,0.000000,0.000000,0.000000,3.371156,4.859080,-0.905378
