__time,/dwm1001/id_458E/pose_kf/header/seq,/dwm1001/id_458E/pose_kf/header/stamp,/dwm1001/id_458E/pose_kf/pose/orientation/pitch_deg,/dwm1001/id_458E/pose_kf/pose/orientation/roll_deg,/dwm1001/id_458E/pose_kf/pose/orientation/w,/dwm1001/id_458E/pose_kf/pose/orientation/x,/dwm1001/id_458E/pose_kf/pose/orientation/y,/dwm1001/id_458E/pose_kf/pose/orientation/yaw_deg,/dwm1001/id_458E/pose_kf/pose/orientation/z,/dwm1001/id_458E/pose_kf/pose/position/x,/dwm1001/id_458E/pose_kf/pose/position/y,/dwm1001/id_458E/pose_kf/pose/position/z
1649934063.315087,5432.000000,1649934063.314944,0.000000,0.000000,1.000000,0.000000,0.000000,0.000000,0.000000,0.938481,12.362050,-0.663116
1649934063.415021,5433.000000,1649934063.414875,0.000000,0.000000,1.000000,0.000000,0.000000,0.000000,0.000000,0.938828,12.361408,-0.661584
1649934063.515037,5434.000000,1649934063.514901,0.000000,0.000000,1.000000,0.000000,0.000000,0.000000,0.000000,0.938054,12.361917,-0.661750
1649934063.615126,5435.000000,1649934063.614985,0.000000,0.000000,1.000000,0.000000,0.000000,0.000000,0.000000,0.936223,12.363512,-0.664350
1649934063.715338,5436.000000,1649934063.715190,0.000000,0.000000,1.000000,0.000000,0.000000,0.000000,0.000000,0.934490,12.365037,-0.668474
1649934063.815633,5437.000000,1649934063.815348,0.000000,0.000000,1.000000,0.000000,0.000000,0.000000,0.000000,0.932854,12.366490,-0.671634
1649934063.914994,5438.000000,1649934063.914853,0.000000,0.000000,1.000000,0.000000,0.000000,0.000000,0.000000,0.932407,12.367869,-0.675475
1649934064.015213,5439.000000,1649934064.014989,0.000000,0.000000,1.000000,0.000000,0.000000,0.000000,0.000000,0.931993,12.368084,-0.675932
1649934064.115446,5440.000000,1649934064.115260,0.000000,0.000000,1.000000,0.000000,0.000000,0.000000,0.000000,0.931612,12.369378,-0.678785
1649934064.215246,5441.000000,1649934064.215104,0.000000,0.000000,1.000000,0.000000,0.000000,0.000000,0.000000,0.931262,12.370597,-0.681514
1649934064.314939,5442.000000,1649934064.314804,0.000000,0.000000,1.000000,0.000000,0.000000,0.000000,0.000000,0.930942,12.371743,-0.685732
1649934064.414993,5443.000000,1649934064.414853,0.000000,0.000000,1.000000,0.000000,0.000000,0.000000,0.000000,0.929561,12.372816,-0.690566
1649934064.515010,5444.000000,1649934064.514872,0.000000,0.000000,1.000000,0.000000,0.000000,0.000000,0.000000,0.928270,12.374907,-0.695985
1649934064.615877,5445.000000,1649934064.615679,0.000000,0.000000,1.000000,0.000000,0.000000,0.000000,0.000000,0.928159,12.376866,-0.701150
1649934064.715185,5446.000000,1649934064.714970,0.000000,0.000000,1.000000,0.000000,0.000000,0.000000,0.000000,0.929161,12.378693,-0.706870
1649934064.815043,5447.000000,1649934064.814864,0.000000,0.000000,1.000000,0.000000,0.000000,0.000000,0.000000,0.930123,12.380392,-0.713116
1649934064.915007,5448.000000,1649934064.914859,0.000000,0.000000,1.000000,0.000000,0.000000,0.000000,0.000000,0.931041,12.384148,-0.721470
1649934065.015379,5449.000000,1649934065.015200,0.000000,0.000000,1.000000,0.000000,0.000000,0.000000,0.000000,0.930826,12.386566,-0.726997
1649934065.115504,5450.000000,1649934065.115326,0.000000,0.000000,1.000000,0.000000,0.000000,0.000000,0.000000,0.930629,12.388805,-0.732224
1649934065.214958,5451.000000,1649934065.214823,0.000000,0.000000,1.000000,0.000000,0.000000,0.000000,0.000000,0.930449,12.390870,-0.734738
1649934065.315046,5452.000000,1649934065.314915,0.000000,0.000000,1.000000,0.000000,0.000000,0.000000,0.000000,0.931377,12.391677,-0.737874
1649934065.415400,5453.000000,1649934065.415022,0.000000,0.000000,1.000000,0.000000,0.000000,0.000000,0.000000,0.932257,12.393476,-0.739992
1649934065.514950,5454.000000,1649934065.514814,0.000000,0.000000,1.000000,0.000000,0.000000,0.000000,0.000000,0.932000,12.394030,-0.738713
1649934065.615145,5455.000000,1649934065.614972,0.000000,0.000000,1.000000,0.000000,0.000000,0.000000,0.000000,0.932849,12.394498,-0.734180
1649934065.715489,5456.000000,1649934065.715354,0.000000,0.000000,1.000000,0.000000,0.000000,0.000000,0.000000,0.933650,12.392705,-0.728955
1649934065.815162,5457.000000,1649934065.814955,0.000000,0.000000,1.000000,0.000000,0.000000,0.000000,0.000000,0.935495,12.392056,-0.726303
1649934065.914921,5458.000000,1649934065.914801,0.000000,0.000000,1.000000,0.000000,0.000000,0.000000,0.000000,0.937229,12.391402,-0.726127
1649934066.015014,5459.000000,1649934066.014877,0.000000,0.000000,1.000000,0.000000,0.000000,0.000000,0.000000,0.937764,12.390747,-0.725911
1649934066.115001,5460.000000,1649934066.114884,0.000000,0.000000,1.000000,0.000000,0.000000,0.000000,0.000000,0.938255,12.392277,-0.728884
1649934066.215465,5461.000000,1649934066.215227,0.000000,0.000000,1.000000,0.000000,0.000000,0.000000,0.000000,0.939794,12.392598,-0.732495
1649934066.314927,5462.000000,1649934066.314764,0.000000,0.000000,1.000000,0.000000,0.000000,0.000000,0.000000,0.939048,12.392867,-0.731070
1649934066.415137,5463.000000,1649934066.414979,0.000000,0.000000,1.000000,0.000000,0.000000,0.000000,0.000000,0.939418,12.391999,-0.726428
1649934066.516492,5464.000000,1649934066.516258,0.000000,0.000000,1.000000,0.000000,0.000000,0.000000,0.000000,0.938660,12.391150,-0.723549
1649934066.615101,5465.000000,1649934066.614916,0.000000,0.000000,1.000000,0.000000,0.000000,0.000000,0.000000,0.937930,12.391414,-0.723979
1649934066.714973,5466.000000,1649934066.714838,0.000000,0.000000,1.000000,0.000000,0.000000,0.000000,0.000000,0.937230,12.392731,-0.725168
1649934066.815161,5467.000000,1649934066.814984,0.000000,0.000000,1.000000,0.000000,0.000000,0.000000,0.000000,0.935471,12.393950,-0.727084
1649934066.915134,5468.000000,1649934066.914975,0.000000,0.000000,1.000000,0.000000,0.000000,0.000000,0.000000,0.933806,12.395074,-0.730503
1649934067.015584,5469.000000,1649934067.015354,0.000000,0.000000,1.000000,0.000000,0.000000,0.000000,0.000000,0.932235,12.396106,-0.736971
1649934067.114942,5470.000000,1649934067.114835,0.000000,0.000000,1.000000,0.000000,0.000000,0.000000,0.000000,0.930759,12.395960,-0.742325
1649934067.214976,5471.000000,1649934067.214855,0.000000,0.000000,1.000000,0.000000,0.000000,0.000000,0.000000,0.929376,12.396883,-0.749828
1649934067.315248,5472.000000,1649934067.315091,0.000000,0.000000,1.000000,0.000000,0.000000,0.000000,0.000000,0.929176,12.396634,-0.754544
1649934067.414997,5473.000000,1649934067.414839,0.000000,0.000000,1.000000,0.000000,0.000000,0.000000,0.000000,0.929002,12.396371,-0.759001
1649934067.514976,5474.000000,1649934067.514808,0.000000,0.000000,1.000000,0.000000,0.000000,0.000000,0.000000,0.928854,12.396096,-0.764816
1649934067.614988,5475.000000,1649934067.614828,0.000000,0.000000,1.000000,0.000000,0.000000,0.000000,0.000000,0.928729,12.396903,-0.770315
1649934067.714959,5476.000000,1649934067.714816,0.000000,0.000000,1.000000,0.000000,0.000000,0.000000,0.000000,0.927535,12.396552,-0.768247
1649934067.815343,5477.000000,1649934067.815193,0.000000,0.000000,1.000000,0.000000,0.000000,0.000000,0.000000,0.926424,12.395107,-0.762150
1649934067.915030,5478.000000,1649934067.914895,0.000000,0.000000,1.000000,0.000000,0.000000,0.000000,0.000000,0.925393,12.393725,-0.758652
1649934068.015070,5479.000000,1649934068.014876,0.000000,0.000000,1.000000,0.000000,0.000000,0.000000,0.000000,0.924442,12.393497,-0.756043
1649934068.115078,5480.000000,1649934068.114958,0.000000,0.000000,1.000000,0.000000,0.000000,0.000000,0.000000,0.923566,12.393272,-0.757522
1649934068.215071,5481.000000,1649934068.214906,0.000000,0.000000,1.000000,0.000000,0.000000,0.000000,0.000000,0.923853,12.391961,-0.754857
1649934068.315039,5482.000000,1649934068.314870,0.000000,0.000000,1.000000,0.000000,0.000000,0.000000,0.000000,0.923057,12.389627,-0.751448
1649934068.414900,5483.000000,1649934068.414789,0.000000,0.000000,1.000000,0.000000,0.000000,0.000000,0.000000,0.923420,12.386333,-0.744914
1649934068.514914,5484.000000,1649934068.514791,0.000000,0.000000,1.000000,0.000000,0.000000,0.000000,0.000000,0.922693,12.385414,-0.744264
1649934068.615196,5485.000000,1649934068.615058,0.000000,0.000000,1.000000,0.000000,0.000000,0.000000,0.000000,0.923120,12.386742,-0.746038
1649934068.715050,5486.000000,1649934068.714828,0.000000,0.000000,1.000000,0.000000,0.000000,0.000000,0.000000,0.923543,12.389099,-0.750135
1649934068.815068,5487.000000,1649934068.814931,0.000000,0.000000,1.000000,0.000000,0.000000,0.000000,0.000000,0.923961,12.390240,-0.752424
1649934068.915080,5488.000000,1649934068.914909,0.000000,0.000000,1.000000,0.000000,0.000000,0.000000,0.000000,0.924371,12.391318,-0.756202
1649934069.015505,5489.000000,1649934069.015378,0.000000,0.000000,1.000000,0.000000,0.000000,0.000000,0.000000,0.924772,12.391242,-0.757369
1649934069.115080,5490.000000,1649934069.114924,0.000000,0.000000,1.000000,0.000000,0.000000,0.000000,0.000000,0.925162,12.391167,-0.760064
1649934069.214960,5491.000000,1649934069.214839,0.000000,0.000000,1.000000,0.000000,0.000000,0.000000,0.000000,0.926630,12.392184,-0.764223
1649934069.315104,5492.000000,1649934069.314897,0.000000,0.000000,1.000000,0.000000,0.000000,0.000000,0.000000,0.926932,12.392048,-0.766554
1649934069.415355,5493.000000,1649934069.415204,0.000000,0.000000,1.000000,0.000000,0.000000,0.000000,0.000000,0.926130,12.391914,-0.769550
1649934069.515162,5494.000000,1649934069.515010,0.000000,0.000000,1.000000,0.000000,0.000000,0.000000,0.000000,0.926467,12.391783,-0.771567
1649934069.615099,5495.000000,1649934069.614956,0.000000,0.000000,1.000000,0.000000,0.000000,0.000000,0.000000,0.926790,12.391655,-0.771836
1649934069.714932,5496.000000,1649934069.714800,0.000000,0.000000,1.000000,0.000000,0.000000,0.000000,0.000000,0.927098,12.390440,-0.768818
1649934069.814993,5497.000000,1649934069.814857,0.000000,0.000000,1.000000,0.000000,0.000000,0.000000,0.000000,0.928481,12.389291,-0.761846
1649934069.915098,5498.000000,1649934069.914968,0.000000,0.000000,1.000000,0.000000,0.000000,0.000000,0.000000,0.929785,12.388210,-0.752705
1649934070.015237,5499.000000,1649934070.015089,0.000000,0.000000,1.000000,0.000000,0.000000,0.000000,0.000000,0.928831,12.388285,-0.747952
1649934070.114871,5500.000000,1649934070.114755,0.000000,0.000000,1.000000,0.000000,0.000000,0.000000,0.000000,0.927925,12.389453,-0.744192
1649934070.215035,5501.000000,1649934070.214924,0.000000,0.000000,1.000000,0.000000,0.000000,0.000000,0.000000,0.925978,12.390560,-0.741392
1649934070.314893,5502.000000,1649934070.314737,0.000000,0.000000,1.000000,0.000000,0.000000,0.000000,0.000000,0.924142,12.390516,-0.735485
1649934070.414934,5503.000000,1649934070.414807,0.000000,0.000000,1.000000,0.000000,0.000000,0.000000,0.000000,0.923509,12.388292,-0.727414
1649934070.515353,5504.000000,1649934070.515182,0.000000,0.000000,1.000000,0.000000,0.000000,0.000000,0.000000,0.924012,12.388376,-0.726148
1649934070.615703,5505.000000,1649934070.615546,0.000000,0.000000,1.000000,0.000000,0.000000,0.000000,0.000000,0.924498,12.388462,-0.725771
1649934070.714960,5506.000000,1649934070.714820,0.000000,0.000000,1.000000,0.000000,0.000000,0.000000,0.000000,0.924966,12.387457,-0.725438
1649934070.815055,5507.000000,1649934070.814906,0.000000,0.000000,1.000000,0.000000,0.000000,0.000000,0.000000,0.924324,12.386515,-0.723534
1649934070.915150,5508.000000,1649934070.914992,0.000000,0.000000,1.000000,0.000000,0.000000,0.000000,0.000000,0.923725,12.385635,-0.719319
1649934071.015366,5509.000000,1649934071.015136,0.000000,0.000000,1.000000,0.000000,0.000000,0.000000,0.000000,0.923168,12.384815,-0.716117
1649934071.115053,5510.000000,1649934071.114896,0.000000,0.000000,1.000000,0.000000,0.000000,0.000000,0.000000,0.922652,12.384055,-0.714698
1649934071.215089,5511.000000,1649934071.214956,0.000000,0.000000,1.000000,0.000000,0.000000,0.000000,0.000000,0.923265,12.383351,-0.713377
1649934071.315365,5512.000000,1649934071.315185,0.000000,0.000000,1.000000,0.000000,0.000000,0.000000,0.000000,0.922764,12.382704,-0.713764
1649934071.415063,5513.000000,1649934071.414933,0.000000,0.000000,1.000000,0.000000,0.000000,0.000000,0.000000,0.922300,12.383200,-0.714981
1649934071.515684,5514.000000,1649934071.515500,0.000000,0.000000,1.000000,0.000000,0.000000,0.000000,0.000000,0.920782,12.382595,-0.713765
1649934071.615388,5515.000000,1649934071.615152,0.000000,0.000000,1.000000,0.000000,0.000000,0.000000,0.000000,0.920452,12.383129,-0.712635
1649934071.715035,5516.000000,1649934071.714845,0.000000,0.000000,1.000000,0.000000,0.000000,0.000000,0.000000,0.920155,12.382559,-0.712394
1649934071.815171,5517.000000,1649934071.815037,0.000000,0.000000,1.000000,0.000000,0.000000,0.000000,0.000000,0.919889,12.383124,-0.713004
1649934071.915088,5518.000000,1649934071.914906,0.000000,0.000000,1.000000,0.000000,0.000000,0.000000,0.000000,0.919653,12.382581,-0.711203
1649934072.015048,5519.000000,1649934072.014883,0.000000,0.000000,1.000000,0.000000,0.000000,0.000000,0.000000,0.919445,12.380991,-0.708703
1649934072.115031,5520.000000,1649934072.114861,0.000000,0.000000,1.000000,0.000000,0.000000,0.000000,0.000000,0.918173,12.379505,-0.707955
1649934072.215125,5521.000000,1649934072.214930,0.000000,0.000000,1.000000,0.000000,0.000000,0.000000,0.000000,0.918078,12.378121,-0.706467
1649934072.315470,5522.000000,1649934072.315279,0.000000,0.000000,1.000000,0.000000,0.000000,0.000000,0.000000,0.918006,12.377927,-0.707496
1649934072.415364,5523.000000,1649934072.415201,0.000000,0.000000,1.000000,0.000000,0.000000,0.000000,0.000000,0.917954,12.377767,-0.708519
1649934072.514967,5524.000000,1649934072.514832,0.000000,0.000000,1.000000,0.000000,0.000000,0.000000,0.000000,0.919011,12.377639,-0.710338
1649934072.615319,5525.000000,1649934072.615180,0.000000,0.000000,1.000000,0.000000,0.000000,0.000000,0.000000,0.920022,12.377540,-0.709692
1649934072.714923,5526.000000,1649934072.714769,0.000000,0.000000,1.000000,0.000000,0.000000,0.000000,0.000000,0.919896,12.377467,-0.709099
1649934072.815127,5527.000000,1649934072.814959,0.000000,0.000000,1.000000,0.000000,0.000000,0.000000,0.000000,0.920874,12.376327,-0.704525
1649934072.915015,5528.000000,1649934072.914819,0.000000,0.000000,1.000000,0.000000,0.000000,0.000000,0.000000,0.921802,12.376363,-0.700975
1649934073.015559,5529.000000,1649934073.015357,0.000000,0.000000,1.000000,0.000000,0.000000,0.000000,0.000000,0.921591,12.377507,-0.700833
1649934073.115035,5530.000000,1649934073.114888,0.000000,0.000000,1.000000,0.000000,0.000000,0.000000,0.000000,0.922483,12.378606,-0.700732
1649934073.215220,5531.000000,1649934073.215055,0.000000,0.000000,1.000000,0.000000,0.000000,0.000000,0.000000,0.924416,12.380747,-0.706317
1649934073.315372,5532.000000,1649934073.315176,0.000000,0.000000,1.000000,0.000000,0.000000,0.000000,0.000000,0.926236,12.381685,-0.710088
1649934073.415711,5533.000000,1649934073.415498,0.000000,0.000000,1.000000,0.000000,0.000000,0.000000,0.000000,0.926854,12.382573,-0.710498
1649934073.515348,5534.000000,1649934073.515158,0.000000,0.000000,1.000000,0.000000,0.000000,0.000000,0.000000,0.926333,12.383411,-0.711714
1649934073.615055,5535.000000,1649934073.614864,0.000000,0.000000,1.000000,0.000000,0.000000,0.000000,0.000000,0.926920,12.384199,-0.713700
1649934073.714981,5536.000000,1649934073.714818,0.000000,0.000000,1.000000,0.000000,0.000000,0.000000,0.000000,0.926372,12.384938,-0.719648
1649934073.815053,5537.000000,1649934073.814908,0.000000,0.000000,1.000000,0.000000,0.000000,0.000000,0.000000,0.926934,12.385628,-0.724548
1649934073.915043,5538.000000,1649934073.914884,0.000000,0.000000,1.000000,0.000000,0.000000,0.000000,0.000000,0.927454,12.384090,-0.724402
1649934074.015043,5539.000000,1649934074.014870,0.000000,0.000000,1.000000,0.000000,0.000000,0.000000,0.000000,0.926843,12.384811,-0.729898
1649934074.115105,5540.000000,1649934074.114902,0.000000,0.000000,1.000000,0.000000,0.000000,0.000000,0.000000,0.926256,12.386577,-0.734348
1649934074.215330,5541.000000,1649934074.215192,0.000000,0.000000,1.000000,0.000000,0.000000,0.000000,0.000000,0.924603,12.389325,-0.742626
1649934074.314982,5542.000000,1649934074.314834,0.000000,0.000000,1.000000,0.000000,0.000000,0.000000,0.000000,0.923038,12.390813,-0.747307
1649934074.414987,5543.000000,1649934074.414849,0.000000,0.000000,1.000000,0.000000,0.000000,0.000000,0.000000,0.921562,12.392197,-0.752562
1649934074.514946,5544.000000,1649934074.514830,0.000000,0.000000,1.000000,0.000000,0.000000,0.000000,0.000000,0.921264,12.393479,-0.755134
1649934074.614981,5545.000000,1649934074.614787,0.000000,0.000000,1.000000,0.000000,0.000000,0.000000,0.000000,0.920991,12.393572,-0.753517
1649934074.715067,5546.000000,1649934074.714868,0.000000,0.000000,1.000000,0.000000,0.000000,0.000000,0.000000,0.920742,12.393632,-0.751917
1649934074.814946,5547.000000,1649934074.814794,0.000000,0.000000,1.000000,0.000000,0.000000,0.000000,0.000000,0.920514,12.392572,-0.752757
1649934074.915101,5548.000000,1649934074.914953,0.000000,0.000000,1.000000,0.000000,0.000000,0.000000,0.000000,0.918128,12.391549,-0.751101
1649934075.015326,5549.000000,1649934075.015155,0.000000,0.000000,1.000000,0.000000,0.000000,0.000000,0.000000,0.918069,12.388384,-0.744634
1649934075.115076,5550.000000,1649934075.114936,0.000000,0.000000,1.000000,0.000000,0.000000,0.000000,0.000000,0.919118,12.385385,-0.741627
1649934075.215360,5551.000000,1649934075.215217,0.000000,0.000000,1.000000,0.000000,0.000000,0.000000,0.000000,0.921212,12.383644,-0.742754
1649934075.314956,5552.000000,1649934075.314789,0.000000,0.000000,1.000000,0.000000,0.000000,0.000000,0.000000,0.923196,12.383098,-0.743815
1649934075.414932,5553.000000,1649934075.414786,0.000000,0.000000,1.000000,0.000000,0.000000,0.000000,0.000000,0.925070,12.382591,-0.743198
1649934075.515105,5554.000000,1649934075.514965,0.000000,0.000000,1.000000,0.000000,0.000000,0.000000,0.000000,0.925742,12.382124,-0.740973
1649934075.615570,5555.000000,1649934075.615332,0.000000,0.000000,1.000000,0.000000,0.000000,0.000000,0.000000,0.926368,12.381694,-0.740436
1649934075.715202,5556.000000,1649934075.715027,0.000000,0.000000,1.000000,0.000000,0.000000,0.000000,0.000000,0.926949,12.380210,-0.738294
1649934075.815627,5557.000000,1649934075.815445,0.000000,0.000000,1.000000,0.000000,0.000000,0.000000,0.000000,0.927486,12.381004,-0.741067
1649934075.915373,5558.000000,1649934075.915179,0.000000,0.000000,1.000000,0.000000,0.000000,0.000000,0.000000,0.927980,12.381768,-0.740489
1649934076.015526,5559.000000,1649934076.015316,0.000000,0.000000,1.000000,0.000000,0.000000,0.000000,0.000000,0.927342,12.381410,-0.740728
1649934076.115063,5560.000000,1649934076.114924,0.000000,0.000000,1.000000,0.000000,0.000000,0.000000,0.000000,0.927818,12.379993,-0.736107
1649934076.214941,5561.000000,1649934076.214803,0.000000,0.000000,1.000000,0.000000,0.000000,0.000000,0.000000,0.929346,12.378666,-0.730056
1649934076.315012,5562.000000,1649934076.314863,0.000000,0.000000,1.000000,0.000000,0.000000,0.000000,0.000000,0.930775,12.377430,-0.726674
1649934076.414978,5563.000000,1649934076.414840,0.000000,0.000000,1.000000,0.000000,0.000000,0.000000,0.000000,0.931015,12.376282,-0.724247
1649934076.515391,5564.000000,1649934076.515187,0.000000,0.000000,1.000000,0.000000,0.000000,0.000000,0.000000,0.931223,12.374129,-0.719515
1649934076.615461,5565.000000,1649934076.615330,0.000000,0.000000,1.000000,0.000000,0.000000,0.000000,0.000000,0.932491,12.373213,-0.719835
1649934076.714919,5566.000000,1649934076.714807,0.000000,0.000000,1.000000,0.000000,0.000000,0.000000,0.000000,0.934759,12.372376,-0.719357
1649934076.815186,5567.000000,1649934076.814996,0.000000,0.000000,1.000000,0.000000,0.000000,0.000000,0.000000,0.936875,12.373796,-0.722952
1649934076.915143,5568.000000,1649934076.914997,0.000000,0.000000,1.000000,0.000000,0.000000,0.000000,0.000000,0.938843,12.375163,-0.724804
1649934077.014959,5569.000000,1649934077.014824,0.000000,0.000000,1.000000,0.000000,0.000000,0.000000,0.000000,0.940666,12.376475,-0.726592
1649934077.115020,5570.000000,1649934077.114874,0.000000,0.000000,1.000000,0.000000,0.000000,0.000000,0.000000,0.941259,12.376638,-0.723476
1649934077.215019,5571.000000,1649934077.214869,0.000000,0.000000,1.000000,0.000000,0.000000,0.000000,0.000000,0.940689,12.376805,-0.719691
1649934077.315043,5572.000000,1649934077.314842,0.000000,0.000000,1.000000,0.000000,0.000000,0.000000,0.000000,0.940114,12.376973,-0.713658
1649934077.415680,5573.000000,1649934077.415534,0.000000,0.000000,1.000000,0.000000,0.000000,0.000000,0.000000,0.939538,12.376052,-0.702251
1649934077.515159,5574.000000,1649934077.515026,0.000000,0.000000,1.000000,0.000000,0.000000,0.000000,0.000000,0.938965,12.376284,-0.695381
1649934077.614960,5575.000000,1649934077.614839,0.000000,0.000000,1.000000,0.000000,0.000000,0.000000,0.000000,0.937307,12.376514,-0.688037
1649934077.714950,5576.000000,1649934077.714821,0.000000,0.000000,1.000000,0.000000,0.000000,0.000000,0.000000,0.936812,12.376740,-0.682668
1649934077.815053,5577.000000,1649934077.814916,0.000000,0.000000,1.000000,0.000000,0.000000,0.000000,0.000000,0.936328,12.378053,-0.683232
1649934077.915085,5578.000000,1649934077.914911,0.000000,0.000000,1.000000,0.000000,0.000000,0.000000,0.000000,0.935857,12.380388,-0.688680
1649934078.015052,5579.000000,1649934078.014869,0.000000,0.000000,1.000000,0.000000,0.000000,0.000000,0.000000,0.935400,12.380411,-0.686707
1649934078.115014,5580.000000,1649934078.114880,0.000000,0.000000,1.000000,0.000000,0.000000,0.000000,0.000000,0.933869,12.380430,-0.684063
1649934078.215220,5581.000000,1649934078.215097,0.000000,0.000000,1.000000,0.000000,0.000000,0.000000,0.000000,0.932417,12.380443,-0.683198
1649934078.315113,5582.000000,1649934078.314989,0.000000,0.000000,1.000000,0.000000,0.000000,0.000000,0.000000,0.931046,12.381543,-0.684039
1649934078.415312,5583.000000,1649934078.415184,0.000000,0.000000,1.000000,0.000000,0.000000,0.000000,0.000000,0.930845,12.382575,-0.683286
1649934078.515172,5584.000000,1649934078.515024,0.000000,0.000000,1.000000,0.000000,0.000000,0.000000,0.000000,0.929570,12.383542,-0.684231
1649934078.615120,5585.000000,1649934078.614959,0.000000,0.000000,1.000000,0.000000,0.000000,0.000000,0.000000,0.929464,12.382264,-0.680347
1649934078.715717,5586.000000,1649934078.715573,0.000000,0.000000,1.000000,0.000000,0.000000,0.000000,0.000000,0.930464,12.382138,-0.680707
1649934078.815396,5587.000000,1649934078.815217,0.000000,0.000000,1.000000,0.000000,0.000000,0.000000,0.000000,0.930324,12.383103,-0.682715
1649934078.915023,5588.000000,1649934078.914878,0.000000,0.000000,1.000000,0.000000,0.000000,0.000000,0.000000,0.929107,12.384005,-0.687107
1649934079.015481,5589.000000,1649934079.015326,0.000000,0.000000,1.000000,0.000000,0.000000,0.000000,0.000000,0.927966,12.384848,-0.691359
1649934079.114936,5590.000000,1649934079.114799,0.000000,0.000000,1.000000,0.000000,0.000000,0.000000,0.000000,0.926899,12.385630,-0.695466
1649934079.215071,5591.000000,1649934079.214881,0.000000,0.000000,1.000000,0.000000,0.000000,0.000000,0.000000,0.925905,12.386355,-0.695395
1649934079.315210,5592.000000,1649934079.315078,0.000000,0.000000,1.000000,0.000000,0.000000,0.000000,0.000000,0.924982,12.385934,-0.696151
1649934079.415105,5593.000000,1649934079.414962,0.000000,0.000000,1.000000,0.000000,0.000000,0.000000,0.000000,0.924128,12.386611,-0.697700
1649934079.515484,5594.000000,1649934079.515286,0.000000,0.000000,1.000000,0.000000,0.000000,0.000000,0.000000,0.923341,12.386146,-0.693554
1649934079.615162,5595.000000,1649934079.615003,0.000000,0.000000,1.000000,0.000000,0.000000,0.000000,0.000000,0.922619,12.385692,-0.693628
1649934079.715003,5596.000000,1649934079.714839,0.000000,0.000000,1.000000,0.000000,0.000000,0.000000,0.000000,0.920869,12.385253,-0.694523
1649934079.815432,5597.000000,1649934079.815254,0.000000,0.000000,1.000000,0.000000,0.000000,0.000000,0.000000,0.919242,12.385918,-0.698625
1649934079.914950,5598.000000,1649934079.914828,0.000000,0.000000,1.000000,0.000000,0.000000,0.000000,0.000000,0.918824,12.386537,-0.703376
1649934080.015047,5599.000000,1649934080.014890,0.000000,0.000000,1.000000,0.000000,0.000000,0.000000,0.000000,0.917369,12.387110,-0.708743
1649934080.115229,5600.000000,1649934080.115014,0.000000,0.000000,1.000000,0.000000,0.000000,0.000000,0.000000,0.916026,12.387638,-0.711465
1649934080.214984,5601.000000,1649934080.214846,0.000000,0.000000,1.000000,0.000000,0.000000,0.000000,0.000000,0.913701,12.387034,-0.712451
1649934080.315166,5602.000000,1649934080.314971,0.000000,0.000000,1.000000,0.000000,0.000000,0.000000,0.000000,0.911543,12.387541,-0.714190
1649934080.415073,5603.000000,1649934080.414942,0.000000,0.000000,1.000000,0.000000,0.000000,0.000000,0.000000,0.910639,12.386919,-0.716649
1649934080.514936,5604.000000,1649934080.514806,0.000000,0.000000,1.000000,0.000000,0.000000,0.000000,0.000000,0.908738,12.387411,-0.721408
1649934080.615030,5605.000000,1649934080.614905,0.000000,0.000000,1.000000,0.000000,0.000000,0.000000,0.000000,0.909171,12.388956,-0.729174
1649934080.714993,5606.000000,1649934080.714885,0.000000,0.000000,1.000000,0.000000,0.000000,0.000000,0.000000,0.910715,12.390402,-0.734168
1649934080.814966,5607.000000,1649934080.814834,0.000000,0.000000,1.000000,0.000000,0.000000,0.000000,0.000000,0.912212,12.390660,-0.736495
1649934080.915090,5608.000000,1649934080.914935,0.000000,0.000000,1.000000,0.000000,0.000000,0.000000,0.000000,0.913658,12.390886,-0.739487
1649934081.015070,5609.000000,1649934081.014935,0.000000,0.000000,1.000000,0.000000,0.000000,0.000000,0.000000,0.916139,12.389992,-0.737468
1649934081.114974,5610.000000,1649934081.114835,0.000000,0.000000,1.000000,0.000000,0.000000,0.000000,0.000000,0.917410,12.388042,-0.734679
1649934081.214955,5611.000000,1649934081.214840,0.000000,0.000000,1.000000,0.000000,0.000000,0.000000,0.000000,0.919711,12.385100,-0.724705
1649934081.315119,5612.000000,1649934081.314921,0.000000,0.000000,1.000000,0.000000,0.000000,0.000000,0.000000,0.921889,12.383412,-0.716726
1649934081.415699,5613.000000,1649934081.415471,0.000000,0.000000,1.000000,0.000000,0.000000,0.000000,0.000000,0.923944,12.381823,-0.713901
1649934081.515656,5614.000000,1649934081.515499,0.000000,0.000000,1.000000,0.000000,0.000000,0.000000,0.000000,0.924785,12.379243,-0.708769
1649934081.615526,5615.000000,1649934081.615254,0.000000,0.000000,1.000000,0.000000,0.000000,0.000000,0.000000,0.926658,12.377913,-0.707078
1649934081.715400,5616.000000,1649934081.715250,0.000000,0.000000,1.000000,0.000000,0.000000,0.000000,0.000000,0.929501,12.378860,-0.709498
1649934081.815427,5617.000000,1649934081.815266,0.000000,0.000000,1.000000,0.000000,0.000000,0.000000,0.000000,0.929982,12.378683,-0.711019
1649934081.915353,5618.000000,1649934081.915193,0.000000,0.000000,1.000000,0.000000,0.000000,0.000000,0.000000,0.930411,12.378533,-0.714095
1649934082.015391,5619.000000,1649934082.015173,0.000000,0.000000,1.000000,0.000000,0.000000,0.000000,0.000000,0.929700,12.379500,-0.719464
1649934082.115430,5620.000000,1649934082.115209,0.000000,0.000000,1.000000,0.000000,0.000000,0.000000,0.000000,0.929006,12.380427,-0.722993
1649934082.215832,5621.000000,1649934082.215650,0.000000,0.000000,1.000000,0.000000,0.000000,0.000000,0.000000,0.929421,12.382403,-0.727169
1649934082.315345,5622.000000,1649934082.315176,0.000000,0.000000,1.000000,0.000000,0.000000,0.000000,0.000000,0.928704,12.383185,-0.728733
1649934082.415335,5623.000000,1649934082.415157,0.000000,0.000000,1.000000,0.000000,0.000000,0.000000,0.000000,0.929101,12.383924,-0.728597
1649934082.515379,5624.000000,1649934082.515188,0.000000,0.000000,1.000000,0.000000,0.000000,0.000000,0.000000,0.929460,12.383530,-0.730056
1649934082.615375,5625.000000,1649934082.615227,0.000000,0.000000,1.000000,0.000000,0.000000,0.000000,0.000000,0.929783,12.384248,-0.732237
1649934082.715065,5626.000000,1649934082.714907,0.000000,0.000000,1.000000,0.000000,0.000000,0.000000,0.000000,0.930073,12.383833,-0.732690
1649934082.815217,5627.000000,1649934082.815061,0.000000,0.000000,1.000000,0.000000,0.000000,0.000000,0.000000,0.930330,12.383439,-0.730677
1649934082.915349,5628.000000,1649934082.915125,0.000000,0.000000,1.000000,0.000000,0.000000,0.000000,0.000000,0.931648,12.383067,-0.729530
1649934083.015647,5629.000000,1649934083.015465,0.000000,0.000000,1.000000,0.000000,0.000000,0.000000,0.000000,0.930694,12.382715,-0.726795
1649934083.115205,5630.000000,1649934083.115064,0.000000,0.000000,1.000000,0.000000,0.000000,0.000000,0.000000,0.930867,12.382385,-0.725770
1649934083.215048,5631.000000,1649934083.214839,0.000000,0.000000,1.000000,0.000000,0.000000,0.000000,0.000000,0.931015,12.382076,-0.723161
1649934083.314965,5632.000000,1649934083.314850,0.000000,0.000000,1.000000,0.000000,0.000000,0.000000,0.000000,0.930051,12.382878,-0.725488
1649934083.415049,5633.000000,1649934083.414905,0.000000,0.000000,1.000000,0.000000,0.000000,0.000000,0.000000,0.929129,12.384728,-0.730130
1649934083.515253,5634.000000,1649934083.515089,0.000000,0.000000,1.000000,0.000000,0.000000,0.000000,0.000000,0.929340,12.385382,-0.731342
1649934083.615378,5635.000000,1649934083.615231,0.000000,0.000000,1.000000,0.000000,0.000000,0.000000,0.000000,0.929532,12.385993,-0.732484
1649934083.715467,5636.000000,1649934083.715288,0.000000,0.000000,1.000000,0.000000,0.000000,0.000000,0.000000,0.929706,12.384383,-0.729528
1649934083.815592,5637.000000,1649934083.815418,0.000000,0.000000,1.000000,0.000000,0.000000,0.000000,0.000000,0.930954,12.383948,-0.730709
1649934083.915402,5638.000000,1649934083.915198,0.000000,0.000000,1.000000,0.000000,0.000000,0.000000,0.000000,0.931032,12.385716,-0.735051
1649934084.015260,5639.000000,1649934084.015097,0.000000,0.000000,1.000000,0.000000,0.000000,0.000000,0.000000,0.931095,12.386291,-0.732745
1649934084.115008,5640.000000,1649934084.114876,0.000000,0.000000,1.000000,0.000000,0.000000,0.000000,0.000000,0.931144,12.385736,-0.732126
1649934084.215341,5641.000000,1649934084.215170,0.000000,0.000000,1.000000,0.000000,0.000000,0.000000,0.000000,0.931180,12.386296,-0.731516
1649934084.315472,5642.000000,1649934084.315198,0.000000,0.000000,1.000000,0.000000,0.000000,0.000000,0.000000,0.931206,12.385728,-0.727690
1649934084.415407,5643.000000,1649934084.415214,0.000000,0.000000,1.000000,0.000000,0.000000,0.000000,0.000000,0.931221,12.384095,-0.720785
1649934084.515359,5644.000000,1649934084.515189,0.000000,0.000000,1.000000,0.000000,0.000000,0.000000,0.000000,0.931226,12.382552,-0.711744
1649934084.615418,5645.000000,1649934084.615222,0.000000,0.000000,1.000000,0.000000,0.000000,0.000000,0.000000,0.930133,12.382188,-0.707120
1649934084.715146,5646.000000,1649934084.714990,0.000000,0.000000,1.000000,0.000000,0.000000,0.000000,0.000000,0.928005,12.381850,-0.706740
1649934084.815046,5647.000000,1649934084.814896,0.000000,0.000000,1.000000,0.000000,0.000000,0.000000,0.000000,0.925996,12.381538,-0.706403
1649934084.915005,5648.000000,1649934084.914867,0.000000,0.000000,1.000000,0.000000,0.000000,0.000000,0.000000,0.926286,12.380159,-0.707718
1649934085.015007,5649.000000,1649934085.014862,0.000000,0.000000,1.000000,0.000000,0.000000,0.000000,0.000000,0.926567,12.379957,-0.711421
1649934085.115061,5650.000000,1649934085.114856,0.000000,0.000000,1.000000,0.000000,0.000000,0.000000,0.000000,0.926840,12.380868,-0.716604
1649934085.215257,5651.000000,1649934085.215034,0.000000,0.000000,1.000000,0.000000,0.000000,0.000000,0.000000,0.926012,12.381737,-0.720777
1649934085.315335,5652.000000,1649934085.315178,0.000000,0.000000,1.000000,0.000000,0.000000,0.000000,0.000000,0.925237,12.383654,-0.727200
1649934085.415927,5653.000000,1649934085.415668,0.000000,0.000000,1.000000,0.000000,0.000000,0.000000,0.000000,0.925603,12.385464,-0.737384
1649934085.515383,5654.000000,1649934085.515105,0.000000,0.000000,1.000000,0.000000,0.000000,0.000000,0.000000,0.925958,12.386079,-0.743902
1649934085.615473,5655.000000,1649934085.615208,0.000000,0.000000,1.000000,0.000000,0.000000,0.000000,0.000000,0.926299,12.387741,-0.747700
1649934085.715012,5656.000000,1649934085.714813,0.000000,0.000000,1.000000,0.000000,0.000000,0.000000,0.000000,0.926626,12.388209,-0.750494
1649934085.815138,5657.000000,1649934085.814982,0.000000,0.000000,1.000000,0.000000,0.000000,0.000000,0.000000,0.926939,12.388637,-0.753936
1649934085.915030,5658.000000,1649934085.914880,0.000000,0.000000,1.000000,0.000000,0.000000,0.000000,0.000000,0.927237,12.387936,-0.751543
1649934086.015110,5659.000000,1649934086.014966,0.000000,0.000000,1.000000,0.000000,0.000000,0.000000,0.000000,0.929701,12.388353,-0.753235
1649934086.115186,5660.000000,1649934086.114969,0.000000,0.000000,1.000000,0.000000,0.000000,0.000000,0.000000,0.933114,12.388734,-0.754813
1649934086.215498,5661.000000,1649934086.215322,0.000000,0.000000,1.000000,0.000000,0.000000,0.000000,0.000000,0.935234,12.389082,-0.752249
1649934086.315973,5662.000000,1649934086.315738,0.000000,0.000000,1.000000,0.000000,0.000000,0.000000,0.000000,0.936125,12.388307,-0.748942
1649934086.415503,5663.000000,1649934086.415361,0.000000,0.000000,1.000000,0.000000,0.000000,0.000000,0.000000,0.938033,12.388655,-0.749769
1649934086.515667,5664.000000,1649934086.515489,0.000000,0.000000,1.000000,0.000000,0.000000,0.000000,0.000000,0.938719,12.388973,-0.748916
1649934086.615581,5665.000000,1649934086.615377,0.000000,0.000000,1.000000,0.000000,0.000000,0.000000,0.000000,0.939338,12.388173,-0.746455
1649934086.715409,5666.000000,1649934086.715199,0.000000,0.000000,1.000000,0.000000,0.000000,0.000000,0.000000,0.938803,12.388499,-0.747295
1649934086.815365,5667.000000,1649934086.815198,0.000000,0.000000,1.000000,0.000000,0.000000,0.000000,0.000000,0.938271,12.388799,-0.746464
1649934086.915376,5668.000000,1649934086.915234,0.000000,0.000000,1.000000,0.000000,0.000000,0.000000,0.000000,0.936655,12.389073,-0.745643
1649934087.015737,5669.000000,1649934087.015474,0.000000,0.000000,1.000000,0.000000,0.000000,0.000000,0.000000,0.934020,12.390414,-0.748868
1649934087.115465,5670.000000,1649934087.115242,0.000000,0.000000,1.000000,0.000000,0.000000,0.000000,0.000000,0.932611,12.391669,-0.751939
1649934087.215256,5671.000000,1649934087.215141,0.000000,0.000000,1.000000,0.000000,0.000000,0.000000,0.000000,0.932367,12.393930,-0.758083
1649934087.315356,5672.000000,1649934087.315191,0.000000,0.000000,1.000000,0.000000,0.000000,0.000000,0.000000,0.931044,12.394956,-0.758296
1649934087.415363,5673.000000,1649934087.415133,0.000000,0.000000,1.000000,0.000000,0.000000,0.000000,0.000000,0.930886,12.394810,-0.756044
1649934087.515520,5674.000000,1649934087.515341,0.000000,0.000000,1.000000,0.000000,0.000000,0.000000,0.000000,0.930740,12.393560,-0.753046
1649934087.615265,5675.000000,1649934087.615160,0.000000,0.000000,1.000000,0.000000,0.000000,0.000000,0.000000,0.930606,12.392361,-0.752562
1649934087.715064,5676.000000,1649934087.714893,0.000000,0.000000,1.000000,0.000000,0.000000,0.000000,0.000000,0.931572,12.391215,-0.750462
1649934087.815516,5677.000000,1649934087.815337,0.000000,0.000000,1.000000,0.000000,0.000000,0.000000,0.000000,0.931396,12.390123,-0.750848
1649934087.914977,5678.000000,1649934087.914838,0.000000,0.000000,1.000000,0.000000,0.000000,0.000000,0.000000,0.931230,12.389087,-0.750393
1649934088.014941,5679.000000,1649934088.014743,0.000000,0.000000,1.000000,0.000000,0.000000,0.000000,0.000000,0.932165,12.388107,-0.751553
1649934088.115150,5680.000000,1649934088.114967,0.000000,0.000000,1.000000,0.000000,0.000000,0.000000,0.000000,0.933047,12.387182,-0.751841
1649934088.215004,5681.000000,1649934088.214884,0.000000,0.000000,1.000000,0.000000,0.000000,0.000000,0.000000,0.932787,12.385223,-0.748067
1649934088.314970,5682.000000,1649934088.314852,0.000000,0.000000,1.000000,0.000000,0.000000,0.000000,0.000000,0.933627,12.385562,-0.748467
1649934088.414982,5683.000000,1649934088.414865,0.000000,0.000000,1.000000,0.000000,0.000000,0.000000,0.000000,0.934417,12.385892,-0.751260
1649934088.515130,5684.000000,1649934088.514972,0.000000,0.000000,1.000000,0.000000,0.000000,0.000000,0.000000,0.934064,12.386212,-0.754731
1649934088.615856,5685.000000,1649934088.615698,0.000000,0.000000,1.000000,0.000000,0.000000,0.000000,0.000000,0.934816,12.387611,-0.760461
1649934088.715267,5686.000000,1649934088.715135,0.000000,0.000000,1.000000,0.000000,0.000000,0.000000,0.000000,0.935517,12.386755,-0.754640
1649934088.815278,5687.000000,1649934088.815152,0.000000,0.000000,1.000000,0.000000,0.000000,0.000000,0.000000,0.936171,12.385950,-0.749842
1649934088.915230,5688.000000,1649934088.915101,0.000000,0.000000,1.000000,0.000000,0.000000,0.000000,0.000000,0.936777,12.385195,-0.744422
1649934089.014997,5689.000000,1649934089.014864,0.000000,0.000000,1.000000,0.000000,0.000000,0.000000,0.000000,0.938428,12.383400,-0.738414
1649934089.115218,5690.000000,1649934089.115030,0.000000,0.000000,1.000000,0.000000,0.000000,0.000000,0.000000,0.939972,12.380625,-0.730240
1649934089.215422,5691.000000,1649934089.215222,0.000000,0.000000,1.000000,0.000000,0.000000,0.000000,0.000000,0.941410,12.379114,-0.722418
1649934089.315387,5692.000000,1649934089.315238,0.000000,0.000000,1.000000,0.000000,0.000000,0.000000,0.000000,0.941655,12.377710,-0.715755
1649934089.415459,5693.000000,1649934089.415312,0.000000,0.000000,1.000000,0.000000,0.000000,0.000000,0.000000,0.941864,12.377501,-0.713438
1649934089.515044,5694.000000,1649934089.514913,0.000000,0.000000,1.000000,0.000000,0.000000,0.000000,0.000000,0.940947,12.376240,-0.709650
1649934089.615063,5695.000000,1649934089.614901,0.000000,0.000000,1.000000,0.000000,0.000000,0.000000,0.000000,0.941152,12.376167,-0.710099
1649934089.715388,5696.000000,1649934089.715193,0.000000,0.000000,1.000000,0.000000,0.000000,0.000000,0.000000,0.942417,12.375037,-0.708966
1649934089.815463,5697.000000,1649934089.815240,0.000000,0.000000,1.000000,0.000000,0.000000,0.000000,0.000000,0.942502,12.373998,-0.706315
1649934089.915091,5698.000000,1649934089.914914,0.000000,0.000000,1.000000,0.000000,0.000000,0.000000,0.000000,0.941472,12.371956,-0.703823
1649934090.015107,5699.000000,1649934090.014947,0.000000,0.000000,1.000000,0.000000,0.000000,0.000000,0.000000,0.941572,12.371153,-0.701485
1649934090.115197,5700.000000,1649934090.115044,0.000000,0.000000,1.000000,0.000000,0.000000,0.000000,0.000000,0.941651,12.370430,-0.700909
1649934090.215976,5701.000000,1649934090.215822,0.000000,0.000000,1.000000,0.000000,0.000000,0.000000,0.000000,0.941711,12.369783,-0.697991
1649934090.315454,5702.000000,1649934090.315282,0.000000,0.000000,1.000000,0.000000,0.000000,0.000000,0.000000,0.940664,12.369207,-0.692022
1649934090.415335,5703.000000,1649934090.415140,0.000000,0.000000,1.000000,0.000000,0.000000,0.000000,0.000000,0.939663,12.368700,-0.688777
1649934090.515706,5704.000000,1649934090.515508,0.000000,0.000000,1.000000,0.000000,0.000000,0.000000,0.000000,0.938711,12.369346,-0.684924
1649934090.615404,5705.000000,1649934090.615264,0.000000,0.000000,1.000000,0.000000,0.000000,0.000000,0.000000,0.937808,12.368899,-0.680490
1649934090.715425,5706.000000,1649934090.715260,0.000000,0.000000,1.000000,0.000000,0.000000,0.000000,0.000000,0.936954,12.369598,-0.681150
1649934090.815403,5707.000000,1649934090.815271,0.000000,0.000000,1.000000,0.000000,0.000000,0.000000,0.000000,0.935060,12.371376,-0.685079
1649934090.915445,5708.000000,1649934090.915303,0.000000,0.000000,1.000000,0.000000,0.000000,0.000000,0.000000,0.933277,12.373078,-0.688912
1649934091.015428,5709.000000,1649934091.015269,0.000000,0.000000,1.000000,0.000000,0.000000,0.000000,0.000000,0.930514,12.374700,-0.690224
1649934091.115395,5710.000000,1649934091.115231,0.000000,0.000000,1.000000,0.000000,0.000000,0.000000,0.000000,0.927924,12.375152,-0.692337
1649934091.215440,5711.000000,1649934091.215221,0.000000,0.000000,1.000000,0.000000,0.000000,0.000000,0.000000,0.925503,12.375585,-0.691988
1649934091.315452,5712.000000,1649934091.315251,0.000000,0.000000,1.000000,0.000000,0.000000,0.000000,0.000000,0.924339,12.375998,-0.693308
1649934091.415407,5713.000000,1649934091.415205,0.000000,0.000000,1.000000,0.000000,0.000000,0.000000,0.000000,0.924365,12.375301,-0.688966
1649934091.515414,5714.000000,1649934091.515238,0.000000,0.000000,1.000000,0.000000,0.000000,0.000000,0.000000,0.923334,12.375738,-0.687262
1649934091.615056,5715.000000,1649934091.614906,0.000000,0.000000,1.000000,0.000000,0.000000,0.000000,0.000000,0.922393,12.376153,-0.686477
1649934091.715048,5716.000000,1649934091.714917,0.000000,0.000000,1.000000,0.000000,0.000000,0.000000,0.000000,0.922631,12.375457,-0.684960
1649934091.815042,5717.000000,1649934091.814935,0.000000,0.000000,1.000000,0.000000,0.000000,0.000000,0.000000,0.923980,12.374802,-0.683549
1649934091.914932,5718.000000,1649934091.914769,0.000000,0.000000,1.000000,0.000000,0.000000,0.000000,0.000000,0.925282,12.375279,-0.687079
1649934092.015578,5719.000000,1649934092.015353,0.000000,0.000000,1.000000,0.000000,0.000000,0.000000,0.000000,0.926535,12.376825,-0.691310
1649934092.115077,5720.000000,1649934092.114954,0.000000,0.000000,1.000000,0.000000,0.000000,0.000000,0.000000,0.926645,12.378284,-0.696205
1649934092.215444,5721.000000,1649934092.215255,0.000000,0.000000,1.000000,0.000000,0.000000,0.000000,0.000000,0.927855,12.379658,-0.697696
1649934092.315430,5722.000000,1649934092.315243,0.000000,0.000000,1.000000,0.000000,0.000000,0.000000,0.000000,0.929010,12.380948,-0.698336
1649934092.415228,5723.000000,1649934092.415073,0.000000,0.000000,1.000000,0.000000,0.000000,0.000000,0.000000,0.927927,12.382153,-0.696544
1649934092.515722,5724.000000,1649934092.515573,0.000000,0.000000,1.000000,0.000000,0.000000,0.000000,0.000000,0.926912,12.381096,-0.689195
1649934092.615277,5725.000000,1649934092.615152,0.000000,0.000000,1.000000,0.000000,0.000000,0.000000,0.000000,0.927055,12.381175,-0.687010
1649934092.715858,5726.000000,1649934092.715611,0.000000,0.000000,1.000000,0.000000,0.000000,0.000000,0.000000,0.926110,12.383418,-0.689781
1649934092.815084,5727.000000,1649934092.814952,0.000000,0.000000,1.000000,0.000000,0.000000,0.000000,0.000000,0.926321,12.383341,-0.688434
1649934092.915036,5728.000000,1649934092.914906,0.000000,0.000000,1.000000,0.000000,0.000000,0.000000,0.000000,0.926531,12.383251,-0.687166
1649934093.014952,5729.000000,1649934093.014824,0.000000,0.000000,1.000000,0.000000,0.000000,0.000000,0.000000,0.926741,12.383150,-0.683557
1649934093.115216,5730.000000,1649934093.115065,0.000000,0.000000,1.000000,0.000000,0.000000,0.000000,0.000000,0.928038,12.383040,-0.681738
1649934093.215010,5731.000000,1649934093.214851,0.000000,0.000000,1.000000,0.000000,0.000000,0.000000,0.000000,0.930360,12.381833,-0.675994
1649934093.315455,5732.000000,1649934093.315158,0.000000,0.000000,1.000000,0.000000,0.000000,0.000000,0.000000,0.932552,12.380683,-0.672942
1649934093.415703,5733.000000,1649934093.415482,0.000000,0.000000,1.000000,0.000000,0.000000,0.000000,0.000000,0.933524,12.379591,-0.666027
1649934093.515547,5734.000000,1649934093.515366,0.000000,0.000000,1.000000,0.000000,0.000000,0.000000,0.000000,0.935522,12.378558,-0.661865
1649934093.615432,5735.000000,1649934093.615248,0.000000,0.000000,1.000000,0.000000,0.000000,0.000000,0.000000,0.937393,12.376494,-0.659543
1649934093.715526,5736.000000,1649934093.715373,0.000000,0.000000,1.000000,0.000000,0.000000,0.000000,0.000000,0.938048,12.375641,-0.658183
1649934093.815413,5737.000000,1649934093.815224,0.000000,0.000000,1.000000,0.000000,0.000000,0.000000,0.000000,0.937555,12.375935,-0.657745
1649934093.915204,5738.000000,1649934093.915057,0.000000,0.000000,1.000000,0.000000,0.000000,0.000000,0.000000,0.937067,12.376224,-0.658997
1649934094.015028,5739.000000,1649934094.014895,0.000000,0.000000,1.000000,0.000000,0.000000,0.000000,0.000000,0.936588,12.377595,-0.663478
1649934094.115124,5740.000000,1649934094.114919,0.000000,0.000000,1.000000,0.000000,0.000000,0.000000,0.000000,0.937211,12.377804,-0.665405
1649934094.215250,5741.000000,1649934094.215133,0.000000,0.000000,1.000000,0.000000,0.000000,0.000000,0.000000,0.937783,12.378004,-0.668906
1649934094.315195,5742.000000,1649934094.314997,0.000000,0.000000,1.000000,0.000000,0.000000,0.000000,0.000000,0.936126,12.379286,-0.673911
1649934094.415448,5743.000000,1649934094.415260,0.000000,0.000000,1.000000,0.000000,0.000000,0.000000,0.000000,0.935638,12.379404,-0.677124
1649934094.515413,5744.000000,1649934094.515260,0.000000,0.000000,1.000000,0.000000,0.000000,0.000000,0.000000,0.936258,12.379514,-0.683448
1649934094.615242,5745.000000,1649934094.615103,0.000000,0.000000,1.000000,0.000000,0.000000,0.000000,0.000000,0.936835,12.380705,-0.688716
1649934094.715088,5746.000000,1649934094.714954,0.000000,0.000000,1.000000,0.000000,0.000000,0.000000,0.000000,0.936278,12.380734,-0.692154
1649934094.815075,5747.000000,1649934094.814936,0.000000,0.000000,1.000000,0.000000,0.000000,0.000000,0.000000,0.935742,12.379665,-0.693023
1649934094.915073,5748.000000,1649934094.914934,0.000000,0.000000,1.000000,0.000000,0.000000,0.000000,0.000000,0.934138,12.380833,-0.696265
1649934095.015739,5749.000000,1649934095.015564,0.000000,0.000000,1.000000,0.000000,0.000000,0.000000,0.000000,0.932621,12.380840,-0.693715
1649934095.114992,5750.000000,1649934095.114857,0.000000,0.000000,1.000000,0.000000,0.000000,0.000000,0.000000,0.931189,12.379751,-0.692063
1649934095.214948,5751.000000,1649934095.214818,0.000000,0.000000,1.000000,0.000000,0.000000,0.000000,0.000000,0.929843,12.377629,-0.681598
1649934095.315025,5752.000000,1649934095.314873,0.000000,0.000000,1.000000,0.000000,0.000000,0.000000,0.000000,0.929672,12.374537,-0.671565
1649934095.415076,5753.000000,1649934095.414941,0.000000,0.000000,1.000000,0.000000,0.000000,0.000000,0.000000,0.929522,12.372718,-0.661963
1649934095.515137,5754.000000,1649934095.515018,0.000000,0.000000,1.000000,0.000000,0.000000,0.000000,0.000000,0.929391,12.371018,-0.656016
1649934095.615354,5755.000000,1649934095.615189,0.000000,0.000000,1.000000,0.000000,0.000000,0.000000,0.000000,0.928188,12.369434,-0.651971
1649934095.715379,5756.000000,1649934095.715190,0.000000,0.000000,1.000000,0.000000,0.000000,0.000000,0.000000,0.925974,12.367962,-0.649756
1649934095.815658,5757.000000,1649934095.815432,0.000000,0.000000,1.000000,0.000000,0.000000,0.000000,0.000000,0.923901,12.368783,-0.652526
1649934095.915356,5758.000000,1649934095.915180,0.000000,0.000000,1.000000,0.000000,0.000000,0.000000,0.000000,0.923057,12.368493,-0.652815
1649934096.015547,5759.000000,1649934096.015349,0.000000,0.000000,1.000000,0.000000,0.000000,0.000000,0.000000,0.923376,12.369336,-0.657170
1649934096.115431,5760.000000,1649934096.115243,0.000000,0.000000,1.000000,0.000000,0.000000,0.000000,0.000000,0.923702,12.370153,-0.660581
1649934096.215319,5761.000000,1649934096.215163,0.000000,0.000000,1.000000,0.000000,0.000000,0.000000,0.000000,0.925123,12.370943,-0.666304
1649934096.315015,5762.000000,1649934096.314879,0.000000,0.000000,1.000000,0.000000,0.000000,0.000000,0.000000,0.925392,12.371705,-0.671814
1649934096.415164,5763.000000,1649934096.414977,0.000000,0.000000,1.000000,0.000000,0.000000,0.000000,0.000000,0.926751,12.373525,-0.677112
1649934096.515393,5764.000000,1649934096.515254,0.000000,0.000000,1.000000,0.000000,0.000000,0.000000,0.000000,0.926954,12.374161,-0.678163
1649934096.615551,5765.000000,1649934096.615323,0.000000,0.000000,1.000000,0.000000,0.000000,0.000000,0.000000,0.926065,12.374764,-0.680783
1649934096.715307,5766.000000,1649934096.715147,0.000000,0.000000,1.000000,0.000000,0.000000,0.000000,0.000000,0.926324,12.375334,-0.686516
1649934096.815012,5767.000000,1649934096.814875,0.000000,0.000000,1.000000,0.000000,0.000000,0.000000,0.000000,0.925488,12.375871,-0.692002
1649934096.915116,5768.000000,1649934096.914936,0.000000,0.000000,1.000000,0.000000,0.000000,0.000000,0.000000,0.924709,12.376376,-0.700468
1649934097.015059,5769.000000,1649934097.014929,0.000000,0.000000,1.000000,0.000000,0.000000,0.000000,0.000000,0.923985,12.377939,-0.706942
1649934097.115174,5770.000000,1649934097.114981,0.000000,0.000000,1.000000,0.000000,0.000000,0.000000,0.000000,0.923315,12.377226,-0.708269
1649934097.215086,5771.000000,1649934097.214967,0.000000,0.000000,1.000000,0.000000,0.000000,0.000000,0.000000,0.922697,12.376546,-0.704656
1649934097.315161,5772.000000,1649934097.315003,0.000000,0.000000,1.000000,0.000000,0.000000,0.000000,0.000000,0.922129,12.375899,-0.700343
1649934097.415309,5773.000000,1649934097.415151,0.000000,0.000000,1.000000,0.000000,0.000000,0.000000,0.000000,0.922700,12.375285,-0.697785
1649934097.515123,5774.000000,1649934097.514988,0.000000,0.000000,1.000000,0.000000,0.000000,0.000000,0.000000,0.923255,12.375796,-0.697726
1649934097.615099,5775.000000,1649934097.614966,0.000000,0.000000,1.000000,0.000000,0.000000,0.000000,0.000000,0.922702,12.375186,-0.692806
1649934097.715277,5776.000000,1649934097.715096,0.000000,0.000000,1.000000,0.000000,0.000000,0.000000,0.000000,0.923282,12.375701,-0.691296
1649934097.815501,5777.000000,1649934097.815306,0.000000,0.000000,1.000000,0.000000,0.000000,0.000000,0.000000,0.923841,12.377277,-0.695481
1649934097.915483,5778.000000,1649934097.915311,0.000000,0.000000,1.000000,0.000000,0.000000,0.000000,0.000000,0.925469,12.377671,-0.697866
1649934098.015209,5779.000000,1649934098.015063,0.000000,0.000000,1.000000,0.000000,0.000000,0.000000,0.000000,0.927010,12.378037,-0.700940
1649934098.115199,5780.000000,1649934098.115056,0.000000,0.000000,1.000000,0.000000,0.000000,0.000000,0.000000,0.928465,12.377285,-0.697413
1649934098.215401,5781.000000,1649934098.215238,0.000000,0.000000,1.000000,0.000000,0.000000,0.000000,0.000000,0.928744,12.375478,-0.693204
1649934098.315186,5782.000000,1649934098.315067,0.000000,0.000000,1.000000,0.000000,0.000000,0.000000,0.000000,0.929000,12.374862,-0.690766
1649934098.415061,5783.000000,1649934098.414926,0.000000,0.000000,1.000000,0.000000,0.000000,0.000000,0.000000,0.929235,12.374282,-0.689228
1649934098.515007,5784.000000,1649934098.514876,0.000000,0.000000,1.000000,0.000000,0.000000,0.000000,0.000000,0.928358,12.373739,-0.686135
1649934098.614974,5785.000000,1649934098.614848,0.000000,0.000000,1.000000,0.000000,0.000000,0.000000,0.000000,0.927524,12.374321,-0.687201
1649934098.715039,5786.000000,1649934098.714913,0.000000,0.000000,1.000000,0.000000,0.000000,0.000000,0.000000,0.926734,12.373785,-0.686612
1649934098.815219,5787.000000,1649934098.815038,0.000000,0.000000,1.000000,0.000000,0.000000,0.000000,0.000000,0.927078,12.373284,-0.686048
1649934098.915527,5788.000000,1649934098.915378,0.000000,0.000000,1.000000,0.000000,0.000000,0.000000,0.000000,0.927403,12.371727,-0.685509
1649934099.015218,5789.000000,1649934099.015085,0.000000,0.000000,1.000000,0.000000,0.000000,0.000000,0.000000,0.928799,12.371356,-0.687414
1649934099.114978,5790.000000,1649934099.114812,0.000000,0.000000,1.000000,0.000000,0.000000,0.000000,0.000000,0.931204,12.371017,-0.690855
1649934099.215001,5791.000000,1649934099.214869,0.000000,0.000000,1.000000,0.000000,0.000000,0.000000,0.000000,0.931284,12.371799,-0.694958
1649934099.315544,5792.000000,1649934099.315400,0.000000,0.000000,1.000000,0.000000,0.000000,0.000000,0.000000,0.930257,12.373637,-0.701302
1649934099.415033,5793.000000,1649934099.414871,0.000000,0.000000,1.000000,0.000000,0.000000,0.000000,0.000000,0.930368,12.373198,-0.704141
1649934099.515505,5794.000000,1649934099.515375,0.000000,0.000000,1.000000,0.000000,0.000000,0.000000,0.000000,0.930464,12.374967,-0.709258
1649934099.614974,5795.000000,1649934099.614798,0.000000,0.000000,1.000000,0.000000,0.000000,0.000000,0.000000,0.931638,12.376637,-0.714942
1649934099.715125,5796.000000,1649934099.714935,0.000000,0.000000,1.000000,0.000000,0.000000,0.000000,0.000000,0.931645,12.379300,-0.721966
1649934099.815283,5797.000000,1649934099.815150,0.000000,0.000000,1.000000,0.000000,0.000000,0.000000,0.000000,0.932732,12.379622,-0.727848
1649934099.915125,5798.000000,1649934099.914964,0.000000,0.000000,1.000000,0.000000,0.000000,0.000000,0.000000,0.932656,12.379911,-0.730207
1649934100.014985,5799.000000,1649934100.014858,0.000000,0.000000,1.000000,0.000000,0.000000,0.000000,0.000000,0.932571,12.381260,-0.735634
1649934100.115242,5800.000000,1649934100.115072,0.000000,0.000000,1.000000,0.000000,0.000000,0.000000,0.000000,0.932480,12.383607,-0.741581
1649934100.215453,5801.000000,1649934100.215322,0.000000,0.000000,1.000000,0.000000,0.000000,0.000000,0.000000,0.933473,12.385801,-0.744793
1649934100.315276,5802.000000,1649934100.315110,0.000000,0.000000,1.000000,0.000000,0.000000,0.000000,0.000000,0.934399,12.386755,-0.746184
1649934100.415105,5803.000000,1649934100.414965,0.000000,0.000000,1.000000,0.000000,0.000000,0.000000,0.000000,0.934168,12.388716,-0.750668
1649934100.515053,5804.000000,1649934100.514934,0.000000,0.000000,1.000000,0.000000,0.000000,0.000000,0.000000,0.935027,12.389444,-0.753277
1649934100.615041,5805.000000,1649934100.614935,0.000000,0.000000,1.000000,0.000000,0.000000,0.000000,0.000000,0.934734,12.390096,-0.753279
1649934100.715074,5806.000000,1649934100.714903,0.000000,0.000000,1.000000,0.000000,0.000000,0.000000,0.000000,0.935533,12.389585,-0.746751
1649934100.814895,5807.000000,1649934100.814758,0.000000,0.000000,1.000000,0.000000,0.000000,0.000000,0.000000,0.936273,12.389070,-0.742033
1649934100.915220,5808.000000,1649934100.915063,0.000000,0.000000,1.000000,0.000000,0.000000,0.000000,0.000000,0.936955,12.388554,-0.740678
1649934101.015227,5809.000000,1649934101.015088,0.000000,0.000000,1.000000,0.000000,0.000000,0.000000,0.000000,0.937583,12.388041,-0.740135
1649934101.115052,5810.000000,1649934101.114924,0.000000,0.000000,1.000000,0.000000,0.000000,0.000000,0.000000,0.937066,12.388623,-0.741180
1649934101.215087,5811.000000,1649934101.214955,0.000000,0.000000,1.000000,0.000000,0.000000,0.000000,0.000000,0.936562,12.389151,-0.740523
1649934101.315023,5812.000000,1649934101.314889,0.000000,0.000000,1.000000,0.000000,0.000000,0.000000,0.000000,0.936071,12.389626,-0.742270
1649934101.415866,5813.000000,1649934101.415731,0.000000,0.000000,1.000000,0.000000,0.000000,0.000000,0.000000,0.936686,12.388961,-0.740676
1649934101.515337,5814.000000,1649934101.515217,0.000000,0.000000,1.000000,0.000000,0.000000,0.000000,0.000000,0.937255,12.388313,-0.739107
1649934101.615217,5815.000000,1649934101.615030,0.000000,0.000000,1.000000,0.000000,0.000000,0.000000,0.000000,0.938870,12.388773,-0.740791
1649934101.715117,5816.000000,1649934101.714961,0.000000,0.000000,1.000000,0.000000,0.000000,0.000000,0.000000,0.939288,12.389191,-0.742371
1649934101.815025,5817.000000,1649934101.814910,0.000000,0.000000,1.000000,0.000000,0.000000,0.000000,0.000000,0.939665,12.389568,-0.743043
1649934101.914984,5818.000000,1649934101.914863,0.000000,0.000000,1.000000,0.000000,0.000000,0.000000,0.000000,0.938912,12.388817,-0.742037
1649934102.015093,5819.000000,1649934102.014956,0.000000,0.000000,1.000000,0.000000,0.000000,0.000000,0.000000,0.938186,12.389182,-0.742651
1649934102.115008,5820.000000,1649934102.114865,0.000000,0.000000,1.000000,0.000000,0.000000,0.000000,0.000000,0.938578,12.389513,-0.745625
1649934102.215689,5821.000000,1649934102.215481,0.000000,0.000000,1.000000,0.000000,0.000000,0.000000,0.000000,0.938935,12.388720,-0.746829
1649934102.315358,5822.000000,1649934102.315150,0.000000,0.000000,1.000000,0.000000,0.000000,0.000000,0.000000,0.938171,12.389050,-0.745528
1649934102.415279,5823.000000,1649934102.415136,0.000000,0.000000,1.000000,0.000000,0.000000,0.000000,0.000000,0.937438,12.389349,-0.744245
1649934102.515191,5824.000000,1649934102.515003,0.000000,0.000000,1.000000,0.000000,0.000000,0.000000,0.000000,0.936738,12.389620,-0.747016
1649934102.615416,5825.000000,1649934102.615229,0.000000,0.000000,1.000000,0.000000,0.000000,0.000000,0.000000,0.934982,12.389863,-0.750447
1649934102.715447,5826.000000,1649934102.715272,0.000000,0.000000,1.000000,0.000000,0.000000,0.000000,0.000000,0.934413,12.390081,-0.749670
1649934102.815485,5827.000000,1649934102.815292,0.000000,0.000000,1.000000,0.000000,0.000000,0.000000,0.000000,0.934969,12.389185,-0.745663
1649934102.915484,5828.000000,1649934102.915249,0.000000,0.000000,1.000000,0.000000,0.000000,0.000000,0.000000,0.934406,12.389418,-0.745822
1649934103.015709,5829.000000,1649934103.015465,0.000000,0.000000,1.000000,0.000000,0.000000,0.000000,0.000000,0.934966,12.390720,-0.746756
1649934103.115390,5830.000000,1649934103.115199,0.000000,0.000000,1.000000,0.000000,0.000000,0.000000,0.000000,0.935498,12.391939,-0.747625
1649934103.215353,5831.000000,1649934103.215095,0.000000,0.000000,1.000000,0.000000,0.000000,0.000000,0.000000,0.935999,12.393076,-0.751658
1649934103.315341,5832.000000,1649934103.315092,0.000000,0.000000,1.000000,0.000000,0.000000,0.000000,0.000000,0.935381,12.393041,-0.752270
1649934103.415421,5833.000000,1649934103.415246,0.000000,0.000000,1.000000,0.000000,0.000000,0.000000,0.000000,0.934796,12.391901,-0.748792
1649934103.515394,5834.000000,1649934103.515195,0.000000,0.000000,1.000000,0.000000,0.000000,0.000000,0.000000,0.934245,12.391901,-0.747043
1649934103.615550,5835.000000,1649934103.615354,0.000000,0.000000,1.000000,0.000000,0.000000,0.000000,0.000000,0.933728,12.390798,-0.742117
1649934103.715453,5836.000000,1649934103.715282,0.000000,0.000000,1.000000,0.000000,0.000000,0.000000,0.000000,0.901622,12.390839,-0.699474
1649934103.815251,5837.000000,1649934103.815128,0.000000,0.000000,1.000000,0.000000,0.000000,0.000000,0.000000,0.879003,12.389779,-0.665063
1649934103.915040,5838.000000,1649934103.914913,0.000000,0.000000,1.000000,0.000000,0.000000,0.000000,0.000000,0.865420,12.387682,-0.641026
1649934104.014989,5839.000000,1649934104.014856,0.000000,0.000000,1.000000,0.000000,0.000000,0.000000,0.000000,0.857142,12.385703,-0.617305
1649934104.115208,5840.000000,1649934104.115014,0.000000,0.000000,1.000000,0.000000,0.000000,0.000000,0.000000,0.853894,12.382751,-0.601984
1649934104.215337,5841.000000,1649934104.215168,0.000000,0.000000,1.000000,0.000000,0.000000,0.000000,0.000000,0.853220,12.381068,-0.591517
1649934104.315152,5842.000000,1649934104.315031,0.000000,0.000000,1.000000,0.000000,0.000000,0.000000,0.000000,0.854968,12.379498,-0.586524
1649934104.415092,5843.000000,1649934104.414935,0.000000,0.000000,1.000000,0.000000,0.000000,0.000000,0.000000,0.856809,12.378040,-0.581946
1649934104.515161,5844.000000,1649934104.514965,0.000000,0.000000,1.000000,0.000000,0.000000,0.000000,0.000000,0.859812,12.376691,-0.582603
1649934104.615530,5845.000000,1649934104.615371,0.000000,0.000000,1.000000,0.000000,0.000000,0.000000,0.000000,0.862803,12.374356,-0.583436
1649934104.715211,5846.000000,1649934104.715046,0.000000,0.000000,1.000000,0.000000,0.000000,0.000000,0.000000,0.865765,12.371095,-0.576362
1649934104.815123,5847.000000,1649934104.814978,0.000000,0.000000,1.000000,0.000000,0.000000,0.000000,0.000000,0.869772,12.369147,-0.571383
1649934104.915142,5848.000000,1649934104.915002,0.000000,0.000000,1.000000,0.000000,0.000000,0.000000,0.000000,0.874750,12.369535,-0.574058
1649934105.015120,5849.000000,1649934105.014976,0.000000,0.000000,1.000000,0.000000,0.000000,0.000000,0.000000,0.879532,12.369946,-0.577616
1649934105.115058,5850.000000,1649934105.114843,0.000000,0.000000,1.000000,0.000000,0.000000,0.000000,0.000000,0.883020,12.370376,-0.582006
1649934105.214993,5851.000000,1649934105.214871,0.000000,0.000000,1.000000,0.000000,0.000000,0.000000,0.000000,0.886360,12.370819,-0.584762
1649934105.315139,5852.000000,1649934105.315020,0.000000,0.000000,1.000000,0.000000,0.000000,0.000000,0.000000,0.889548,12.370182,-0.586744
1649934105.415212,5853.000000,1649934105.415075,0.000000,0.000000,1.000000,0.000000,0.000000,0.000000,0.000000,0.892579,12.370703,-0.588780
1649934105.514964,5854.000000,1649934105.514808,0.000000,0.000000,1.000000,0.000000,0.000000,0.000000,0.000000,0.896543,12.371226,-0.594892
1649934105.615090,5855.000000,1649934105.614948,0.000000,0.000000,1.000000,0.000000,0.000000,0.000000,0.000000,0.898105,12.370656,-0.598448
