__time,/dwm1001/id_458E/pose_kf/header/seq,/dwm1001/id_458E/pose_kf/header/stamp,/dwm1001/id_458E/pose_kf/pose/orientation/pitch_deg,/dwm1001/id_458E/pose_kf/pose/orientation/roll_deg,/dwm1001/id_458E/pose_kf/pose/orientation/w,/dwm1001/id_458E/pose_kf/pose/orientation/x,/dwm1001/id_458E/pose_kf/pose/orientation/y,/dwm1001/id_458E/pose_kf/pose/orientation/yaw_deg,/dwm1001/id_458E/pose_kf/pose/orientation/z,/dwm1001/id_458E/pose_kf/pose/position/x,/dwm1001/id_458E/pose_kf/pose/position/y,/dwm1001/id_458E/pose_kf/pose/position/z
1649933956.814837,4817.000000,1649933956.814680,0.000000,0.000000,1.000000,0.000000,0.000000,0.000000,0.000000,1.599651,7.989035,0.207618
1649933956.914801,4818.000000,1649933956.914673,0.000000,0.000000,1.000000,0.000000,0.000000,0.000000,0.000000,1.589377,7.992303,0.209618
1649933957.014742,4819.000000,1649933957.014585,0.000000,0.000000,1.000000,0.000000,0.000000,0.000000,0.000000,1.595702,7.990063,0.182128
1649933957.114617,4820.000000,1649933957.114475,0.000000,0.000000,1.000000,0.000000,0.000000,0.000000,0.000000,1.592641,7.991338,0.172333
1649933957.214559,4821.000000,1649933957.214396,0.000000,0.000000,1.000000,0.000000,0.000000,0.000000,0.000000,1.586186,7.994834,0.173065
1649933957.314559,4822.000000,1649933957.314439,0.000000,0.000000,1.000000,0.000000,0.000000,0.000000,0.000000,1.575468,7.999325,0.184686
1649933957.415588,4823.000000,1649933957.415430,0.000000,0.000000,1.000000,0.000000,0.000000,0.000000,0.000000,1.578214,7.998192,0.162365
1649933957.514602,4824.000000,1649933957.514416,0.000000,0.000000,1.000000,0.000000,0.000000,0.000000,0.000000,1.580608,7.997195,0.164748
1649933957.614588,4825.000000,1649933957.614446,0.000000,0.000000,1.000000,0.000000,0.000000,0.000000,0.000000,1.595760,7.991962,0.138399
1649933957.714524,4826.000000,1649933957.714403,0.000000,0.000000,1.000000,0.000000,0.000000,0.000000,0.000000,1.595677,7.991460,0.136923
1649933957.814670,4827.000000,1649933957.814469,0.000000,0.000000,1.000000,0.000000,0.000000,0.000000,0.000000,1.585565,7.995428,0.155271
1649933957.914704,4828.000000,1649933957.914526,0.000000,0.000000,1.000000,0.000000,0.000000,0.000000,0.000000,1.582371,7.997064,0.185337
1649933958.014652,4829.000000,1649933958.014495,0.000000,0.000000,1.000000,0.000000,0.000000,0.000000,0.000000,1.569382,8.000846,0.223356
1649933958.114475,4830.000000,1649933958.114340,0.000000,0.000000,1.000000,0.000000,0.000000,0.000000,0.000000,1.571171,8.001191,0.228609
1649933958.215147,4831.000000,1649933958.214957,0.000000,0.000000,1.000000,0.000000,0.000000,0.000000,0.000000,1.566214,8.003734,0.241915
1649933958.314763,4832.000000,1649933958.314576,0.000000,0.000000,1.000000,0.000000,0.000000,0.000000,0.000000,1.555993,8.008346,0.269369
1649933958.414768,4833.000000,1649933958.414595,0.000000,0.000000,1.000000,0.000000,0.000000,0.000000,0.000000,1.561547,8.007266,0.261154
1649933958.514542,4834.000000,1649933958.514401,0.000000,0.000000,1.000000,0.000000,0.000000,0.000000,0.000000,1.560195,8.008438,0.266297
1649933958.615115,4835.000000,1649933958.614961,0.000000,0.000000,1.000000,0.000000,0.000000,0.000000,0.000000,1.556683,8.010646,0.283440
1649933958.714620,4836.000000,1649933958.714463,0.000000,0.000000,1.000000,0.000000,0.000000,0.000000,0.000000,1.564227,8.009463,0.277388
1649933958.814611,4837.000000,1649933958.814460,0.000000,0.000000,1.000000,0.000000,0.000000,0.000000,0.000000,1.580023,8.005079,0.255534
1649933958.914664,4838.000000,1649933958.914515,0.000000,0.000000,1.000000,0.000000,0.000000,0.000000,0.000000,1.591579,8.003133,0.254033
1649933959.015529,4839.000000,1649933959.014893,0.000000,0.000000,1.000000,0.000000,0.000000,0.000000,0.000000,1.610002,7.999136,0.232546
1649933959.114687,4840.000000,1649933959.114504,0.000000,0.000000,1.000000,0.000000,0.000000,0.000000,0.000000,1.634867,7.992120,0.188684
1649933959.214629,4841.000000,1649933959.214497,0.000000,0.000000,1.000000,0.000000,0.000000,0.000000,0.000000,1.643948,7.988812,0.165353
1649933959.314682,4842.000000,1649933959.314507,0.000000,0.000000,1.000000,0.000000,0.000000,0.000000,0.000000,1.659898,7.982475,0.120626
1649933959.414470,4843.000000,1649933959.414355,0.000000,0.000000,1.000000,0.000000,0.000000,0.000000,0.000000,1.652868,7.983105,0.106239
1649933959.514504,4844.000000,1649933959.514388,0.000000,0.000000,1.000000,0.000000,0.000000,0.000000,0.000000,1.635053,7.989224,0.099205
1649933959.614718,4845.000000,1649933959.614562,0.000000,0.000000,1.000000,0.000000,0.000000,0.000000,0.000000,1.631102,7.989606,0.067775
1649933959.714484,4846.000000,1649933959.714326,0.000000,0.000000,1.000000,0.000000,0.000000,0.000000,0.000000,1.619563,7.992193,0.064585
1649933959.815552,4847.000000,1649933959.815271,0.000000,0.000000,1.000000,0.000000,0.000000,0.000000,0.000000,1.603079,7.995763,0.070744
1649933959.915130,4848.000000,1649933959.914959,0.000000,0.000000,1.000000,0.000000,0.000000,0.000000,0.000000,1.601604,7.994797,0.047142
1649933960.014822,4849.000000,1649933960.014549,0.000000,0.000000,1.000000,0.000000,0.000000,0.000000,0.000000,1.595792,7.994998,0.042585
1649933960.114876,4850.000000,1649933960.114731,0.000000,0.000000,1.000000,0.000000,0.000000,0.000000,0.000000,1.603347,7.991936,0.013556
1649933960.214650,4851.000000,1649933960.214515,0.000000,0.000000,1.000000,0.000000,0.000000,0.000000,0.000000,1.619159,7.985800,-0.032472
1649933960.314603,4852.000000,1649933960.314444,0.000000,0.000000,1.000000,0.000000,0.000000,0.000000,0.000000,1.641639,7.977863,-0.091526
1649933960.414627,4853.000000,1649933960.414506,0.000000,0.000000,1.000000,0.000000,0.000000,0.000000,0.000000,1.637648,7.978060,-0.119451
1649933960.514605,4854.000000,1649933960.514405,0.000000,0.000000,1.000000,0.000000,0.000000,0.000000,0.000000,1.623917,7.982673,-0.122315
1649933960.615218,4855.000000,1649933960.615089,0.000000,0.000000,1.000000,0.000000,0.000000,0.000000,0.000000,1.625015,7.981628,-0.147921
1649933960.714692,4856.000000,1649933960.714571,0.000000,0.000000,1.000000,0.000000,0.000000,0.000000,0.000000,1.635775,7.977416,-0.188072
1649933960.814899,4857.000000,1649933960.814717,0.000000,0.000000,1.000000,0.000000,0.000000,0.000000,0.000000,1.638197,7.976762,-0.195364
1649933960.914748,4858.000000,1649933960.914610,0.000000,0.000000,1.000000,0.000000,0.000000,0.000000,0.000000,1.629461,7.979471,-0.196939
1649933961.015001,4859.000000,1649933961.014851,0.000000,0.000000,1.000000,0.000000,0.000000,0.000000,0.000000,1.625477,7.982077,-0.172889
1649933961.114935,4860.000000,1649933961.114782,0.000000,0.000000,1.000000,0.000000,0.000000,0.000000,0.000000,1.632545,7.982393,-0.179957
1649933961.214602,4861.000000,1649933961.214476,0.000000,0.000000,1.000000,0.000000,0.000000,0.000000,0.000000,1.614062,7.989265,-0.174154
1649933961.314553,4862.000000,1649933961.314430,0.000000,0.000000,1.000000,0.000000,0.000000,0.000000,0.000000,1.606376,7.993589,-0.144741
1649933961.415537,4863.000000,1649933961.415229,0.000000,0.000000,1.000000,0.000000,0.000000,0.000000,0.000000,1.615466,7.993309,-0.146769
1649933961.515256,4864.000000,1649933961.515113,0.000000,0.000000,1.000000,0.000000,0.000000,0.000000,0.000000,1.631666,7.989768,-0.171726
1649933961.614903,4865.000000,1649933961.614725,0.000000,0.000000,1.000000,0.000000,0.000000,0.000000,0.000000,1.625100,7.992968,-0.170275
1649933961.714628,4866.000000,1649933961.714464,0.000000,0.000000,1.000000,0.000000,0.000000,0.000000,0.000000,1.611207,7.998170,-0.142693
1649933961.814497,4867.000000,1649933961.814358,0.000000,0.000000,1.000000,0.000000,0.000000,0.000000,0.000000,1.579530,8.009610,-0.098161
1649933961.914612,4868.000000,1649933961.914482,0.000000,0.000000,1.000000,0.000000,0.000000,0.000000,0.000000,1.567120,8.012739,-0.089063
1649933962.015291,4869.000000,1649933962.015174,0.000000,0.000000,1.000000,0.000000,0.000000,0.000000,0.000000,1.569690,8.011273,-0.101900
1649933962.114586,4870.000000,1649933962.114464,0.000000,0.000000,1.000000,0.000000,0.000000,0.000000,0.000000,1.565691,8.012015,-0.093032
1649933962.215393,4871.000000,1649933962.215077,0.000000,0.000000,1.000000,0.000000,0.000000,0.000000,0.000000,1.550035,8.017024,-0.064166
1649933962.314761,4872.000000,1649933962.314516,0.000000,0.000000,1.000000,0.000000,0.000000,0.000000,0.000000,1.537574,8.020605,-0.021002
1649933962.414821,4873.000000,1649933962.414577,0.000000,0.000000,1.000000,0.000000,0.000000,0.000000,0.000000,1.525984,8.025007,0.027738
1649933962.514550,4874.000000,1649933962.514429,0.000000,0.000000,1.000000,0.000000,0.000000,0.000000,0.000000,1.527237,8.023635,0.052714
1649933962.614646,4875.000000,1649933962.614508,0.000000,0.000000,1.000000,0.000000,0.000000,0.000000,0.000000,1.528623,8.022263,0.087906
1649933962.714717,4876.000000,1649933962.714572,0.000000,0.000000,1.000000,0.000000,0.000000,0.000000,0.000000,1.539931,8.016540,0.087684
1649933962.814780,4877.000000,1649933962.814647,0.000000,0.000000,1.000000,0.000000,0.000000,0.000000,0.000000,1.558394,8.008904,0.081707
1649933962.914591,4878.000000,1649933962.914431,0.000000,0.000000,1.000000,0.000000,0.000000,0.000000,0.000000,1.582466,7.999486,0.051673
1649933963.015519,4879.000000,1649933963.015340,0.000000,0.000000,1.000000,0.000000,0.000000,0.000000,0.000000,1.593225,7.994957,0.046995
1649933963.115171,4880.000000,1649933963.115010,0.000000,0.000000,1.000000,0.000000,0.000000,0.000000,0.000000,1.610990,7.988520,0.018274
1649933963.214751,4881.000000,1649933963.214526,0.000000,0.000000,1.000000,0.000000,0.000000,0.000000,0.000000,1.633145,7.981390,-0.019762
1649933963.314896,4882.000000,1649933963.314708,0.000000,0.000000,1.000000,0.000000,0.000000,0.000000,0.000000,1.658295,7.973624,-0.070705
1649933963.414805,4883.000000,1649933963.414659,0.000000,0.000000,1.000000,0.000000,0.000000,0.000000,0.000000,1.669852,7.970728,-0.090403
1649933963.514552,4884.000000,1649933963.514386,0.000000,0.000000,1.000000,0.000000,0.000000,0.000000,0.000000,1.663081,7.973533,-0.079282
1649933963.614590,4885.000000,1649933963.614385,0.000000,0.000000,1.000000,0.000000,0.000000,0.000000,0.000000,1.648830,7.979532,-0.047483
1649933963.714705,4886.000000,1649933963.714535,0.000000,0.000000,1.000000,0.000000,0.000000,0.000000,0.000000,1.648281,7.979806,-0.046706
1649933963.815132,4887.000000,1649933963.814886,0.000000,0.000000,1.000000,0.000000,0.000000,0.000000,0.000000,1.623626,7.987747,-0.022480
1649933963.915128,4888.000000,1649933963.914963,0.000000,0.000000,1.000000,0.000000,0.000000,0.000000,0.000000,1.616607,7.989824,-0.029021
1649933964.014795,4889.000000,1649933964.014641,0.000000,0.000000,1.000000,0.000000,0.000000,0.000000,0.000000,1.604483,7.992893,-0.019112
1649933964.114737,4890.000000,1649933964.114589,0.000000,0.000000,1.000000,0.000000,0.000000,0.000000,0.000000,1.596294,7.995797,0.008984
1649933964.214797,4891.000000,1649933964.214620,0.000000,0.000000,1.000000,0.000000,0.000000,0.000000,0.000000,1.586401,7.998537,0.048033
1649933964.314847,4892.000000,1649933964.314699,0.000000,0.000000,1.000000,0.000000,0.000000,0.000000,0.000000,1.592370,7.997843,0.051560
1649933964.414586,4893.000000,1649933964.414420,0.000000,0.000000,1.000000,0.000000,0.000000,0.000000,0.000000,1.581696,8.002626,0.075833
1649933964.514755,4894.000000,1649933964.514599,0.000000,0.000000,1.000000,0.000000,0.000000,0.000000,0.000000,1.583666,8.001671,0.068364
1649933964.614814,4895.000000,1649933964.614599,0.000000,0.000000,1.000000,0.000000,0.000000,0.000000,0.000000,1.589948,7.998567,0.086904
1649933964.715196,4896.000000,1649933964.714909,0.000000,0.000000,1.000000,0.000000,0.000000,0.000000,0.000000,1.605737,7.993440,0.074730
1649933964.815022,4897.000000,1649933964.814811,0.000000,0.000000,1.000000,0.000000,0.000000,0.000000,0.000000,1.606473,7.991870,0.088752
1649933964.914665,4898.000000,1649933964.914541,0.000000,0.000000,1.000000,0.000000,0.000000,0.000000,0.000000,1.618056,7.987125,0.073862
1649933965.014738,4899.000000,1649933965.014570,0.000000,0.000000,1.000000,0.000000,0.000000,0.000000,0.000000,1.637677,7.980483,0.039321
1649933965.114623,4900.000000,1649933965.114484,0.000000,0.000000,1.000000,0.000000,0.000000,0.000000,0.000000,1.647394,7.977519,0.034370
1649933965.214607,4901.000000,1649933965.214443,0.000000,0.000000,1.000000,0.000000,0.000000,0.000000,0.000000,1.649904,7.978039,0.052987
1649933965.314675,4902.000000,1649933965.314549,0.000000,0.000000,1.000000,0.000000,0.000000,0.000000,0.000000,1.644507,7.981849,0.078869
1649933965.415446,4903.000000,1649933965.415260,0.000000,0.000000,1.000000,0.000000,0.000000,0.000000,0.000000,1.650197,7.981122,0.072971
1649933965.514694,4904.000000,1649933965.514525,0.000000,0.000000,1.000000,0.000000,0.000000,0.000000,0.000000,1.657635,7.979377,0.093040
1649933965.614917,4905.000000,1649933965.614726,0.000000,0.000000,1.000000,0.000000,0.000000,0.000000,0.000000,1.671071,7.975582,0.081548
1649933965.714933,4906.000000,1649933965.714746,0.000000,0.000000,1.000000,0.000000,0.000000,0.000000,0.000000,1.672697,7.975311,0.084950
1649933965.814950,4907.000000,1649933965.814757,0.000000,0.000000,1.000000,0.000000,0.000000,0.000000,0.000000,1.656621,7.980551,0.109097
1649933965.914921,4908.000000,1649933965.914759,0.000000,0.000000,1.000000,0.000000,0.000000,0.000000,0.000000,1.638040,7.986622,0.138599
1649933966.015006,4909.000000,1649933966.014811,0.000000,0.000000,1.000000,0.000000,0.000000,0.000000,0.000000,1.614976,7.993456,0.182872
1649933966.114953,4910.000000,1649933966.114792,0.000000,0.000000,1.000000,0.000000,0.000000,0.000000,0.000000,1.588838,8.002082,0.220286
1649933966.215477,4911.000000,1649933966.215317,0.000000,0.000000,1.000000,0.000000,0.000000,0.000000,0.000000,1.558785,8.012376,0.268806
1649933966.314562,4912.000000,1649933966.314418,0.000000,0.000000,1.000000,0.000000,0.000000,0.000000,0.000000,1.533839,8.020945,0.322268
1649933966.414713,4913.000000,1649933966.414484,0.000000,0.000000,1.000000,0.000000,0.000000,0.000000,0.000000,1.511611,8.027861,0.374752
1649933966.515147,4914.000000,1649933966.515033,0.000000,0.000000,1.000000,0.000000,0.000000,0.000000,0.000000,1.492005,8.035379,0.423002
1649933966.614548,4915.000000,1649933966.614384,0.000000,0.000000,1.000000,0.000000,0.000000,0.000000,0.000000,1.472742,8.041267,0.474386
1649933966.714609,4916.000000,1649933966.714475,0.000000,0.000000,1.000000,0.000000,0.000000,0.000000,0.000000,1.451662,8.048875,0.522263
1649933966.814790,4917.000000,1649933966.814595,0.000000,0.000000,1.000000,0.000000,0.000000,0.000000,0.000000,1.433267,8.054822,0.569138
1649933966.914960,4918.000000,1649933966.914777,0.000000,0.000000,1.000000,0.000000,0.000000,0.000000,0.000000,1.429440,8.057007,0.618226
1649933967.015512,4919.000000,1649933967.015336,0.000000,0.000000,1.000000,0.000000,0.000000,0.000000,0.000000,1.440460,8.054549,0.619388
1649933967.114916,4920.000000,1649933967.114728,0.000000,0.000000,1.000000,0.000000,0.000000,0.000000,0.000000,1.433836,8.057530,0.631036
1649933967.214731,4921.000000,1649933967.214534,0.000000,0.000000,1.000000,0.000000,0.000000,0.000000,0.000000,1.413798,8.064563,0.645502
1649933967.314497,4922.000000,1649933967.314337,0.000000,0.000000,1.000000,0.000000,0.000000,0.000000,0.000000,1.416009,8.064510,0.624776
1649933967.414863,4923.000000,1649933967.414727,0.000000,0.000000,1.000000,0.000000,0.000000,0.000000,0.000000,1.430502,8.058857,0.575182
1649933967.514598,4924.000000,1649933967.514474,0.000000,0.000000,1.000000,0.000000,0.000000,0.000000,0.000000,1.438001,8.055568,0.547994
1649933967.614698,4925.000000,1649933967.614548,0.000000,0.000000,1.000000,0.000000,0.000000,0.000000,0.000000,1.456292,8.049079,0.494800
1649933967.714728,4926.000000,1649933967.714538,0.000000,0.000000,1.000000,0.000000,0.000000,0.000000,0.000000,1.483621,8.039592,0.425629
1649933967.815449,4927.000000,1649933967.815259,0.000000,0.000000,1.000000,0.000000,0.000000,0.000000,0.000000,1.485594,8.038208,0.380775
1649933967.914902,4928.000000,1649933967.914728,0.000000,0.000000,1.000000,0.000000,0.000000,0.000000,0.000000,1.485388,8.037951,0.360956
1649933968.014558,4929.000000,1649933968.014406,0.000000,0.000000,1.000000,0.000000,0.000000,0.000000,0.000000,1.470032,8.043124,0.357946
1649933968.114675,4930.000000,1649933968.114523,0.000000,0.000000,1.000000,0.000000,0.000000,0.000000,0.000000,1.456747,8.046875,0.363819
1649933968.214656,4931.000000,1649933968.214492,0.000000,0.000000,1.000000,0.000000,0.000000,0.000000,0.000000,1.454179,8.047091,0.384664
1649933968.314511,4932.000000,1649933968.314388,0.000000,0.000000,1.000000,0.000000,0.000000,0.000000,0.000000,1.448656,8.048329,0.404524
1649933968.414538,4933.000000,1649933968.414406,0.000000,0.000000,1.000000,0.000000,0.000000,0.000000,0.000000,1.439257,8.051624,0.420185
1649933968.514813,4934.000000,1649933968.514667,0.000000,0.000000,1.000000,0.000000,0.000000,0.000000,0.000000,1.446928,8.049222,0.398733
1649933968.615288,4935.000000,1649933968.615047,0.000000,0.000000,1.000000,0.000000,0.000000,0.000000,0.000000,1.449987,8.049080,0.394934
1649933968.715343,4936.000000,1649933968.715167,0.000000,0.000000,1.000000,0.000000,0.000000,0.000000,0.000000,1.467202,8.043444,0.359701
1649933968.815153,4937.000000,1649933968.814933,0.000000,0.000000,1.000000,0.000000,0.000000,0.000000,0.000000,1.477022,8.040267,0.343562
1649933968.914533,4938.000000,1649933968.914378,0.000000,0.000000,1.000000,0.000000,0.000000,0.000000,0.000000,1.479814,8.039427,0.337711
1649933969.014548,4939.000000,1649933969.014406,0.000000,0.000000,1.000000,0.000000,0.000000,0.000000,0.000000,1.473769,8.040800,0.348198
1649933969.114623,4940.000000,1649933969.114486,0.000000,0.000000,1.000000,0.000000,0.000000,0.000000,0.000000,1.483372,8.036629,0.325153
1649933969.214610,4941.000000,1649933969.214478,0.000000,0.000000,1.000000,0.000000,0.000000,0.000000,0.000000,1.496836,8.031592,0.324809
1649933969.314769,4942.000000,1649933969.314619,0.000000,0.000000,1.000000,0.000000,0.000000,0.000000,0.000000,1.517176,8.024662,0.305121
1649933969.415431,4943.000000,1649933969.415144,0.000000,0.000000,1.000000,0.000000,0.000000,0.000000,0.000000,1.528690,8.020324,0.303193
1649933969.515198,4944.000000,1649933969.515051,0.000000,0.000000,1.000000,0.000000,0.000000,0.000000,0.000000,1.549273,8.014088,0.270730
1649933969.614730,4945.000000,1649933969.614558,0.000000,0.000000,1.000000,0.000000,0.000000,0.000000,0.000000,1.548934,8.013706,0.264663
1649933969.714835,4946.000000,1649933969.714600,0.000000,0.000000,1.000000,0.000000,0.000000,0.000000,0.000000,1.560444,8.009044,0.229901
1649933969.814790,4947.000000,1649933969.814596,0.000000,0.000000,1.000000,0.000000,0.000000,0.000000,0.000000,1.574408,8.005797,0.221689
1649933969.914827,4948.000000,1649933969.914575,0.000000,0.000000,1.000000,0.000000,0.000000,0.000000,0.000000,1.572122,8.007167,0.227674
1649933970.014661,4949.000000,1649933970.014518,0.000000,0.000000,1.000000,0.000000,0.000000,0.000000,0.000000,1.581752,8.004170,0.202105
1649933970.114855,4950.000000,1649933970.114695,0.000000,0.000000,1.000000,0.000000,0.000000,0.000000,0.000000,1.601540,7.998139,0.153549
1649933970.215456,4951.000000,1649933970.215181,0.000000,0.000000,1.000000,0.000000,0.000000,0.000000,0.000000,1.609074,7.995797,0.139461
1649933970.314999,4952.000000,1649933970.314857,0.000000,0.000000,1.000000,0.000000,0.000000,0.000000,0.000000,1.597382,8.000216,0.146367
1649933970.415135,4953.000000,1649933970.414861,0.000000,0.000000,1.000000,0.000000,0.000000,0.000000,0.000000,1.594823,8.001196,0.171785
1649933970.515000,4954.000000,1649933970.514773,0.000000,0.000000,1.000000,0.000000,0.000000,0.000000,0.000000,1.603102,7.998915,0.160884
1649933970.615134,4955.000000,1649933970.614984,0.000000,0.000000,1.000000,0.000000,0.000000,0.000000,0.000000,1.620524,7.993557,0.124008
1649933970.714764,4956.000000,1649933970.714624,0.000000,0.000000,1.000000,0.000000,0.000000,0.000000,0.000000,1.643278,7.985300,0.068712
1649933970.814774,4957.000000,1649933970.814599,0.000000,0.000000,1.000000,0.000000,0.000000,0.000000,0.000000,1.647028,7.984137,0.049851
1649933970.914526,4958.000000,1649933970.914387,0.000000,0.000000,1.000000,0.000000,0.000000,0.000000,0.000000,1.637177,7.987500,0.056299
1649933971.014988,4959.000000,1649933971.014826,0.000000,0.000000,1.000000,0.000000,0.000000,0.000000,0.000000,1.624329,7.992945,0.070880
1649933971.114748,4960.000000,1649933971.114596,0.000000,0.000000,1.000000,0.000000,0.000000,0.000000,0.000000,1.625058,7.992703,0.055325
1649933971.214882,4961.000000,1649933971.214706,0.000000,0.000000,1.000000,0.000000,0.000000,0.000000,0.000000,1.620098,7.994714,0.060863
1649933971.314501,4962.000000,1649933971.314328,0.000000,0.000000,1.000000,0.000000,0.000000,0.000000,0.000000,1.616328,7.996665,0.085815
1649933971.414609,4963.000000,1649933971.414439,0.000000,0.000000,1.000000,0.000000,0.000000,0.000000,0.000000,1.624609,7.993098,0.076117
1649933971.514994,4964.000000,1649933971.514826,0.000000,0.000000,1.000000,0.000000,0.000000,0.000000,0.000000,1.638815,7.987594,0.041239
1649933971.614625,4965.000000,1649933971.614493,0.000000,0.000000,1.000000,0.000000,0.000000,0.000000,0.000000,1.653136,7.981363,0.038696
1649933971.714547,4966.000000,1649933971.714412,0.000000,0.000000,1.000000,0.000000,0.000000,0.000000,0.000000,1.656629,7.979912,0.059920
1649933971.815665,4967.000000,1649933971.815446,0.000000,0.000000,1.000000,0.000000,0.000000,0.000000,0.000000,1.655337,7.980802,0.091000
1649933971.915127,4968.000000,1649933971.914892,0.000000,0.000000,1.000000,0.000000,0.000000,0.000000,0.000000,1.663715,7.978443,0.085511
1649933972.015369,4969.000000,1649933972.015175,0.000000,0.000000,1.000000,0.000000,0.000000,0.000000,0.000000,1.680131,7.982832,0.032831
1649933972.115133,4970.000000,1649933972.114940,0.000000,0.000000,1.000000,0.000000,0.000000,0.000000,0.000000,1.677938,7.989219,0.013977
1649933972.215034,4971.000000,1649933972.214837,0.000000,0.000000,1.000000,0.000000,0.000000,0.000000,0.000000,1.666898,7.997473,0.013091
1649933972.314734,4972.000000,1649933972.314589,0.000000,0.000000,1.000000,0.000000,0.000000,0.000000,0.000000,1.668257,8.000922,-0.003626
1649933972.414717,4973.000000,1649933972.414552,0.000000,0.000000,1.000000,0.000000,0.000000,0.000000,0.000000,1.662810,8.005268,-0.001648
1649933972.514779,4974.000000,1649933972.514612,0.000000,0.000000,1.000000,0.000000,0.000000,0.000000,0.000000,1.668403,8.003907,-0.024484
1649933972.614951,4975.000000,1649933972.614777,0.000000,0.000000,1.000000,0.000000,0.000000,0.000000,0.000000,1.676793,8.002607,-0.018688
1649933972.714673,4976.000000,1649933972.714544,0.000000,0.000000,1.000000,0.000000,0.000000,0.000000,0.000000,1.691083,7.997008,-0.040275
1649933972.814771,4977.000000,1649933972.814565,0.000000,0.000000,1.000000,0.000000,0.000000,0.000000,0.000000,1.705464,7.991723,-0.031664
1649933972.914729,4978.000000,1649933972.914530,0.000000,0.000000,1.000000,0.000000,0.000000,0.000000,0.000000,1.704634,7.991114,-0.003777
1649933973.014639,4979.000000,1649933973.014526,0.000000,0.000000,1.000000,0.000000,0.000000,0.000000,0.000000,1.712337,7.987293,-0.008255
1649933973.114645,4980.000000,1649933973.114526,0.000000,0.000000,1.000000,0.000000,0.000000,0.000000,0.000000,1.727007,7.981536,-0.035732
1649933973.214626,4981.000000,1649933973.214467,0.000000,0.000000,1.000000,0.000000,0.000000,0.000000,0.000000,1.747142,7.973965,-0.077984
1649933973.314683,4982.000000,1649933973.314487,0.000000,0.000000,1.000000,0.000000,0.000000,0.000000,0.000000,1.761493,7.967970,-0.086773
1649933973.414859,4983.000000,1649933973.414728,0.000000,0.000000,1.000000,0.000000,0.000000,0.000000,0.000000,1.767077,7.964570,-0.073124
1649933973.514683,4984.000000,1649933973.514493,0.000000,0.000000,1.000000,0.000000,0.000000,0.000000,0.000000,1.766556,7.963630,-0.044429
1649933973.614745,4985.000000,1649933973.614561,0.000000,0.000000,1.000000,0.000000,0.000000,0.000000,0.000000,1.772279,7.959562,-0.048936
1649933973.715031,4986.000000,1649933973.714863,0.000000,0.000000,1.000000,0.000000,0.000000,0.000000,0.000000,1.766459,7.960176,-0.039339
1649933973.815525,4987.000000,1649933973.815354,0.000000,0.000000,1.000000,0.000000,0.000000,0.000000,0.000000,1.748672,7.964119,-0.008167
1649933973.914534,4988.000000,1649933973.914407,0.000000,0.000000,1.000000,0.000000,0.000000,0.000000,0.000000,1.728367,7.969010,0.029939
1649933974.014909,4989.000000,1649933974.014762,0.000000,0.000000,1.000000,0.000000,0.000000,0.000000,0.000000,1.722112,7.969328,0.031888
1649933974.115020,4990.000000,1649933974.114897,0.000000,0.000000,1.000000,0.000000,0.000000,0.000000,0.000000,1.724808,7.967498,0.007195
1649933974.215872,4991.000000,1649933974.215612,0.000000,0.000000,1.000000,0.000000,0.000000,0.000000,0.000000,1.734876,7.963639,-0.036573
1649933974.315271,4992.000000,1649933974.315124,0.000000,0.000000,1.000000,0.000000,0.000000,0.000000,0.000000,1.734442,7.963323,-0.053416
1649933974.414999,4993.000000,1649933974.414840,0.000000,0.000000,1.000000,0.000000,0.000000,0.000000,0.000000,1.739354,7.960903,-0.082301
1649933974.514685,4994.000000,1649933974.514560,0.000000,0.000000,1.000000,0.000000,0.000000,0.000000,0.000000,1.750402,7.956498,-0.126733
1649933974.614850,4995.000000,1649933974.614659,0.000000,0.000000,1.000000,0.000000,0.000000,0.000000,0.000000,1.747599,7.956768,-0.144085
1649933974.714716,4996.000000,1649933974.714564,0.000000,0.000000,1.000000,0.000000,0.000000,0.000000,0.000000,1.751344,7.953820,-0.177366
1649933974.814638,4997.000000,1649933974.814496,0.000000,0.000000,1.000000,0.000000,0.000000,0.000000,0.000000,1.736199,7.958740,-0.178310
1649933974.914576,4998.000000,1649933974.914408,0.000000,0.000000,1.000000,0.000000,0.000000,0.000000,0.000000,1.713062,7.965626,-0.168394
1649933975.015120,4999.000000,1649933975.014816,0.000000,0.000000,1.000000,0.000000,0.000000,0.000000,0.000000,1.704255,7.966715,-0.183572
1649933975.114695,5000.000000,1649933975.114537,0.000000,0.000000,1.000000,0.000000,0.000000,0.000000,0.000000,1.692670,7.969949,-0.172012
1649933975.214837,5001.000000,1649933975.214625,0.000000,0.000000,1.000000,0.000000,0.000000,0.000000,0.000000,1.680675,7.973020,-0.140470
1649933975.314586,5002.000000,1649933975.314438,0.000000,0.000000,1.000000,0.000000,0.000000,0.000000,0.000000,1.663964,7.978106,-0.097076
1649933975.414646,5003.000000,1649933975.414495,0.000000,0.000000,1.000000,0.000000,0.000000,0.000000,0.000000,1.633031,7.987263,-0.044002
1649933975.514714,5004.000000,1649933975.514542,0.000000,0.000000,1.000000,0.000000,0.000000,0.000000,0.000000,1.600733,7.996970,0.016652
1649933975.614679,5005.000000,1649933975.614508,0.000000,0.000000,1.000000,0.000000,0.000000,0.000000,0.000000,1.571595,8.006078,0.076412
1649933975.714602,5006.000000,1649933975.714427,0.000000,0.000000,1.000000,0.000000,0.000000,0.000000,0.000000,1.540067,8.015685,0.141666
1649933975.815604,5007.000000,1649933975.815331,0.000000,0.000000,1.000000,0.000000,0.000000,0.000000,0.000000,1.500904,8.027921,0.206445
1649933975.914785,5008.000000,1649933975.914534,0.000000,0.000000,1.000000,0.000000,0.000000,0.000000,0.000000,1.476427,8.034977,0.271475
1649933976.015234,5009.000000,1649933976.015050,0.000000,0.000000,1.000000,0.000000,0.000000,0.000000,0.000000,1.452796,8.042575,0.322135
1649933976.115147,5010.000000,1649933976.114887,0.000000,0.000000,1.000000,0.000000,0.000000,0.000000,0.000000,1.426733,8.050670,0.376679
1649933976.214721,5011.000000,1649933976.214556,0.000000,0.000000,1.000000,0.000000,0.000000,0.000000,0.000000,1.396236,8.061402,0.430849
1649933976.314774,5012.000000,1649933976.314601,0.000000,0.000000,1.000000,0.000000,0.000000,0.000000,0.000000,1.386679,8.063699,0.441849
1649933976.414627,5013.000000,1649933976.414436,0.000000,0.000000,1.000000,0.000000,0.000000,0.000000,0.000000,1.372923,8.067840,0.461431
1649933976.514967,5014.000000,1649933976.514819,0.000000,0.000000,1.000000,0.000000,0.000000,0.000000,0.000000,1.369371,8.068272,0.491661
1649933976.615800,5015.000000,1649933976.615537,0.000000,0.000000,1.000000,0.000000,0.000000,0.000000,0.000000,1.360172,8.071750,0.531280
1649933976.714782,5016.000000,1649933976.714598,0.000000,0.000000,1.000000,0.000000,0.000000,0.000000,0.000000,1.367429,8.069386,0.527451
1649933976.814866,5017.000000,1649933976.814718,0.000000,0.000000,1.000000,0.000000,0.000000,0.000000,0.000000,1.386912,8.062608,0.493254
1649933976.914926,5018.000000,1649933976.914676,0.000000,0.000000,1.000000,0.000000,0.000000,0.000000,0.000000,1.414586,8.052777,0.437257
1649933977.014965,5019.000000,1649933977.014769,0.000000,0.000000,1.000000,0.000000,0.000000,0.000000,0.000000,1.430260,8.046643,0.403200
1649933977.114676,5020.000000,1649933977.114529,0.000000,0.000000,1.000000,0.000000,0.000000,0.000000,0.000000,1.455233,8.037488,0.349149
1649933977.215275,5021.000000,1649933977.215104,0.000000,0.000000,1.000000,0.000000,0.000000,0.000000,0.000000,1.487809,8.026599,0.280856
1649933977.314770,5022.000000,1649933977.314581,0.000000,0.000000,1.000000,0.000000,0.000000,0.000000,0.000000,1.500198,8.022832,0.249829
1649933977.415213,5023.000000,1649933977.415056,0.000000,0.000000,1.000000,0.000000,0.000000,0.000000,0.000000,1.495635,8.025811,0.247369
1649933977.514700,5024.000000,1649933977.514522,0.000000,0.000000,1.000000,0.000000,0.000000,0.000000,0.000000,1.505583,8.023166,0.218299
1649933977.614866,5025.000000,1649933977.614653,0.000000,0.000000,1.000000,0.000000,0.000000,0.000000,0.000000,1.524853,8.017393,0.170198
1649933977.715041,5026.000000,1649933977.714910,0.000000,0.000000,1.000000,0.000000,0.000000,0.000000,0.000000,1.536519,8.013041,0.153110
1649933977.815108,5027.000000,1649933977.814862,0.000000,0.000000,1.000000,0.000000,0.000000,0.000000,0.000000,1.557315,8.005684,0.112585
1649933977.914700,5028.000000,1649933977.914569,0.000000,0.000000,1.000000,0.000000,0.000000,0.000000,0.000000,1.577958,7.998779,0.105279
1649933978.014588,5029.000000,1649933978.014404,0.000000,0.000000,1.000000,0.000000,0.000000,0.000000,0.000000,1.578770,7.998863,0.119377
1649933978.114558,5030.000000,1649933978.114428,0.000000,0.000000,1.000000,0.000000,0.000000,0.000000,0.000000,1.564109,8.004459,0.149148
1649933978.215028,5031.000000,1649933978.214855,0.000000,0.000000,1.000000,0.000000,0.000000,0.000000,0.000000,1.537056,8.013066,0.185032
1649933978.314836,5032.000000,1649933978.314646,0.000000,0.000000,1.000000,0.000000,0.000000,0.000000,0.000000,1.508190,8.021219,0.225916
1649933978.415311,5033.000000,1649933978.415157,0.000000,0.000000,1.000000,0.000000,0.000000,0.000000,0.000000,1.502780,8.022373,0.230397
1649933978.514743,5034.000000,1649933978.514593,0.000000,0.000000,1.000000,0.000000,0.000000,0.000000,0.000000,1.510839,8.019087,0.204779
1649933978.614666,5035.000000,1649933978.614507,0.000000,0.000000,1.000000,0.000000,0.000000,0.000000,0.000000,1.519607,8.014887,0.203547
1649933978.714601,5036.000000,1649933978.714478,0.000000,0.000000,1.000000,0.000000,0.000000,0.000000,0.000000,1.509389,8.017467,0.214431
1649933978.814877,5037.000000,1649933978.814697,0.000000,0.000000,1.000000,0.000000,0.000000,0.000000,0.000000,1.497604,8.020998,0.229668
1649933978.915069,5038.000000,1649933978.914821,0.000000,0.000000,1.000000,0.000000,0.000000,0.000000,0.000000,1.476740,8.028688,0.257123
1649933979.014954,5039.000000,1649933979.014781,0.000000,0.000000,1.000000,0.000000,0.000000,0.000000,0.000000,1.454983,8.037016,0.294648
1649933979.114832,5040.000000,1649933979.114656,0.000000,0.000000,1.000000,0.000000,0.000000,0.000000,0.000000,1.454251,8.038290,0.291776
1649933979.215325,5041.000000,1649933979.215028,0.000000,0.000000,1.000000,0.000000,0.000000,0.000000,0.000000,1.467935,8.035074,0.259826
1649933979.315035,5042.000000,1649933979.314840,0.000000,0.000000,1.000000,0.000000,0.000000,0.000000,0.000000,1.472298,8.034169,0.241967
1649933979.415003,5043.000000,1649933979.414827,0.000000,0.000000,1.000000,0.000000,0.000000,0.000000,0.000000,1.461284,8.038725,0.243310
1649933979.514941,5044.000000,1649933979.514806,0.000000,0.000000,1.000000,0.000000,0.000000,0.000000,0.000000,1.446660,8.045162,0.258244
1649933979.615058,5045.000000,1649933979.614871,0.000000,0.000000,1.000000,0.000000,0.000000,0.000000,0.000000,1.451559,8.044637,0.255552
1649933979.715024,5046.000000,1649933979.714810,0.000000,0.000000,1.000000,0.000000,0.000000,0.000000,0.000000,1.437817,8.050620,0.273857
1649933979.815164,5047.000000,1649933979.815003,0.000000,0.000000,1.000000,0.000000,0.000000,0.000000,0.000000,1.441378,8.049655,0.257445
1649933979.914574,5048.000000,1649933979.914425,0.000000,0.000000,1.000000,0.000000,0.000000,0.000000,0.000000,1.439467,8.050853,0.255329
1649933980.014818,5049.000000,1649933980.014654,0.000000,0.000000,1.000000,0.000000,0.000000,0.000000,0.000000,1.434560,8.053005,0.262908
1649933980.115011,5050.000000,1649933980.114835,0.000000,0.000000,1.000000,0.000000,0.000000,0.000000,0.000000,1.425734,8.056057,0.286233
1649933980.215046,5051.000000,1649933980.214844,0.000000,0.000000,1.000000,0.000000,0.000000,0.000000,0.000000,1.415402,8.059955,0.310922
1649933980.314955,5052.000000,1649933980.314812,0.000000,0.000000,1.000000,0.000000,0.000000,0.000000,0.000000,1.409120,8.063553,0.338496
1649933980.415050,5053.000000,1649933980.414830,0.000000,0.000000,1.000000,0.000000,0.000000,0.000000,0.000000,1.389227,8.071224,0.377671
1649933980.514978,5054.000000,1649933980.514790,0.000000,0.000000,1.000000,0.000000,0.000000,0.000000,0.000000,1.390317,8.069643,0.379532
1649933980.615270,5055.000000,1649933980.615107,0.000000,0.000000,1.000000,0.000000,0.000000,0.000000,0.000000,1.377426,8.073499,0.398817
1649933980.714901,5056.000000,1649933980.714730,0.000000,0.000000,1.000000,0.000000,0.000000,0.000000,0.000000,1.384052,8.069406,0.383995
1649933980.815015,5057.000000,1649933980.814858,0.000000,0.000000,1.000000,0.000000,0.000000,0.000000,0.000000,1.403645,8.061087,0.342928
1649933980.914953,5058.000000,1649933980.914790,0.000000,0.000000,1.000000,0.000000,0.000000,0.000000,0.000000,1.405981,8.058617,0.329172
1649933981.014998,5059.000000,1649933981.014820,0.000000,0.000000,1.000000,0.000000,0.000000,0.000000,0.000000,1.393074,8.061688,0.329561
1649933981.114910,5060.000000,1649933981.114743,0.000000,0.000000,1.000000,0.000000,0.000000,0.000000,0.000000,1.382141,8.065629,0.333850
1649933981.214609,5061.000000,1649933981.214463,0.000000,0.000000,1.000000,0.000000,0.000000,0.000000,0.000000,1.364378,8.071475,0.352365
1649933981.314628,5062.000000,1649933981.314443,0.000000,0.000000,1.000000,0.000000,0.000000,0.000000,0.000000,1.336927,8.081288,0.376440
1649933981.414840,5063.000000,1649933981.414636,0.000000,0.000000,1.000000,0.000000,0.000000,0.000000,0.000000,1.336372,8.081740,0.363881
1649933981.515060,5064.000000,1649933981.514877,0.000000,0.000000,1.000000,0.000000,0.000000,0.000000,0.000000,1.351418,8.076617,0.336355
1649933981.615047,5065.000000,1649933981.614857,0.000000,0.000000,1.000000,0.000000,0.000000,0.000000,0.000000,1.378969,8.068425,0.285648
1649933981.714927,5066.000000,1649933981.714787,0.000000,0.000000,1.000000,0.000000,0.000000,0.000000,0.000000,1.414971,8.057361,0.218428
1649933981.815247,5067.000000,1649933981.815067,0.000000,0.000000,1.000000,0.000000,0.000000,0.000000,0.000000,1.446850,8.046891,0.187895
1649933981.915012,5068.000000,1649933981.914842,0.000000,0.000000,1.000000,0.000000,0.000000,0.000000,0.000000,1.476908,8.038107,0.183747
1649933982.014979,5069.000000,1649933982.014773,0.000000,0.000000,1.000000,0.000000,0.000000,0.000000,0.000000,1.493161,8.033123,0.200082
1649933982.115066,5070.000000,1649933982.114874,0.000000,0.000000,1.000000,0.000000,0.000000,0.000000,0.000000,1.489778,8.035016,0.223138
1649933982.215670,5071.000000,1649933982.215354,0.000000,0.000000,1.000000,0.000000,0.000000,0.000000,0.000000,1.484207,8.036860,0.252598
1649933982.314527,5072.000000,1649933982.314383,0.000000,0.000000,1.000000,0.000000,0.000000,0.000000,0.000000,1.476596,8.039739,0.282507
1649933982.414621,5073.000000,1649933982.414433,0.000000,0.000000,1.000000,0.000000,0.000000,0.000000,0.000000,1.464908,8.043585,0.323279
1649933982.514630,5074.000000,1649933982.514465,0.000000,0.000000,1.000000,0.000000,0.000000,0.000000,0.000000,1.447229,8.049421,0.353440
1649933982.614577,5075.000000,1649933982.614446,0.000000,0.000000,1.000000,0.000000,0.000000,0.000000,0.000000,1.419585,8.059301,0.382242
1649933982.714603,5076.000000,1649933982.714470,0.000000,0.000000,1.000000,0.000000,0.000000,0.000000,0.000000,1.397872,8.067521,0.409697
1649933982.814573,5077.000000,1649933982.814406,0.000000,0.000000,1.000000,0.000000,0.000000,0.000000,0.000000,1.365475,8.078509,0.441465
1649933982.914595,5078.000000,1649933982.914476,0.000000,0.000000,1.000000,0.000000,0.000000,0.000000,0.000000,1.338338,8.088812,0.475715
1649933983.015411,5079.000000,1649933983.015262,0.000000,0.000000,1.000000,0.000000,0.000000,0.000000,0.000000,1.322788,8.095168,0.511495
1649933983.114880,5080.000000,1649933983.114735,0.000000,0.000000,1.000000,0.000000,0.000000,0.000000,0.000000,1.301870,8.102140,0.547082
1649933983.215508,5081.000000,1649933983.215280,0.000000,0.000000,1.000000,0.000000,0.000000,0.000000,0.000000,1.305364,8.100958,0.541309
1649933983.315003,5082.000000,1649933983.314830,0.000000,0.000000,1.000000,0.000000,0.000000,0.000000,0.000000,1.305739,8.100801,0.536194
1649933983.415045,5083.000000,1649933983.414839,0.000000,0.000000,1.000000,0.000000,0.000000,0.000000,0.000000,1.316228,8.097258,0.547057
1649933983.514489,5084.000000,1649933983.514371,0.000000,0.000000,1.000000,0.000000,0.000000,0.000000,0.000000,1.315511,8.097076,0.568412
1649933983.614544,5085.000000,1649933983.614427,0.000000,0.000000,1.000000,0.000000,0.000000,0.000000,0.000000,1.312908,8.096806,0.598202
1649933983.714571,5086.000000,1649933983.714408,0.000000,0.000000,1.000000,0.000000,0.000000,0.000000,0.000000,1.329233,8.091007,0.586053
1649933983.815485,5087.000000,1649933983.815332,0.000000,0.000000,1.000000,0.000000,0.000000,0.000000,0.000000,1.344853,8.085458,0.587726
1649933983.914756,5088.000000,1649933983.914554,0.000000,0.000000,1.000000,0.000000,0.000000,0.000000,0.000000,1.364108,8.079073,0.600256
1649933984.014736,5089.000000,1649933984.014529,0.000000,0.000000,1.000000,0.000000,0.000000,0.000000,0.000000,1.370375,8.076285,0.620782
1649933984.114598,5090.000000,1649933984.114422,0.000000,0.000000,1.000000,0.000000,0.000000,0.000000,0.000000,1.362160,8.077996,0.641703
1649933984.214761,5091.000000,1649933984.214577,0.000000,0.000000,1.000000,0.000000,0.000000,0.000000,0.000000,1.344635,8.083958,0.665405
1649933984.314847,5092.000000,1649933984.314672,0.000000,0.000000,1.000000,0.000000,0.000000,0.000000,0.000000,1.327084,8.090651,0.691751
1649933984.414984,5093.000000,1649933984.414841,0.000000,0.000000,1.000000,0.000000,0.000000,0.000000,0.000000,1.331364,8.088200,0.677061
1649933984.515070,5094.000000,1649933984.514899,0.000000,0.000000,1.000000,0.000000,0.000000,0.000000,0.000000,1.350812,8.080388,0.631096
1649933984.615519,5095.000000,1649933984.615349,0.000000,0.000000,1.000000,0.000000,0.000000,0.000000,0.000000,1.357273,8.076256,0.609246
1649933984.714960,5096.000000,1649933984.714809,0.000000,0.000000,1.000000,0.000000,0.000000,0.000000,0.000000,1.356881,8.075617,0.607363
1649933984.815013,5097.000000,1649933984.814834,0.000000,0.000000,1.000000,0.000000,0.000000,0.000000,0.000000,1.373998,8.069561,0.571430
1649933984.915035,5098.000000,1649933984.914856,0.000000,0.000000,1.000000,0.000000,0.000000,0.000000,0.000000,1.370541,8.070395,0.553699
1649933985.014980,5099.000000,1649933985.014862,0.000000,0.000000,1.000000,0.000000,0.000000,0.000000,0.000000,1.384714,8.065747,0.505892
1649933985.114798,5100.000000,1649933985.114650,0.000000,0.000000,1.000000,0.000000,0.000000,0.000000,0.000000,1.412243,8.057019,0.438181
1649933985.215041,5101.000000,1649933985.214862,0.000000,0.000000,1.000000,0.000000,0.000000,0.000000,0.000000,1.447953,8.045551,0.357129
1649933985.315151,5102.000000,1649933985.314975,0.000000,0.000000,1.000000,0.000000,0.000000,0.000000,0.000000,1.466216,8.039155,0.298087
1649933985.415607,5103.000000,1649933985.415406,0.000000,0.000000,1.000000,0.000000,0.000000,0.000000,0.000000,1.469029,8.037573,0.268324
1649933985.514843,5104.000000,1649933985.514639,0.000000,0.000000,1.000000,0.000000,0.000000,0.000000,0.000000,1.486681,8.031816,0.214279
1649933985.615095,5105.000000,1649933985.614960,0.000000,0.000000,1.000000,0.000000,0.000000,0.000000,0.000000,1.504149,8.027578,0.192654
1649933985.714764,5106.000000,1649933985.714612,0.000000,0.000000,1.000000,0.000000,0.000000,0.000000,0.000000,1.514863,8.024781,0.185226
1649933985.814790,5107.000000,1649933985.814658,0.000000,0.000000,1.000000,0.000000,0.000000,0.000000,0.000000,1.524630,8.022259,0.193838
1649933985.914636,5108.000000,1649933985.914464,0.000000,0.000000,1.000000,0.000000,0.000000,0.000000,0.000000,1.529130,8.022179,0.210553
1649933986.014609,5109.000000,1649933986.014468,0.000000,0.000000,1.000000,0.000000,0.000000,0.000000,0.000000,1.546104,8.017858,0.190645
1649933986.114735,5110.000000,1649933986.114583,0.000000,0.000000,1.000000,0.000000,0.000000,0.000000,0.000000,1.569387,8.010625,0.146092
1649933986.215657,5111.000000,1649933986.215235,0.000000,0.000000,1.000000,0.000000,0.000000,0.000000,0.000000,1.598587,8.001744,0.097304
1649933986.315356,5112.000000,1649933986.315157,0.000000,0.000000,1.000000,0.000000,0.000000,0.000000,0.000000,1.615867,7.996777,0.074356
1649933986.415110,5113.000000,1649933986.414971,0.000000,0.000000,1.000000,0.000000,0.000000,0.000000,0.000000,1.621854,7.994427,0.069772
1649933986.515358,5114.000000,1649933986.515176,0.000000,0.000000,1.000000,0.000000,0.000000,0.000000,0.000000,1.637891,7.988006,0.040057
1649933986.615212,5115.000000,1649933986.614953,0.000000,0.000000,1.000000,0.000000,0.000000,0.000000,0.000000,1.661231,7.979929,-0.008907
1649933986.715115,5116.000000,1649933986.714921,0.000000,0.000000,1.000000,0.000000,0.000000,0.000000,0.000000,1.654360,7.981204,-0.023058
1649933986.815047,5117.000000,1649933986.814780,0.000000,0.000000,1.000000,0.000000,0.000000,0.000000,0.000000,1.633155,7.988036,-0.017509
1649933986.915156,5118.000000,1649933986.915020,0.000000,0.000000,1.000000,0.000000,0.000000,0.000000,0.000000,1.629024,7.989187,-0.040669
1649933987.015754,5119.000000,1649933987.015503,0.000000,0.000000,1.000000,0.000000,0.000000,0.000000,0.000000,1.617089,7.992587,-0.034105
1649933987.115041,5120.000000,1649933987.114871,0.000000,0.000000,1.000000,0.000000,0.000000,0.000000,0.000000,1.595652,8.000277,-0.008729
1649933987.214972,5121.000000,1649933987.214829,0.000000,0.000000,1.000000,0.000000,0.000000,0.000000,0.000000,1.579495,8.006539,0.027378
1649933987.314857,5122.000000,1649933987.314662,0.000000,0.000000,1.000000,0.000000,0.000000,0.000000,0.000000,1.573846,8.009247,0.074510
1649933987.415114,5123.000000,1649933987.414850,0.000000,0.000000,1.000000,0.000000,0.000000,0.000000,0.000000,1.562897,8.012943,0.120835
1649933987.515182,5124.000000,1649933987.515011,0.000000,0.000000,1.000000,0.000000,0.000000,0.000000,0.000000,1.553521,8.016469,0.171135
1649933987.615104,5125.000000,1649933987.614964,0.000000,0.000000,1.000000,0.000000,0.000000,0.000000,0.000000,1.557664,8.014370,0.179993
1649933987.715040,5126.000000,1649933987.714854,0.000000,0.000000,1.000000,0.000000,0.000000,0.000000,0.000000,1.548411,8.016771,0.201482
1649933987.815252,5127.000000,1649933987.815056,0.000000,0.000000,1.000000,0.000000,0.000000,0.000000,0.000000,1.524346,8.024508,0.229406
1649933987.914734,5128.000000,1649933987.914577,0.000000,0.000000,1.000000,0.000000,0.000000,0.000000,0.000000,1.520155,8.025272,0.219908
1649933988.014916,5129.000000,1649933988.014765,0.000000,0.000000,1.000000,0.000000,0.000000,0.000000,0.000000,1.528225,8.021620,0.184190
1649933988.114951,5130.000000,1649933988.114813,0.000000,0.000000,1.000000,0.000000,0.000000,0.000000,0.000000,1.522783,8.023620,0.176596
1649933988.214670,5131.000000,1649933988.214493,0.000000,0.000000,1.000000,0.000000,0.000000,0.000000,0.000000,1.523117,8.023323,0.191969
1649933988.314641,5132.000000,1649933988.314520,0.000000,0.000000,1.000000,0.000000,0.000000,0.000000,0.000000,1.521276,8.024129,0.220484
1649933988.414658,5133.000000,1649933988.414537,0.000000,0.000000,1.000000,0.000000,0.000000,0.000000,0.000000,1.506481,8.029245,0.255914
1649933988.514651,5134.000000,1649933988.514484,0.000000,0.000000,1.000000,0.000000,0.000000,0.000000,0.000000,1.491476,8.035150,0.287438
1649933988.615867,5135.000000,1649933988.615714,0.000000,0.000000,1.000000,0.000000,0.000000,0.000000,0.000000,1.495942,8.034152,0.282096
1649933988.714640,5136.000000,1649933988.714476,0.000000,0.000000,1.000000,0.000000,0.000000,0.000000,0.000000,1.495900,8.035353,0.287357
1649933988.814676,5137.000000,1649933988.814503,0.000000,0.000000,1.000000,0.000000,0.000000,0.000000,0.000000,1.481776,8.040815,0.303595
1649933988.914673,5138.000000,1649933988.914527,0.000000,0.000000,1.000000,0.000000,0.000000,0.000000,0.000000,1.484907,8.039385,0.286795
1649933989.014625,5139.000000,1649933989.014492,0.000000,0.000000,1.000000,0.000000,0.000000,0.000000,0.000000,1.480348,8.041261,0.283485
1649933989.114778,5140.000000,1649933989.114571,0.000000,0.000000,1.000000,0.000000,0.000000,0.000000,0.000000,1.490333,8.038625,0.250387
1649933989.214702,5141.000000,1649933989.214549,0.000000,0.000000,1.000000,0.000000,0.000000,0.000000,0.000000,1.508580,8.031735,0.196828
1649933989.314696,5142.000000,1649933989.314541,0.000000,0.000000,1.000000,0.000000,0.000000,0.000000,0.000000,1.501864,8.033931,0.163238
1649933989.415186,5143.000000,1649933989.415028,0.000000,0.000000,1.000000,0.000000,0.000000,0.000000,0.000000,1.511910,8.030537,0.110965
1649933989.514702,5144.000000,1649933989.514552,0.000000,0.000000,1.000000,0.000000,0.000000,0.000000,0.000000,1.531228,8.024049,0.044070
1649933989.615225,5145.000000,1649933989.615046,0.000000,0.000000,1.000000,0.000000,0.000000,0.000000,0.000000,1.545078,8.020110,0.016473
1649933989.715067,5146.000000,1649933989.714867,0.000000,0.000000,1.000000,0.000000,0.000000,0.000000,0.000000,1.564620,8.013139,-0.016117
1649933989.815082,5147.000000,1649933989.814885,0.000000,0.000000,1.000000,0.000000,0.000000,0.000000,0.000000,1.576403,8.008775,-0.024427
1649933989.914815,5148.000000,1649933989.914655,0.000000,0.000000,1.000000,0.000000,0.000000,0.000000,0.000000,1.573190,8.009067,-0.010244
1649933990.014674,5149.000000,1649933990.014537,0.000000,0.000000,1.000000,0.000000,0.000000,0.000000,0.000000,1.551456,8.014848,0.013389
1649933990.114572,5150.000000,1649933990.114448,0.000000,0.000000,1.000000,0.000000,0.000000,0.000000,0.000000,1.514468,8.025798,0.048456
1649933990.215271,5151.000000,1649933990.215058,0.000000,0.000000,1.000000,0.000000,0.000000,0.000000,0.000000,1.492620,8.031785,0.093618
1649933990.314949,5152.000000,1649933990.314798,0.000000,0.000000,1.000000,0.000000,0.000000,0.000000,0.000000,1.476428,8.036332,0.145156
1649933990.415062,5153.000000,1649933990.414887,0.000000,0.000000,1.000000,0.000000,0.000000,0.000000,0.000000,1.467812,8.039505,0.203527
1649933990.514606,5154.000000,1649933990.514435,0.000000,0.000000,1.000000,0.000000,0.000000,0.000000,0.000000,1.460925,8.041371,0.264323
1649933990.614655,5155.000000,1649933990.614470,0.000000,0.000000,1.000000,0.000000,0.000000,0.000000,0.000000,1.470950,8.037635,0.281377
1649933990.714651,5156.000000,1649933990.714509,0.000000,0.000000,1.000000,0.000000,0.000000,0.000000,0.000000,1.474026,8.036251,0.304011
1649933990.814678,5157.000000,1649933990.814529,0.000000,0.000000,1.000000,0.000000,0.000000,0.000000,0.000000,1.465062,8.038186,0.339228
1649933990.914573,5158.000000,1649933990.914432,0.000000,0.000000,1.000000,0.000000,0.000000,0.000000,0.000000,1.451276,8.042166,0.383244
1649933991.014902,5159.000000,1649933991.014750,0.000000,0.000000,1.000000,0.000000,0.000000,0.000000,0.000000,1.428606,8.049158,0.431608
1649933991.114795,5160.000000,1649933991.114514,0.000000,0.000000,1.000000,0.000000,0.000000,0.000000,0.000000,1.416133,8.053527,0.478433
1649933991.214758,5161.000000,1649933991.214497,0.000000,0.000000,1.000000,0.000000,0.000000,0.000000,0.000000,1.405694,8.057586,0.521297
1649933991.314616,5162.000000,1649933991.314450,0.000000,0.000000,1.000000,0.000000,0.000000,0.000000,0.000000,1.412462,8.055891,0.519179
1649933991.414683,5163.000000,1649933991.414561,0.000000,0.000000,1.000000,0.000000,0.000000,0.000000,0.000000,1.433280,8.049857,0.485206
1649933991.515444,5164.000000,1649933991.515276,0.000000,0.000000,1.000000,0.000000,0.000000,0.000000,0.000000,1.438955,8.048466,0.471548
1649933991.614966,5165.000000,1649933991.614812,0.000000,0.000000,1.000000,0.000000,0.000000,0.000000,0.000000,1.449909,8.046019,0.475812
1649933991.715029,5166.000000,1649933991.714923,0.000000,0.000000,1.000000,0.000000,0.000000,0.000000,0.000000,1.452729,8.045857,0.484382
1649933991.814898,5167.000000,1649933991.814748,0.000000,0.000000,1.000000,0.000000,0.000000,0.000000,0.000000,1.445663,8.048946,0.486601
1649933991.914708,5168.000000,1649933991.914557,0.000000,0.000000,1.000000,0.000000,0.000000,0.000000,0.000000,1.437989,8.052922,0.497252
1649933992.015361,5169.000000,1649933992.015210,0.000000,0.000000,1.000000,0.000000,0.000000,0.000000,0.000000,1.448297,8.050092,0.474057
1649933992.115003,5170.000000,1649933992.114841,0.000000,0.000000,1.000000,0.000000,0.000000,0.000000,0.000000,1.463572,8.045201,0.474079
1649933992.215022,5171.000000,1649933992.214862,0.000000,0.000000,1.000000,0.000000,0.000000,0.000000,0.000000,1.488944,8.037287,0.441556
1649933992.315152,5172.000000,1649933992.314956,0.000000,0.000000,1.000000,0.000000,0.000000,0.000000,0.000000,1.521601,8.026542,0.385125
1649933992.415750,5173.000000,1649933992.415617,0.000000,0.000000,1.000000,0.000000,0.000000,0.000000,0.000000,1.530515,8.024056,0.355048
1649933992.514938,5174.000000,1649933992.514702,0.000000,0.000000,1.000000,0.000000,0.000000,0.000000,0.000000,1.522413,8.027205,0.349512
1649933992.615420,5175.000000,1649933992.615233,0.000000,0.000000,1.000000,0.000000,0.000000,0.000000,0.000000,1.513523,8.030217,0.354638
1649933992.715113,5176.000000,1649933992.714964,0.000000,0.000000,1.000000,0.000000,0.000000,0.000000,0.000000,1.502832,8.033088,0.365955
1649933992.814959,5177.000000,1649933992.814764,0.000000,0.000000,1.000000,0.000000,0.000000,0.000000,0.000000,1.506835,8.030363,0.342069
1649933992.914875,5178.000000,1649933992.914557,0.000000,0.000000,1.000000,0.000000,0.000000,0.000000,0.000000,1.505096,8.029988,0.333635
1649933993.014657,5179.000000,1649933993.014477,0.000000,0.000000,1.000000,0.000000,0.000000,0.000000,0.000000,1.493575,8.034016,0.327949
1649933993.114790,5180.000000,1649933993.114603,0.000000,0.000000,1.000000,0.000000,0.000000,0.000000,0.000000,1.491381,8.034560,0.341040
1649933993.214670,5181.000000,1649933993.214508,0.000000,0.000000,1.000000,0.000000,0.000000,0.000000,0.000000,1.490382,8.035078,0.361645
1649933993.314613,5182.000000,1649933993.314469,0.000000,0.000000,1.000000,0.000000,0.000000,0.000000,0.000000,1.502512,8.031210,0.347491
1649933993.415014,5183.000000,1649933993.414850,0.000000,0.000000,1.000000,0.000000,0.000000,0.000000,0.000000,1.499757,8.031928,0.353231
1649933993.514598,5184.000000,1649933993.514479,0.000000,0.000000,1.000000,0.000000,0.000000,0.000000,0.000000,1.481850,8.038071,0.365153
1649933993.614587,5185.000000,1649933993.614449,0.000000,0.000000,1.000000,0.000000,0.000000,0.000000,0.000000,1.455127,8.046052,0.385408
1649933993.715215,5186.000000,1649933993.715037,0.000000,0.000000,1.000000,0.000000,0.000000,0.000000,0.000000,1.422331,8.057926,0.416853
1649933993.815044,5187.000000,1649933993.814867,0.000000,0.000000,1.000000,0.000000,0.000000,0.000000,0.000000,1.407879,8.062543,0.455763
1649933993.914740,5188.000000,1649933993.914631,0.000000,0.000000,1.000000,0.000000,0.000000,0.000000,0.000000,1.382456,8.072281,0.491293
1649933994.014570,5189.000000,1649933994.014425,0.000000,0.000000,1.000000,0.000000,0.000000,0.000000,0.000000,1.360900,8.080292,0.516268
1649933994.114732,5190.000000,1649933994.114583,0.000000,0.000000,1.000000,0.000000,0.000000,0.000000,0.000000,1.362679,8.080111,0.501244
1649933994.215203,5191.000000,1649933994.215042,0.000000,0.000000,1.000000,0.000000,0.000000,0.000000,0.000000,1.378862,8.074371,0.456741
1649933994.314747,5192.000000,1649933994.314622,0.000000,0.000000,1.000000,0.000000,0.000000,0.000000,0.000000,1.407505,8.065580,0.390484
1649933994.414895,5193.000000,1649933994.414742,0.000000,0.000000,1.000000,0.000000,0.000000,0.000000,0.000000,1.443463,8.053938,0.310729
1649933994.514745,5194.000000,1649933994.514625,0.000000,0.000000,1.000000,0.000000,0.000000,0.000000,0.000000,1.478583,8.041822,0.271380
1649933994.614699,5195.000000,1649933994.614570,0.000000,0.000000,1.000000,0.000000,0.000000,0.000000,0.000000,1.509526,8.031476,0.258777
1649933994.714598,5196.000000,1649933994.714474,0.000000,0.000000,1.000000,0.000000,0.000000,0.000000,0.000000,1.526614,8.026107,0.268630
1649933994.814626,5197.000000,1649933994.814497,0.000000,0.000000,1.000000,0.000000,0.000000,0.000000,0.000000,1.532738,8.024367,0.287912
1649933994.915119,5198.000000,1649933994.914982,0.000000,0.000000,1.000000,0.000000,0.000000,0.000000,0.000000,1.517587,8.029332,0.307334
1649933995.015796,5199.000000,1649933995.015574,0.000000,0.000000,1.000000,0.000000,0.000000,0.000000,0.000000,1.495463,8.038436,0.337337
1649933995.114960,5200.000000,1649933995.114789,0.000000,0.000000,1.000000,0.000000,0.000000,0.000000,0.000000,1.475549,8.045970,0.362924
1649933995.214789,5201.000000,1649933995.214633,0.000000,0.000000,1.000000,0.000000,0.000000,0.000000,0.000000,1.452340,8.053085,0.394713
1649933995.314976,5202.000000,1649933995.314785,0.000000,0.000000,1.000000,0.000000,0.000000,0.000000,0.000000,1.451168,8.053241,0.385626
1649933995.414917,5203.000000,1649933995.414790,0.000000,0.000000,1.000000,0.000000,0.000000,0.000000,0.000000,1.445756,8.053359,0.385717
1649933995.515078,5204.000000,1649933995.514904,0.000000,0.000000,1.000000,0.000000,0.000000,0.000000,0.000000,1.453793,8.050172,0.400263
1649933995.615035,5205.000000,1649933995.614898,0.000000,0.000000,1.000000,0.000000,0.000000,0.000000,0.000000,1.469066,8.043871,0.427048
1649933995.714997,5206.000000,1649933995.714836,0.000000,0.000000,1.000000,0.000000,0.000000,0.000000,0.000000,1.495492,8.034648,0.413922
1649933995.815244,5207.000000,1649933995.814923,0.000000,0.000000,1.000000,0.000000,0.000000,0.000000,0.000000,1.529110,8.022689,0.371391
1649933995.914685,5208.000000,1649933995.914490,0.000000,0.000000,1.000000,0.000000,0.000000,0.000000,0.000000,1.536715,8.020174,0.348300
1649933996.014915,5209.000000,1649933996.014675,0.000000,0.000000,1.000000,0.000000,0.000000,0.000000,0.000000,1.552423,8.013507,0.299548
1649933996.114871,5210.000000,1649933996.114755,0.000000,0.000000,1.000000,0.000000,0.000000,0.000000,0.000000,1.573575,8.005113,0.232703
1649933996.214784,5211.000000,1649933996.214654,0.000000,0.000000,1.000000,0.000000,0.000000,0.000000,0.000000,1.602002,7.994017,0.155055
1649933996.314695,5212.000000,1649933996.314552,0.000000,0.000000,1.000000,0.000000,0.000000,0.000000,0.000000,1.616518,7.989116,0.108292
1649933996.414884,5213.000000,1649933996.414749,0.000000,0.000000,1.000000,0.000000,0.000000,0.000000,0.000000,1.608044,7.992262,0.085589
1649933996.515037,5214.000000,1649933996.514905,0.000000,0.000000,1.000000,0.000000,0.000000,0.000000,0.000000,1.613862,7.989914,0.041642
1649933996.615835,5215.000000,1649933996.615679,0.000000,0.000000,1.000000,0.000000,0.000000,0.000000,0.000000,1.626655,7.984551,-0.017796
1649933996.715018,5216.000000,1649933996.714865,0.000000,0.000000,1.000000,0.000000,0.000000,0.000000,0.000000,1.647111,7.977437,-0.088796
1649933996.815316,5217.000000,1649933996.815084,0.000000,0.000000,1.000000,0.000000,0.000000,0.000000,0.000000,1.651872,7.975226,-0.117567
1649933996.914767,5218.000000,1649933996.914616,0.000000,0.000000,1.000000,0.000000,0.000000,0.000000,0.000000,1.663609,7.971104,-0.161436
1649933997.014802,5219.000000,1649933997.014681,0.000000,0.000000,1.000000,0.000000,0.000000,0.000000,0.000000,1.683019,7.964091,-0.217330
1649933997.114737,5220.000000,1649933997.114577,0.000000,0.000000,1.000000,0.000000,0.000000,0.000000,0.000000,1.698741,7.958719,-0.233892
1649933997.214811,5221.000000,1649933997.214694,0.000000,0.000000,1.000000,0.000000,0.000000,0.000000,0.000000,1.717496,7.951633,-0.269972
1649933997.314686,5222.000000,1649933997.314559,0.000000,0.000000,1.000000,0.000000,0.000000,0.000000,0.000000,1.710737,7.953845,-0.277979
1649933997.416013,5223.000000,1649933997.415842,0.000000,0.000000,1.000000,0.000000,0.000000,0.000000,0.000000,1.714796,7.952834,-0.307454
1649933997.514827,5224.000000,1649933997.514674,0.000000,0.000000,1.000000,0.000000,0.000000,0.000000,0.000000,1.706199,7.955313,-0.302675
1649933997.614720,5225.000000,1649933997.614510,0.000000,0.000000,1.000000,0.000000,0.000000,0.000000,0.000000,1.681327,7.964345,-0.275549
1649933997.714953,5226.000000,1649933997.714744,0.000000,0.000000,1.000000,0.000000,0.000000,0.000000,0.000000,1.672788,7.967542,-0.278668
1649933997.814688,5227.000000,1649933997.814566,0.000000,0.000000,1.000000,0.000000,0.000000,0.000000,0.000000,1.677555,7.966297,-0.301159
1649933997.914861,5228.000000,1649933997.914703,0.000000,0.000000,1.000000,0.000000,0.000000,0.000000,0.000000,1.690540,7.961939,-0.339005
1649933998.014701,5229.000000,1649933998.014564,0.000000,0.000000,1.000000,0.000000,0.000000,0.000000,0.000000,1.693824,7.962280,-0.344777
1649933998.114548,5230.000000,1649933998.114424,0.000000,0.000000,1.000000,0.000000,0.000000,0.000000,0.000000,1.681397,7.968147,-0.321400
1649933998.215515,5231.000000,1649933998.215221,0.000000,0.000000,1.000000,0.000000,0.000000,0.000000,0.000000,1.663983,7.975944,-0.288668
1649933998.314797,5232.000000,1649933998.314653,0.000000,0.000000,1.000000,0.000000,0.000000,0.000000,0.000000,1.660458,7.976815,-0.284941
1649933998.414635,5233.000000,1649933998.414487,0.000000,0.000000,1.000000,0.000000,0.000000,0.000000,0.000000,1.646096,7.982036,-0.254240
1649933998.514976,5234.000000,1649933998.514774,0.000000,0.000000,1.000000,0.000000,0.000000,0.000000,0.000000,1.643348,7.982627,-0.251760
1649933998.614836,5235.000000,1649933998.614633,0.000000,0.000000,1.000000,0.000000,0.000000,0.000000,0.000000,1.619972,7.989743,-0.223158
1649933998.714684,5236.000000,1649933998.714566,0.000000,0.000000,1.000000,0.000000,0.000000,0.000000,0.000000,1.592434,7.997552,-0.180845
1649933998.814591,5237.000000,1649933998.814489,0.000000,0.000000,1.000000,0.000000,0.000000,0.000000,0.000000,1.583946,7.999451,-0.169814
1649933998.914542,5238.000000,1649933998.914418,0.000000,0.000000,1.000000,0.000000,0.000000,0.000000,0.000000,1.557507,8.008842,-0.145285
1649933999.015567,5239.000000,1649933999.015414,0.000000,0.000000,1.000000,0.000000,0.000000,0.000000,0.000000,1.550154,8.011114,-0.148984
1649933999.115226,5240.000000,1649933999.115004,0.000000,0.000000,1.000000,0.000000,0.000000,0.000000,0.000000,1.556498,8.009924,-0.162031
1649933999.215118,5241.000000,1649933999.214881,0.000000,0.000000,1.000000,0.000000,0.000000,0.000000,0.000000,1.538687,8.016370,-0.146132
1649933999.315042,5242.000000,1649933999.314863,0.000000,0.000000,1.000000,0.000000,0.000000,0.000000,0.000000,1.525343,8.021298,-0.110553
1649933999.414725,5243.000000,1649933999.414576,0.000000,0.000000,1.000000,0.000000,0.000000,0.000000,0.000000,1.526064,8.020417,-0.108575
1649933999.514956,5244.000000,1649933999.514798,0.000000,0.000000,1.000000,0.000000,0.000000,0.000000,0.000000,1.529164,8.018414,-0.082398
1649933999.615007,5245.000000,1649933999.614879,0.000000,0.000000,1.000000,0.000000,0.000000,0.000000,0.000000,1.513772,8.021902,-0.041110
1649933999.715323,5246.000000,1649933999.715111,0.000000,0.000000,1.000000,0.000000,0.000000,0.000000,0.000000,1.483112,8.030575,0.011383
