__time,/dwm1001/id_458E/pose_kf/header/seq,/dwm1001/id_458E/pose_kf/header/stamp,/dwm1001/id_458E/pose_kf/pose/orientation/pitch_deg,/dwm1001/id_458E/pose_kf/pose/orientation/roll_deg,/dwm1001/id_458E/pose_kf/pose/orientation/w,/dwm1001/id_458E/pose_kf/pose/orientation/x,/dwm1001/id_458E/pose_kf/pose/orientation/y,/dwm1001/id_458E/pose_kf/pose/orientation/yaw_deg,/dwm1001/id_458E/pose_kf/pose/orientation/z,/dwm1001/id_458E/pose_kf/pose/position/x,/dwm1001/id_458E/pose_kf/pose/position/y,/dwm1001/id_458E/pose_kf/pose/position/z
1650625610.107902,4208.000000,1650625610.107635,0.000000,0.000000,1.000000,0.000000,0.000000,0.000000,0.000000,0.624929,23.985178,-1.193437
1650625610.207422,4209.000000,1650625610.207212,0.000000,0.000000,1.000000,0.000000,0.000000,0.000000,0.000000,0.617606,23.986024,-1.200886
1650625610.307784,4210.000000,1650625610.307560,0.000000,0.000000,1.000000,0.000000,0.000000,0.000000,0.000000,0.612963,23.987955,-1.203801
1650625610.407427,4211.000000,1650625610.407276,0.000000,0.000000,1.000000,0.000000,0.000000,0.000000,0.000000,0.610862,23.989815,-1.212045
1650625610.507486,4212.000000,1650625610.507288,0.000000,0.000000,1.000000,0.000000,0.000000,0.000000,0.000000,0.594810,23.991599,-1.221366
1650625610.607481,4213.000000,1650625610.607288,0.000000,0.000000,1.000000,0.000000,0.000000,0.000000,0.000000,0.579785,23.995485,-1.176068
1650625610.707742,4214.000000,1650625610.707576,0.000000,0.000000,1.000000,0.000000,0.000000,0.000000,0.000000,0.572314,23.999165,-1.145373
1650625610.807462,4215.000000,1650625610.807275,0.000000,0.000000,1.000000,0.000000,0.000000,0.000000,0.000000,0.555640,24.001547,-1.127138
1650625610.907678,4216.000000,1650625610.907451,0.000000,0.000000,1.000000,0.000000,0.000000,0.000000,0.000000,0.549933,24.002695,-1.112023
1650625611.007493,4217.000000,1650625611.007308,0.000000,0.000000,1.000000,0.000000,0.000000,0.000000,0.000000,0.539334,24.003763,-1.107993
1650625611.107441,4218.000000,1650625611.107272,0.000000,0.000000,1.000000,0.000000,0.000000,0.000000,0.000000,0.516495,24.002574,-1.103319
1650625611.207403,4219.000000,1650625611.207229,0.000000,0.000000,1.000000,0.000000,0.000000,0.000000,0.000000,0.491954,24.000345,-1.104487
1650625611.307444,4220.000000,1650625611.307252,0.000000,0.000000,1.000000,0.000000,0.000000,0.000000,0.000000,0.451686,24.000412,-1.056419
1650625611.407461,4221.000000,1650625611.407282,0.000000,0.000000,1.000000,0.000000,0.000000,0.000000,0.000000,0.398835,23.997197,-1.027311
1650625611.507852,4222.000000,1650625611.507591,0.000000,0.000000,1.000000,0.000000,0.000000,0.000000,0.000000,0.349487,23.996343,-1.014025
1650625611.607870,4223.000000,1650625611.607588,0.000000,0.000000,1.000000,0.000000,0.000000,0.000000,0.000000,0.317749,23.996632,-1.008682
1650625611.708288,4224.000000,1650625611.708064,0.000000,0.000000,1.000000,0.000000,0.000000,0.000000,0.000000,0.267823,23.994731,-1.005319
1650625611.807841,4225.000000,1650625611.807567,0.000000,0.000000,1.000000,0.000000,0.000000,0.000000,0.000000,0.235706,23.995124,-0.953049
1650625611.907760,4226.000000,1650625611.907506,0.000000,0.000000,1.000000,0.000000,0.000000,0.000000,0.000000,0.212841,23.996596,-0.923282
1650625612.007806,4227.000000,1650625612.007522,0.000000,0.000000,1.000000,0.000000,0.000000,0.000000,0.000000,0.204195,23.997992,-0.902247
1650625612.107810,4228.000000,1650625612.107580,0.000000,0.000000,1.000000,0.000000,0.000000,0.000000,0.000000,0.202420,23.998221,-0.887196
1650625612.207834,4229.000000,1650625612.207567,0.000000,0.000000,1.000000,0.000000,0.000000,0.000000,0.000000,0.213636,23.998436,-0.880322
1650625612.307830,4230.000000,1650625612.307596,0.000000,0.000000,1.000000,0.000000,0.000000,0.000000,0.000000,0.231595,23.997547,-0.878874
1650625612.407802,4231.000000,1650625612.407580,0.000000,0.000000,1.000000,0.000000,0.000000,0.000000,0.000000,0.253647,23.995617,-0.876171
1650625612.508153,4232.000000,1650625612.507894,0.000000,0.000000,1.000000,0.000000,0.000000,0.000000,0.000000,0.278368,23.993799,-0.881933
1650625612.607661,4233.000000,1650625612.607473,0.000000,0.000000,1.000000,0.000000,0.000000,0.000000,0.000000,0.304409,23.993183,-0.891765
1650625612.707703,4234.000000,1650625612.707471,0.000000,0.000000,1.000000,0.000000,0.000000,0.000000,0.000000,0.330498,23.992614,-0.902248
1650625612.807717,4235.000000,1650625612.807488,0.000000,0.000000,1.000000,0.000000,0.000000,0.000000,0.000000,0.355438,23.994271,-0.917361
1650625612.907390,4236.000000,1650625612.907230,0.000000,0.000000,1.000000,0.000000,0.000000,0.000000,0.000000,0.380288,23.995847,-0.933657
1650625613.007432,4237.000000,1650625613.007246,0.000000,0.000000,1.000000,0.000000,0.000000,0.000000,0.000000,0.402783,23.995159,-0.941375
1650625613.107416,4238.000000,1650625613.107238,0.000000,0.000000,1.000000,0.000000,0.000000,0.000000,0.000000,0.426248,23.995604,-0.955358
1650625613.207497,4239.000000,1650625613.207287,0.000000,0.000000,1.000000,0.000000,0.000000,0.000000,0.000000,0.446192,23.994938,-0.960809
1650625613.307659,4240.000000,1650625613.307529,0.000000,0.000000,1.000000,0.000000,0.000000,0.000000,0.000000,0.469291,23.994314,-0.968542
1650625613.407421,4241.000000,1650625613.407235,0.000000,0.000000,1.000000,0.000000,0.000000,0.000000,0.000000,0.489856,23.995911,-0.982481
1650625613.507383,4242.000000,1650625613.507162,0.000000,0.000000,1.000000,0.000000,0.000000,0.000000,0.000000,0.509060,23.998513,-0.999930
1650625613.607420,4243.000000,1650625613.607259,0.000000,0.000000,1.000000,0.000000,0.000000,0.000000,0.000000,0.528021,23.999876,-1.012652
1650625613.707469,4244.000000,1650625613.707290,0.000000,0.000000,1.000000,0.000000,0.000000,0.000000,0.000000,0.544529,24.002245,-1.028879
1650625613.807497,4245.000000,1650625613.807273,0.000000,0.000000,1.000000,0.000000,0.000000,0.000000,0.000000,0.559775,24.002286,-1.037961
1650625613.907605,4246.000000,1650625613.907413,0.000000,0.000000,1.000000,0.000000,0.000000,0.000000,0.000000,0.565077,24.005579,-0.998234
1650625614.007472,4247.000000,1650625614.007254,0.000000,0.000000,1.000000,0.000000,0.000000,0.000000,0.000000,0.570797,24.007577,-0.974640
1650625614.107921,4248.000000,1650625614.107720,0.000000,0.000000,1.000000,0.000000,0.000000,0.000000,0.000000,0.576915,24.007254,-0.953665
1650625614.207546,4249.000000,1650625614.207353,0.000000,0.000000,1.000000,0.000000,0.000000,0.000000,0.000000,0.584504,24.008012,-0.947333
1650625614.307450,4250.000000,1650625614.307281,0.000000,0.000000,1.000000,0.000000,0.000000,0.000000,0.000000,0.591300,24.008699,-0.949415
1650625614.407391,4251.000000,1650625614.407225,0.000000,0.000000,1.000000,0.000000,0.000000,0.000000,0.000000,0.597346,24.008229,-0.946662
1650625614.507452,4252.000000,1650625614.507282,0.000000,0.000000,1.000000,0.000000,0.000000,0.000000,0.000000,0.605958,24.005578,-0.944916
1650625614.607612,4253.000000,1650625614.607347,0.000000,0.000000,1.000000,0.000000,0.000000,0.000000,0.000000,0.615901,24.003054,-0.948166
1650625614.707422,4254.000000,1650625614.707191,0.000000,0.000000,1.000000,0.000000,0.000000,0.000000,0.000000,0.627091,24.001752,-0.958621
1650625614.807576,4255.000000,1650625614.807324,0.000000,0.000000,1.000000,0.000000,0.000000,0.000000,0.000000,0.635088,24.000517,-0.967100
1650625614.907854,4256.000000,1650625614.907667,0.000000,0.000000,1.000000,0.000000,0.000000,0.000000,0.000000,0.642243,23.999351,-0.977697
1650625615.007422,4257.000000,1650625615.007216,0.000000,0.000000,1.000000,0.000000,0.000000,0.000000,0.000000,0.649695,23.997163,-0.979017
1650625615.107394,4258.000000,1650625615.107216,0.000000,0.000000,1.000000,0.000000,0.000000,0.000000,0.000000,0.657427,23.995105,-0.983528
1650625615.207371,4259.000000,1650625615.207213,0.000000,0.000000,1.000000,0.000000,0.000000,0.000000,0.000000,0.666512,23.993177,-0.987059
1650625615.307408,4260.000000,1650625615.307201,0.000000,0.000000,1.000000,0.000000,0.000000,0.000000,0.000000,0.674692,23.991376,-0.995291
1650625615.407456,4261.000000,1650625615.407283,0.000000,0.000000,1.000000,0.000000,0.000000,0.000000,0.000000,0.680922,23.990790,-1.004792
1650625615.507508,4262.000000,1650625615.507322,0.000000,0.000000,1.000000,0.000000,0.000000,0.000000,0.000000,0.688586,23.990263,-1.016303
1650625615.607511,4263.000000,1650625615.607297,0.000000,0.000000,1.000000,0.000000,0.000000,0.000000,0.000000,0.692151,23.990882,-1.032144
1650625615.708225,4264.000000,1650625615.708008,0.000000,0.000000,1.000000,0.000000,0.000000,0.000000,0.000000,0.697306,23.989311,-1.037599
1650625615.807410,4265.000000,1650625615.807220,0.000000,0.000000,1.000000,0.000000,0.000000,0.000000,0.000000,0.701791,23.987852,-1.044371
1650625615.907424,4266.000000,1650625615.907233,0.000000,0.000000,1.000000,0.000000,0.000000,0.000000,0.000000,0.706739,23.985412,-1.054011
1650625616.007396,4267.000000,1650625616.007206,0.000000,0.000000,1.000000,0.000000,0.000000,0.000000,0.000000,0.713224,23.984232,-1.064778
1650625616.107452,4268.000000,1650625616.107282,0.000000,0.000000,1.000000,0.000000,0.000000,0.000000,0.000000,0.716800,23.983154,-1.069354
1650625616.207455,4269.000000,1650625616.207282,0.000000,0.000000,1.000000,0.000000,0.000000,0.000000,0.000000,0.718727,23.981083,-1.072018
1650625616.307476,4270.000000,1650625616.307277,0.000000,0.000000,1.000000,0.000000,0.000000,0.000000,0.000000,0.719110,23.980259,-1.076880
1650625616.407459,4271.000000,1650625616.407246,0.000000,0.000000,1.000000,0.000000,0.000000,0.000000,0.000000,0.719142,23.979523,-1.080622
1650625616.507846,4272.000000,1650625616.507666,0.000000,0.000000,1.000000,0.000000,0.000000,0.000000,0.000000,0.718862,23.978870,-1.083287
1650625616.607693,4273.000000,1650625616.607446,0.000000,0.000000,1.000000,0.000000,0.000000,0.000000,0.000000,0.718304,23.980476,-1.094598
1650625616.707734,4274.000000,1650625616.707521,0.000000,0.000000,1.000000,0.000000,0.000000,0.000000,0.000000,0.715323,23.980940,-1.098061
1650625616.807695,4275.000000,1650625616.807503,0.000000,0.000000,1.000000,0.000000,0.000000,0.000000,0.000000,0.711165,23.982500,-1.102058
1650625616.907955,4276.000000,1650625616.907614,0.000000,0.000000,1.000000,0.000000,0.000000,0.000000,0.000000,0.711375,23.984000,-1.111405
1650625617.008079,4277.000000,1650625617.007679,0.000000,0.000000,1.000000,0.000000,0.000000,0.000000,0.000000,0.710273,23.984348,-1.105715
1650625617.108179,4278.000000,1650625617.107873,0.000000,0.000000,1.000000,0.000000,0.000000,0.000000,0.000000,0.709039,23.984692,-1.097705
1650625617.208137,4279.000000,1650625617.207877,0.000000,0.000000,1.000000,0.000000,0.000000,0.000000,0.000000,0.708783,23.985033,-1.092328
1650625617.308316,4280.000000,1650625617.308004,0.000000,0.000000,1.000000,0.000000,0.000000,0.000000,0.000000,0.710556,23.985368,-1.091911
1650625617.407715,4281.000000,1650625617.407519,0.000000,0.000000,1.000000,0.000000,0.000000,0.000000,0.000000,0.712068,23.984605,-1.086580
1650625617.507812,4282.000000,1650625617.507627,0.000000,0.000000,1.000000,0.000000,0.000000,0.000000,0.000000,0.713340,23.984986,-1.085418
1650625617.608255,4283.000000,1650625617.607875,0.000000,0.000000,1.000000,0.000000,0.000000,0.000000,0.000000,0.713299,23.985358,-1.089875
1650625617.708224,4284.000000,1650625617.707913,0.000000,0.000000,1.000000,0.000000,0.000000,0.000000,0.000000,0.709844,23.987899,-1.098106
1650625617.808073,4285.000000,1650625617.807811,0.000000,0.000000,1.000000,0.000000,0.000000,0.000000,0.000000,0.705362,23.990302,-1.107531
1650625617.908072,4286.000000,1650625617.907789,0.000000,0.000000,1.000000,0.000000,0.000000,0.000000,0.000000,0.701020,23.991476,-1.118088
1650625618.008073,4287.000000,1650625618.007804,0.000000,0.000000,1.000000,0.000000,0.000000,0.000000,0.000000,0.695741,23.992577,-1.121653
1650625618.107917,4288.000000,1650625618.107723,0.000000,0.000000,1.000000,0.000000,0.000000,0.000000,0.000000,0.689596,23.992513,-1.122540
1650625618.207397,4289.000000,1650625618.207211,0.000000,0.000000,1.000000,0.000000,0.000000,0.000000,0.000000,0.683746,23.993531,-1.124892
1650625618.308091,4290.000000,1650625618.307885,0.000000,0.000000,1.000000,0.000000,0.000000,0.000000,0.000000,0.676014,23.994479,-1.128650
1650625618.407475,4291.000000,1650625618.407265,0.000000,0.000000,1.000000,0.000000,0.000000,0.000000,0.000000,0.670892,23.994268,-1.131338
1650625618.507620,4292.000000,1650625618.507475,0.000000,0.000000,1.000000,0.000000,0.000000,0.000000,0.000000,0.666070,23.994052,-1.134610
1650625618.607468,4293.000000,1650625618.607293,0.000000,0.000000,1.000000,0.000000,0.000000,0.000000,0.000000,0.660457,23.996016,-1.144895
1650625618.707476,4294.000000,1650625618.707303,0.000000,0.000000,1.000000,0.000000,0.000000,0.000000,0.000000,0.656292,23.996763,-1.152220
1650625618.807577,4295.000000,1650625618.807408,0.000000,0.000000,1.000000,0.000000,0.000000,0.000000,0.000000,0.653505,23.997449,-1.153471
1650625618.907832,4296.000000,1650625618.907496,0.000000,0.000000,1.000000,0.000000,0.000000,0.000000,0.000000,0.652028,23.998077,-1.154541
1650625619.007435,4297.000000,1650625619.007224,0.000000,0.000000,1.000000,0.000000,0.000000,0.000000,0.000000,0.655061,23.997557,-1.154636
1650625619.107396,4298.000000,1650625619.107219,0.000000,0.000000,1.000000,0.000000,0.000000,0.000000,0.000000,0.659073,23.997047,-1.157024
1650625619.207572,4299.000000,1650625619.207365,0.000000,0.000000,1.000000,0.000000,0.000000,0.000000,0.000000,0.662906,23.997638,-1.164036
1650625619.307708,4300.000000,1650625619.307457,0.000000,0.000000,1.000000,0.000000,0.000000,0.000000,0.000000,0.663283,23.997090,-1.165798
1650625619.407676,4301.000000,1650625619.407272,0.000000,0.000000,1.000000,0.000000,0.000000,0.000000,0.000000,0.662570,23.997646,-1.168172
1650625619.507784,4302.000000,1650625619.507519,0.000000,0.000000,1.000000,0.000000,0.000000,0.000000,0.000000,0.659739,23.998158,-1.171939
1650625619.607885,4303.000000,1650625619.607543,0.000000,0.000000,1.000000,0.000000,0.000000,0.000000,0.000000,0.658182,23.998624,-1.177849
1650625619.707939,4304.000000,1650625619.707696,0.000000,0.000000,1.000000,0.000000,0.000000,0.000000,0.000000,0.662195,23.997959,-1.186617
1650625619.807496,4305.000000,1650625619.807287,0.000000,0.000000,1.000000,0.000000,0.000000,0.000000,0.000000,0.666009,23.996225,-1.191668
1650625619.907512,4306.000000,1650625619.907291,0.000000,0.000000,1.000000,0.000000,0.000000,0.000000,0.000000,0.668530,23.996759,-1.202824
1650625620.007500,4307.000000,1650625620.007319,0.000000,0.000000,1.000000,0.000000,0.000000,0.000000,0.000000,0.663279,24.000527,-1.159344
1650625620.107462,4308.000000,1650625620.107287,0.000000,0.000000,1.000000,0.000000,0.000000,0.000000,0.000000,0.657238,24.002978,-1.128027
1650625620.207456,4309.000000,1650625620.207282,0.000000,0.000000,1.000000,0.000000,0.000000,0.000000,0.000000,0.653739,24.005270,-1.106017
1650625620.307475,4310.000000,1650625620.307278,0.000000,0.000000,1.000000,0.000000,0.000000,0.000000,0.000000,0.652653,24.007404,-1.093786
1650625620.407465,4311.000000,1650625620.407280,0.000000,0.000000,1.000000,0.000000,0.000000,0.000000,0.000000,0.650578,24.008295,-1.083701
1650625620.507903,4312.000000,1650625620.507744,0.000000,0.000000,1.000000,0.000000,0.000000,0.000000,0.000000,0.647573,24.009099,-1.078916
1650625620.607390,4313.000000,1650625620.607223,0.000000,0.000000,1.000000,0.000000,0.000000,0.000000,0.000000,0.645875,24.006550,-1.073578
1650625620.707417,4314.000000,1650625620.707253,0.000000,0.000000,1.000000,0.000000,0.000000,0.000000,0.000000,0.643234,24.004111,-1.066911
1650625620.807379,4315.000000,1650625620.807223,0.000000,0.000000,1.000000,0.000000,0.000000,0.000000,0.000000,0.640799,24.000697,-1.062201
1650625620.907397,4316.000000,1650625620.907233,0.000000,0.000000,1.000000,0.000000,0.000000,0.000000,0.000000,0.641832,23.998552,-1.061794
1650625621.007485,4317.000000,1650625621.007334,0.000000,0.000000,1.000000,0.000000,0.000000,0.000000,0.000000,0.640686,23.996524,-1.064707
1650625621.107556,4318.000000,1650625621.107344,0.000000,0.000000,1.000000,0.000000,0.000000,0.000000,0.000000,0.640751,23.993523,-1.057896
1650625621.207538,4319.000000,1650625621.207328,0.000000,0.000000,1.000000,0.000000,0.000000,0.000000,0.000000,0.639777,23.992882,-1.054663
1650625621.308277,4320.000000,1650625621.308014,0.000000,0.000000,1.000000,0.000000,0.000000,0.000000,0.000000,0.636730,23.992293,-1.050835
1650625621.407757,4321.000000,1650625621.407490,0.000000,0.000000,1.000000,0.000000,0.000000,0.000000,0.000000,0.632819,23.992844,-1.056116
1650625621.507772,4322.000000,1650625621.507503,0.000000,0.000000,1.000000,0.000000,0.000000,0.000000,0.000000,0.629191,23.993380,-1.062868
1650625621.607742,4323.000000,1650625621.607502,0.000000,0.000000,1.000000,0.000000,0.000000,0.000000,0.000000,0.628019,23.991718,-1.066986
1650625621.707781,4324.000000,1650625621.707533,0.000000,0.000000,1.000000,0.000000,0.000000,0.000000,0.000000,0.629168,23.992345,-1.076630
1650625621.807616,4325.000000,1650625621.807397,0.000000,0.000000,1.000000,0.000000,0.000000,0.000000,0.000000,0.630322,23.992951,-1.084302
1650625621.907421,4326.000000,1650625621.907220,0.000000,0.000000,1.000000,0.000000,0.000000,0.000000,0.000000,0.629294,23.993536,-1.094906
1650625622.007539,4327.000000,1650625622.007332,0.000000,0.000000,1.000000,0.000000,0.000000,0.000000,0.000000,0.628382,23.994097,-1.101046
1650625622.107786,4328.000000,1650625622.107493,0.000000,0.000000,1.000000,0.000000,0.000000,0.000000,0.000000,0.626490,23.993544,-1.101280
1650625622.207419,4329.000000,1650625622.207240,0.000000,0.000000,1.000000,0.000000,0.000000,0.000000,0.000000,0.626944,23.994120,-1.102296
1650625622.307384,4330.000000,1650625622.307224,0.000000,0.000000,1.000000,0.000000,0.000000,0.000000,0.000000,0.626340,23.993579,-1.096806
1650625622.407366,4331.000000,1650625622.407213,0.000000,0.000000,1.000000,0.000000,0.000000,0.000000,0.000000,0.625825,23.991984,-1.091531
1650625622.507442,4332.000000,1650625622.507274,0.000000,0.000000,1.000000,0.000000,0.000000,0.000000,0.000000,0.624302,23.991579,-1.092119
1650625622.607444,4333.000000,1650625622.607267,0.000000,0.000000,1.000000,0.000000,0.000000,0.000000,0.000000,0.625099,23.992298,-1.099137
1650625622.707462,4334.000000,1650625622.707284,0.000000,0.000000,1.000000,0.000000,0.000000,0.000000,0.000000,0.629173,23.992987,-1.108283
1650625622.807580,4335.000000,1650625622.807398,0.000000,0.000000,1.000000,0.000000,0.000000,0.000000,0.000000,0.630880,23.992554,-1.112198
1650625622.907691,4336.000000,1650625622.907406,0.000000,0.000000,1.000000,0.000000,0.000000,0.000000,0.000000,0.632521,23.991063,-1.105441
1650625623.007429,4337.000000,1650625623.007253,0.000000,0.000000,1.000000,0.000000,0.000000,0.000000,0.000000,0.635183,23.989664,-1.100552
1650625623.107399,4338.000000,1650625623.107222,0.000000,0.000000,1.000000,0.000000,0.000000,0.000000,0.000000,0.634440,23.988357,-1.096659
1650625623.207397,4339.000000,1650625623.207234,0.000000,0.000000,1.000000,0.000000,0.000000,0.000000,0.000000,0.633750,23.984959,-1.086470
1650625623.307830,4340.000000,1650625623.307652,0.000000,0.000000,1.000000,0.000000,0.000000,0.000000,0.000000,0.635293,23.982865,-1.084772
1650625623.407694,4341.000000,1650625623.407459,0.000000,0.000000,1.000000,0.000000,0.000000,0.000000,0.000000,0.635669,23.982009,-1.087194
1650625623.507516,4342.000000,1650625623.507373,0.000000,0.000000,1.000000,0.000000,0.000000,0.000000,0.000000,0.636032,23.982324,-1.097595
1650625623.607509,4343.000000,1650625623.607302,0.000000,0.000000,1.000000,0.000000,0.000000,0.000000,0.000000,0.635290,23.983743,-1.110799
1650625623.707793,4344.000000,1650625623.707497,0.000000,0.000000,1.000000,0.000000,0.000000,0.000000,0.000000,0.637866,23.985110,-1.122637
1650625623.807723,4345.000000,1650625623.807514,0.000000,0.000000,1.000000,0.000000,0.000000,0.000000,0.000000,0.639211,23.987512,-1.133953
1650625623.907682,4346.000000,1650625623.907481,0.000000,0.000000,1.000000,0.000000,0.000000,0.000000,0.000000,0.642657,23.989793,-1.147168
1650625624.007813,4347.000000,1650625624.007588,0.000000,0.000000,1.000000,0.000000,0.000000,0.000000,0.000000,0.646991,23.991953,-1.155736
1650625624.107733,4348.000000,1650625624.107547,0.000000,0.000000,1.000000,0.000000,0.000000,0.000000,0.000000,0.643426,23.996172,-1.113865
1650625624.208055,4349.000000,1650625624.207743,0.000000,0.000000,1.000000,0.000000,0.000000,0.000000,0.000000,0.643311,23.999053,-1.087371
1650625624.308015,4350.000000,1650625624.307787,0.000000,0.000000,1.000000,0.000000,0.000000,0.000000,0.000000,0.643188,24.001752,-1.068424
1650625624.407878,4351.000000,1650625624.407645,0.000000,0.000000,1.000000,0.000000,0.000000,0.000000,0.000000,0.637607,24.006452,-1.003525
1650625624.508174,4352.000000,1650625624.508001,0.000000,0.000000,1.000000,0.000000,0.000000,0.000000,0.000000,0.636696,24.008670,-0.961567
1650625624.607832,4353.000000,1650625624.607596,0.000000,0.000000,1.000000,0.000000,0.000000,0.000000,0.000000,0.633661,24.009627,-0.927982
1650625624.707799,4354.000000,1650625624.707554,0.000000,0.000000,1.000000,0.000000,0.000000,0.000000,0.000000,0.632989,24.009391,-0.904899
1650625624.807679,4355.000000,1650625624.807461,0.000000,0.000000,1.000000,0.000000,0.000000,0.000000,0.000000,0.632371,24.009123,-0.889501
1650625624.907827,4356.000000,1650625624.907584,0.000000,0.000000,1.000000,0.000000,0.000000,0.000000,0.000000,0.632897,24.007735,-0.880688
1650625625.007816,4357.000000,1650625625.007573,0.000000,0.000000,1.000000,0.000000,0.000000,0.000000,0.000000,0.633410,24.007478,-0.879807
1650625625.107774,4358.000000,1650625625.107536,0.000000,0.000000,1.000000,0.000000,0.000000,0.000000,0.000000,0.634998,24.008292,-0.889753
1650625625.207819,4359.000000,1650625625.207588,0.000000,0.000000,1.000000,0.000000,0.000000,0.000000,0.000000,0.636508,24.006848,-0.895543
1650625625.308308,4360.000000,1650625625.308007,0.000000,0.000000,1.000000,0.000000,0.000000,0.000000,0.000000,0.630306,24.008726,-0.852969
1650625625.407921,4361.000000,1650625625.407664,0.000000,0.000000,1.000000,0.000000,0.000000,0.000000,0.000000,0.628824,24.010470,-0.830976
1650625625.507786,4362.000000,1650625625.507558,0.000000,0.000000,1.000000,0.000000,0.000000,0.000000,0.000000,0.628539,24.012084,-0.821502
1650625625.607690,4363.000000,1650625625.607476,0.000000,0.000000,1.000000,0.000000,0.000000,0.000000,0.000000,0.629385,24.012481,-0.817592
1650625625.707850,4364.000000,1650625625.707586,0.000000,0.000000,1.000000,0.000000,0.000000,0.000000,0.000000,0.630206,24.013910,-0.828691
1650625625.807781,4365.000000,1650625625.807537,0.000000,0.000000,1.000000,0.000000,0.000000,0.000000,0.000000,0.630998,24.014131,-0.840451
1650625625.907800,4366.000000,1650625625.907572,0.000000,0.000000,1.000000,0.000000,0.000000,0.000000,0.000000,0.633942,24.013212,-0.853621
1650625626.007830,4367.000000,1650625626.007637,0.000000,0.000000,1.000000,0.000000,0.000000,0.000000,0.000000,0.635638,24.012309,-0.864882
1650625626.107787,4368.000000,1650625626.107394,0.000000,0.000000,1.000000,0.000000,0.000000,0.000000,0.000000,0.637239,24.010337,-0.876704
1650625626.207481,4369.000000,1650625626.207286,0.000000,0.000000,1.000000,0.000000,0.000000,0.000000,0.000000,0.638747,24.007362,-0.887421
1650625626.307421,4370.000000,1650625626.307261,0.000000,0.000000,1.000000,0.000000,0.000000,0.000000,0.000000,0.639070,24.005630,-0.903503
1650625626.407436,4371.000000,1650625626.407283,0.000000,0.000000,1.000000,0.000000,0.000000,0.000000,0.000000,0.640454,24.003988,-0.919864
1650625626.507454,4372.000000,1650625626.507263,0.000000,0.000000,1.000000,0.000000,0.000000,0.000000,0.000000,0.636296,24.005708,-0.884037
1650625626.607839,4373.000000,1650625626.607596,0.000000,0.000000,1.000000,0.000000,0.000000,0.000000,0.000000,0.634543,24.005150,-0.853831
1650625626.707832,4374.000000,1650625626.707582,0.000000,0.000000,1.000000,0.000000,0.000000,0.000000,0.000000,0.633980,24.003530,-0.837127
1650625626.807812,4375.000000,1650625626.807599,0.000000,0.000000,1.000000,0.000000,0.000000,0.000000,0.000000,0.634544,24.002001,-0.829370
1650625626.908209,4376.000000,1650625626.907961,0.000000,0.000000,1.000000,0.000000,0.000000,0.000000,0.000000,0.636172,24.000563,-0.829398
1650625627.007774,4377.000000,1650625627.007503,0.000000,0.000000,1.000000,0.000000,0.000000,0.000000,0.000000,0.638799,23.999216,-0.837693
1650625627.107871,4378.000000,1650625627.107574,0.000000,0.000000,1.000000,0.000000,0.000000,0.000000,0.000000,0.640183,23.997958,-0.849867
1650625627.207729,4379.000000,1650625627.207527,0.000000,0.000000,1.000000,0.000000,0.000000,0.000000,0.000000,0.640387,23.995696,-0.859285
1650625627.308136,4380.000000,1650625627.307829,0.000000,0.000000,1.000000,0.000000,0.000000,0.000000,0.000000,0.637295,23.993583,-0.870874
1650625627.408027,4381.000000,1650625627.407859,0.000000,0.000000,1.000000,0.000000,0.000000,0.000000,0.000000,0.636550,23.992704,-0.883714
1650625627.507966,4382.000000,1650625627.507762,0.000000,0.000000,1.000000,0.000000,0.000000,0.000000,0.000000,0.638025,23.991905,-0.901762
1650625627.607998,4383.000000,1650625627.607805,0.000000,0.000000,1.000000,0.000000,0.000000,0.000000,0.000000,0.639415,23.991180,-0.922354
1650625627.708242,4384.000000,1650625627.708047,0.000000,0.000000,1.000000,0.000000,0.000000,0.000000,0.000000,0.642901,23.990528,-0.944544
1650625627.807693,4385.000000,1650625627.807490,0.000000,0.000000,1.000000,0.000000,0.000000,0.000000,0.000000,0.645086,23.991033,-0.970649
1650625627.907713,4386.000000,1650625627.907516,0.000000,0.000000,1.000000,0.000000,0.000000,0.000000,0.000000,0.648218,23.990449,-0.983533
1650625628.007685,4387.000000,1650625628.007499,0.000000,0.000000,1.000000,0.000000,0.000000,0.000000,0.000000,0.643512,23.993198,-0.948226
1650625628.107507,4388.000000,1650625628.107319,0.000000,0.000000,1.000000,0.000000,0.000000,0.000000,0.000000,0.640137,23.995815,-0.930444
1650625628.207480,4389.000000,1650625628.207273,0.000000,0.000000,1.000000,0.000000,0.000000,0.000000,0.000000,0.640210,23.998299,-0.927092
1650625628.307781,4390.000000,1650625628.307608,0.000000,0.000000,1.000000,0.000000,0.000000,0.000000,0.000000,0.641365,23.999558,-0.930336
1650625628.407502,4391.000000,1650625628.407313,0.000000,0.000000,1.000000,0.000000,0.000000,0.000000,0.000000,0.641358,24.000746,-0.939098
1650625628.507909,4392.000000,1650625628.507640,0.000000,0.000000,1.000000,0.000000,0.000000,0.000000,0.000000,0.641343,24.001863,-0.952334
1650625628.607392,4393.000000,1650625628.607206,0.000000,0.000000,1.000000,0.000000,0.000000,0.000000,0.000000,0.642412,24.002909,-0.973069
1650625628.707432,4394.000000,1650625628.707258,0.000000,0.000000,1.000000,0.000000,0.000000,0.000000,0.000000,0.643412,24.004976,-0.996126
1650625628.807507,4395.000000,1650625628.807337,0.000000,0.000000,1.000000,0.000000,0.000000,0.000000,0.000000,0.642163,24.005821,-1.013311
1650625628.907483,4396.000000,1650625628.907299,0.000000,0.000000,1.000000,0.000000,0.000000,0.000000,0.000000,0.640974,24.005511,-1.021612
1650625629.007493,4397.000000,1650625629.007295,0.000000,0.000000,1.000000,0.000000,0.000000,0.000000,0.000000,0.638756,24.006290,-1.037505
1650625629.107465,4398.000000,1650625629.107270,0.000000,0.000000,1.000000,0.000000,0.000000,0.000000,0.000000,0.638842,24.007007,-1.051793
1650625629.207508,4399.000000,1650625629.207315,0.000000,0.000000,1.000000,0.000000,0.000000,0.000000,0.000000,0.632383,24.010936,-1.013717
1650625629.307904,4400.000000,1650625629.307714,0.000000,0.000000,1.000000,0.000000,0.000000,0.000000,0.000000,0.618667,24.015710,-0.945619
1650625629.407633,4401.000000,1650625629.407428,0.000000,0.000000,1.000000,0.000000,0.000000,0.000000,0.000000,0.609033,24.016908,-0.889960
1650625629.507507,4402.000000,1650625629.507315,0.000000,0.000000,1.000000,0.000000,0.000000,0.000000,0.000000,0.605468,24.016905,-0.857622
1650625629.607703,4403.000000,1650625629.607427,0.000000,0.000000,1.000000,0.000000,0.000000,0.000000,0.000000,0.604374,24.015768,-0.837231
1650625629.707638,4404.000000,1650625629.707444,0.000000,0.000000,1.000000,0.000000,0.000000,0.000000,0.000000,0.605616,24.014656,-0.825914
1650625629.807528,4405.000000,1650625629.807338,0.000000,0.000000,1.000000,0.000000,0.000000,0.000000,0.000000,0.610147,24.013573,-0.824931
1650625629.907532,4406.000000,1650625629.907335,0.000000,0.000000,1.000000,0.000000,0.000000,0.000000,0.000000,0.613408,24.012522,-0.830631
1650625630.007861,4407.000000,1650625630.007655,0.000000,0.000000,1.000000,0.000000,0.000000,0.000000,0.000000,0.614362,24.012598,-0.840308
1650625630.108195,4408.000000,1650625630.108001,0.000000,0.000000,1.000000,0.000000,0.000000,0.000000,0.000000,0.616401,24.012649,-0.855391
1650625630.207386,4409.000000,1650625630.207233,0.000000,0.000000,1.000000,0.000000,0.000000,0.000000,0.000000,0.620547,24.011587,-0.871598
1650625630.307424,4410.000000,1650625630.307272,0.000000,0.000000,1.000000,0.000000,0.000000,0.000000,0.000000,0.626670,24.008388,-0.888852
1650625630.407606,4411.000000,1650625630.407387,0.000000,0.000000,1.000000,0.000000,0.000000,0.000000,0.000000,0.631371,24.005359,-0.903044
1650625630.507678,4412.000000,1650625630.507495,0.000000,0.000000,1.000000,0.000000,0.000000,0.000000,0.000000,0.636893,24.002500,-0.919111
1650625630.607498,4413.000000,1650625630.607317,0.000000,0.000000,1.000000,0.000000,0.000000,0.000000,0.000000,0.640993,23.999812,-0.936949
1650625630.707994,4414.000000,1650625630.707711,0.000000,0.000000,1.000000,0.000000,0.000000,0.000000,0.000000,0.642648,23.998382,-0.954037
1650625630.807653,4415.000000,1650625630.807504,0.000000,0.000000,1.000000,0.000000,0.000000,0.000000,0.000000,0.641988,23.997056,-0.969570
1650625630.908151,4416.000000,1650625630.907923,0.000000,0.000000,1.000000,0.000000,0.000000,0.000000,0.000000,0.642415,23.995829,-0.982782
1650625631.007728,4417.000000,1650625631.007510,0.000000,0.000000,1.000000,0.000000,0.000000,0.000000,0.000000,0.641690,23.992520,-0.986489
1650625631.107783,4418.000000,1650625631.107602,0.000000,0.000000,1.000000,0.000000,0.000000,0.000000,0.000000,0.643151,23.990519,-0.995587
1650625631.207777,4419.000000,1650625631.207594,0.000000,0.000000,1.000000,0.000000,0.000000,0.000000,0.000000,0.644496,23.988671,-1.006624
1650625631.307828,4420.000000,1650625631.307606,0.000000,0.000000,1.000000,0.000000,0.000000,0.000000,0.000000,0.645728,23.988060,-1.021119
1650625631.407833,4421.000000,1650625631.407606,0.000000,0.000000,1.000000,0.000000,0.000000,0.000000,0.000000,0.649035,23.988618,-1.039721
1650625631.507754,4422.000000,1650625631.507533,0.000000,0.000000,1.000000,0.000000,0.000000,0.000000,0.000000,0.651022,23.989187,-1.059013
1650625631.607864,4423.000000,1650625631.607626,0.000000,0.000000,1.000000,0.000000,0.000000,0.000000,0.000000,0.655029,23.989762,-1.077329
1650625631.708212,4424.000000,1650625631.708000,0.000000,0.000000,1.000000,0.000000,0.000000,0.000000,0.000000,0.659848,23.990338,-1.093072
1650625631.807749,4425.000000,1650625631.807518,0.000000,0.000000,1.000000,0.000000,0.000000,0.000000,0.000000,0.663240,23.989823,-1.105523
1650625631.907725,4426.000000,1650625631.907557,0.000000,0.000000,1.000000,0.000000,0.000000,0.000000,0.000000,0.662006,23.991545,-1.117222
1650625632.007897,4427.000000,1650625632.007632,0.000000,0.000000,1.000000,0.000000,0.000000,0.000000,0.000000,0.661859,23.994286,-1.135449
1650625632.107922,4428.000000,1650625632.107671,0.000000,0.000000,1.000000,0.000000,0.000000,0.000000,0.000000,0.662743,23.994709,-1.149435
1650625632.207878,4429.000000,1650625632.207619,0.000000,0.000000,1.000000,0.000000,0.000000,0.000000,0.000000,0.665695,23.995119,-1.160148
1650625632.307851,4430.000000,1650625632.307642,0.000000,0.000000,1.000000,0.000000,0.000000,0.000000,0.000000,0.668415,23.996606,-1.174164
1650625632.407824,4431.000000,1650625632.407659,0.000000,0.000000,1.000000,0.000000,0.000000,0.000000,0.000000,0.667640,23.999105,-1.188114
1650625632.507848,4432.000000,1650625632.507684,0.000000,0.000000,1.000000,0.000000,0.000000,0.000000,0.000000,0.669019,24.000373,-1.197956
1650625632.607763,4433.000000,1650625632.607538,0.000000,0.000000,1.000000,0.000000,0.000000,0.000000,0.000000,0.670254,24.001564,-1.210305
1650625632.707749,4434.000000,1650625632.707499,0.000000,0.000000,1.000000,0.000000,0.000000,0.000000,0.000000,0.671353,24.003767,-1.222633
1650625632.807727,4435.000000,1650625632.807479,0.000000,0.000000,1.000000,0.000000,0.000000,0.000000,0.000000,0.670142,24.003652,-1.226869
1650625632.907939,4436.000000,1650625632.907754,0.000000,0.000000,1.000000,0.000000,0.000000,0.000000,0.000000,0.668937,24.004617,-1.236251
1650625633.007801,4437.000000,1650625633.007587,0.000000,0.000000,1.000000,0.000000,0.000000,0.000000,0.000000,0.666654,24.004420,-1.241696
1650625633.107803,4438.000000,1650625633.107617,0.000000,0.000000,1.000000,0.000000,0.000000,0.000000,0.000000,0.665542,24.004217,-1.248207
1650625633.207833,4439.000000,1650625633.207603,0.000000,0.000000,1.000000,0.000000,0.000000,0.000000,0.000000,0.665545,24.004010,-1.257358
1650625633.308384,4440.000000,1650625633.308177,0.000000,0.000000,1.000000,0.000000,0.000000,0.000000,0.000000,0.665512,24.003800,-1.269039
1650625633.407770,4441.000000,1650625633.407583,0.000000,0.000000,1.000000,0.000000,0.000000,0.000000,0.000000,0.664357,24.003588,-1.272659
1650625633.507658,4442.000000,1650625633.507501,0.000000,0.000000,1.000000,0.000000,0.000000,0.000000,0.000000,0.665419,24.002287,-1.275809
1650625633.607445,4443.000000,1650625633.607285,0.000000,0.000000,1.000000,0.000000,0.000000,0.000000,0.000000,0.666394,24.001051,-1.280128
1650625633.707664,4444.000000,1650625633.707477,0.000000,0.000000,1.000000,0.000000,0.000000,0.000000,0.000000,0.667285,23.999879,-1.281544
1650625633.807569,4445.000000,1650625633.807373,0.000000,0.000000,1.000000,0.000000,0.000000,0.000000,0.000000,0.667006,23.999864,-1.283409
1650625633.907722,4446.000000,1650625633.907529,0.000000,0.000000,1.000000,0.000000,0.000000,0.000000,0.000000,0.666713,23.999851,-1.286522
1650625634.007505,4447.000000,1650625634.007331,0.000000,0.000000,1.000000,0.000000,0.000000,0.000000,0.000000,0.666410,23.999841,-1.288419
1650625634.107921,4448.000000,1650625634.107519,0.000000,0.000000,1.000000,0.000000,0.000000,0.000000,0.000000,0.667190,23.999833,-1.289966
1650625634.207452,4449.000000,1650625634.207240,0.000000,0.000000,1.000000,0.000000,0.000000,0.000000,0.000000,0.667903,23.999826,-1.291185
1650625634.307617,4450.000000,1650625634.307371,0.000000,0.000000,1.000000,0.000000,0.000000,0.000000,0.000000,0.666370,24.000912,-1.292904
1650625634.407930,4451.000000,1650625634.407748,0.000000,0.000000,1.000000,0.000000,0.000000,0.000000,0.000000,0.665992,23.999756,-1.291079
1650625634.507881,4452.000000,1650625634.507679,0.000000,0.000000,1.000000,0.000000,0.000000,0.000000,0.000000,0.666707,23.999755,-1.289900
1650625634.607565,4453.000000,1650625634.607358,0.000000,0.000000,1.000000,0.000000,0.000000,0.000000,0.000000,0.668456,23.999755,-1.290157
1650625634.707722,4454.000000,1650625634.707514,0.000000,0.000000,1.000000,0.000000,0.000000,0.000000,0.000000,0.668997,23.999757,-1.292610
1650625634.807704,4455.000000,1650625634.807508,0.000000,0.000000,1.000000,0.000000,0.000000,0.000000,0.000000,0.668394,23.999761,-1.293947
1650625634.907817,4456.000000,1650625634.907579,0.000000,0.000000,1.000000,0.000000,0.000000,0.000000,0.000000,0.669985,23.999765,-1.294221
1650625635.007520,4457.000000,1650625635.007324,0.000000,0.000000,1.000000,0.000000,0.000000,0.000000,0.000000,0.669285,23.998680,-1.290257
1650625635.107531,4458.000000,1650625635.107332,0.000000,0.000000,1.000000,0.000000,0.000000,0.000000,0.000000,0.671874,23.997659,-1.287079
1650625635.207616,4459.000000,1650625635.207422,0.000000,0.000000,1.000000,0.000000,0.000000,0.000000,0.000000,0.672114,23.995611,-1.266121
1650625635.307635,4460.000000,1650625635.307398,0.000000,0.000000,1.000000,0.000000,0.000000,0.000000,0.000000,0.673404,23.993687,-1.249914
1650625635.407492,4461.000000,1650625635.407229,0.000000,0.000000,1.000000,0.000000,0.000000,0.000000,0.000000,0.676777,23.991887,-1.236689
1650625635.507497,4462.000000,1650625635.507257,0.000000,0.000000,1.000000,0.000000,0.000000,0.000000,0.000000,0.682108,23.990209,-1.227964
1650625635.607734,4463.000000,1650625635.607549,0.000000,0.000000,1.000000,0.000000,0.000000,0.000000,0.000000,0.686006,23.988650,-1.218735
1650625635.707787,4464.000000,1650625635.707542,0.000000,0.000000,1.000000,0.000000,0.000000,0.000000,0.000000,0.688540,23.988296,-1.213075
1650625635.807651,4465.000000,1650625635.807425,0.000000,0.000000,1.000000,0.000000,0.000000,0.000000,0.000000,0.682147,23.991263,-1.157623
1650625635.907489,4466.000000,1650625635.907254,0.000000,0.000000,1.000000,0.000000,0.000000,0.000000,0.000000,0.678240,23.994087,-1.119804
1650625636.007823,4467.000000,1650625636.007521,0.000000,0.000000,1.000000,0.000000,0.000000,0.000000,0.000000,0.675609,23.994586,-1.088484
1650625636.107841,4468.000000,1650625636.107615,0.000000,0.000000,1.000000,0.000000,0.000000,0.000000,0.000000,0.673104,23.995064,-1.066675
1650625636.207510,4469.000000,1650625636.207315,0.000000,0.000000,1.000000,0.000000,0.000000,0.000000,0.000000,0.671817,23.996611,-1.055636
1650625636.307523,4470.000000,1650625636.307340,0.000000,0.000000,1.000000,0.000000,0.000000,0.000000,0.000000,0.670596,23.998075,-1.051716
1650625636.407528,4471.000000,1650625636.407329,0.000000,0.000000,1.000000,0.000000,0.000000,0.000000,0.000000,0.669441,23.998363,-1.044142
1650625636.507918,4472.000000,1650625636.507591,0.000000,0.000000,1.000000,0.000000,0.000000,0.000000,0.000000,0.669444,23.998630,-1.037903
1650625636.607850,4473.000000,1650625636.607585,0.000000,0.000000,1.000000,0.000000,0.000000,0.000000,0.000000,0.669449,23.997786,-1.030528
1650625636.707824,4474.000000,1650625636.707607,0.000000,0.000000,1.000000,0.000000,0.000000,0.000000,0.000000,0.667277,23.996985,-1.022065
1650625636.807771,4475.000000,1650625636.807514,0.000000,0.000000,1.000000,0.000000,0.000000,0.000000,0.000000,0.655419,23.998409,-0.972240
1650625636.907854,4476.000000,1650625636.907645,0.000000,0.000000,1.000000,0.000000,0.000000,0.000000,0.000000,0.646435,23.997569,-0.931989
1650625637.007835,4477.000000,1650625637.007616,0.000000,0.000000,1.000000,0.000000,0.000000,0.000000,0.000000,0.638012,23.996773,-0.907433
1650625637.107787,4478.000000,1650625637.107556,0.000000,0.000000,1.000000,0.000000,0.000000,0.000000,0.000000,0.630142,23.996021,-0.892320
1650625637.207824,4479.000000,1650625637.207627,0.000000,0.000000,1.000000,0.000000,0.000000,0.000000,0.000000,0.626087,23.996404,-0.889505
1650625637.307890,4480.000000,1650625637.307646,0.000000,0.000000,1.000000,0.000000,0.000000,0.000000,0.000000,0.624553,23.996768,-0.896867
1650625637.407421,4481.000000,1650625637.407234,0.000000,0.000000,1.000000,0.000000,0.000000,0.000000,0.000000,0.623220,23.996022,-0.901871
1650625637.507477,4482.000000,1650625637.507336,0.000000,0.000000,1.000000,0.000000,0.000000,0.000000,0.000000,0.623166,23.996410,-0.912652
1650625637.607566,4483.000000,1650625637.607394,0.000000,0.000000,1.000000,0.000000,0.000000,0.000000,0.000000,0.624314,23.997868,-0.929753
1650625637.707536,4484.000000,1650625637.707357,0.000000,0.000000,1.000000,0.000000,0.000000,0.000000,0.000000,0.625499,23.998154,-0.942392
1650625637.807553,4485.000000,1650625637.807344,0.000000,0.000000,1.000000,0.000000,0.000000,0.000000,0.000000,0.626708,23.998420,-0.954750
1650625637.907493,4486.000000,1650625637.907316,0.000000,0.000000,1.000000,0.000000,0.000000,0.000000,0.000000,0.626842,23.997576,-0.966807
1650625638.007516,4487.000000,1650625638.007336,0.000000,0.000000,1.000000,0.000000,0.000000,0.000000,0.000000,0.628135,23.995687,-0.971288
1650625638.107787,4488.000000,1650625638.107573,0.000000,0.000000,1.000000,0.000000,0.000000,0.000000,0.000000,0.630514,23.992814,-0.975742
1650625638.207435,4489.000000,1650625638.207278,0.000000,0.000000,1.000000,0.000000,0.000000,0.000000,0.000000,0.632820,23.991201,-0.983383
1650625638.307769,4490.000000,1650625638.307622,0.000000,0.000000,1.000000,0.000000,0.000000,0.000000,0.000000,0.629593,23.990785,-0.997288
1650625638.407519,4491.000000,1650625638.407345,0.000000,0.000000,1.000000,0.000000,0.000000,0.000000,0.000000,0.629866,23.990408,-1.013145
1650625638.507477,4492.000000,1650625638.507311,0.000000,0.000000,1.000000,0.000000,0.000000,0.000000,0.000000,0.631263,23.990070,-1.033263
1650625638.607489,4493.000000,1650625638.607339,0.000000,0.000000,1.000000,0.000000,0.000000,0.000000,0.000000,0.632626,23.989769,-1.050175
1650625638.707563,4494.000000,1650625638.707380,0.000000,0.000000,1.000000,0.000000,0.000000,0.000000,0.000000,0.635040,23.988411,-1.059143
1650625638.807513,4495.000000,1650625638.807318,0.000000,0.000000,1.000000,0.000000,0.000000,0.000000,0.000000,0.640619,23.988239,-1.066923
1650625638.907772,4496.000000,1650625638.907465,0.000000,0.000000,1.000000,0.000000,0.000000,0.000000,0.000000,0.648082,23.989187,-1.079196
1650625639.007463,4497.000000,1650625639.007272,0.000000,0.000000,1.000000,0.000000,0.000000,0.000000,0.000000,0.652939,23.990100,-1.093342
1650625639.107430,4498.000000,1650625639.107225,0.000000,0.000000,1.000000,0.000000,0.000000,0.000000,0.000000,0.656410,23.990976,-1.105232
1650625639.207535,4499.000000,1650625639.207374,0.000000,0.000000,1.000000,0.000000,0.000000,0.000000,0.000000,0.660741,23.990722,-1.114132
1650625639.307522,4500.000000,1650625639.307332,0.000000,0.000000,1.000000,0.000000,0.000000,0.000000,0.000000,0.664783,23.991582,-1.125798
1650625639.407562,4501.000000,1650625639.407379,0.000000,0.000000,1.000000,0.000000,0.000000,0.000000,0.000000,0.669635,23.993492,-1.140908
1650625639.507576,4502.000000,1650625639.507401,0.000000,0.000000,1.000000,0.000000,0.000000,0.000000,0.000000,0.673057,23.996388,-1.153658
1650625639.607579,4503.000000,1650625639.607394,0.000000,0.000000,1.000000,0.000000,0.000000,0.000000,0.000000,0.674033,23.998026,-1.165741
1650625639.708262,4504.000000,1650625639.708072,0.000000,0.000000,1.000000,0.000000,0.000000,0.000000,0.000000,0.670515,23.998470,-1.173136
1650625639.807830,4505.000000,1650625639.807612,0.000000,0.000000,1.000000,0.000000,0.000000,0.000000,0.000000,0.667126,23.997785,-1.172802
1650625639.907801,4506.000000,1650625639.907600,0.000000,0.000000,1.000000,0.000000,0.000000,0.000000,0.000000,0.658421,24.000397,-1.123929
1650625640.007789,4507.000000,1650625640.007603,0.000000,0.000000,1.000000,0.000000,0.000000,0.000000,0.000000,0.645810,24.005029,-1.040659
1650625640.108013,4508.000000,1650625640.107817,0.000000,0.000000,1.000000,0.000000,0.000000,0.000000,0.000000,0.639360,24.007194,-0.976137
1650625640.207854,4509.000000,1650625640.207613,0.000000,0.000000,1.000000,0.000000,0.000000,0.000000,0.000000,0.635483,24.009205,-0.935358
1650625640.307854,4510.000000,1650625640.307665,0.000000,0.000000,1.000000,0.000000,0.000000,0.000000,0.000000,0.631869,24.011063,-0.906944
1650625640.407894,4511.000000,1650625640.407642,0.000000,0.000000,1.000000,0.000000,0.000000,0.000000,0.000000,0.630693,24.011685,-0.886402
1650625640.507885,4512.000000,1650625640.507673,0.000000,0.000000,1.000000,0.000000,0.000000,0.000000,0.000000,0.631820,24.012229,-0.876663
1650625640.607863,4513.000000,1650625640.607656,0.000000,0.000000,1.000000,0.000000,0.000000,0.000000,0.000000,0.634030,24.012699,-0.874878
1650625640.707811,4514.000000,1650625640.707608,0.000000,0.000000,1.000000,0.000000,0.000000,0.000000,0.000000,0.636162,24.012011,-0.876683
1650625640.808106,4515.000000,1650625640.807872,0.000000,0.000000,1.000000,0.000000,0.000000,0.000000,0.000000,0.637122,24.011322,-0.877887
1650625640.908009,4516.000000,1650625640.907792,0.000000,0.000000,1.000000,0.000000,0.000000,0.000000,0.000000,0.640238,24.008456,-0.879306
1650625641.007945,4517.000000,1650625641.007756,0.000000,0.000000,1.000000,0.000000,0.000000,0.000000,0.000000,0.642112,24.005724,-0.880917
1650625641.107879,4518.000000,1650625641.107688,0.000000,0.000000,1.000000,0.000000,0.000000,0.000000,0.000000,0.642803,24.004218,-0.889153
1650625641.207825,4519.000000,1650625641.207627,0.000000,0.000000,1.000000,0.000000,0.000000,0.000000,0.000000,0.643465,24.002787,-0.897269
1650625641.307890,4520.000000,1650625641.307692,0.000000,0.000000,1.000000,0.000000,0.000000,0.000000,0.000000,0.646276,24.000341,-0.904442
1650625641.407868,4521.000000,1650625641.407576,0.000000,0.000000,1.000000,0.000000,0.000000,0.000000,0.000000,0.648930,23.996943,-0.906658
1650625641.507780,4522.000000,1650625641.507568,0.000000,0.000000,1.000000,0.000000,0.000000,0.000000,0.000000,0.649246,23.994837,-0.904911
1650625641.607606,4523.000000,1650625641.607440,0.000000,0.000000,1.000000,0.000000,0.000000,0.000000,0.000000,0.650623,23.991776,-0.903390
1650625641.707446,4524.000000,1650625641.707268,0.000000,0.000000,1.000000,0.000000,0.000000,0.000000,0.000000,0.650818,23.988913,-0.901276
1650625641.807538,4525.000000,1650625641.807370,0.000000,0.000000,1.000000,0.000000,0.000000,0.000000,0.000000,0.652078,23.987332,-0.905847
1650625641.907507,4526.000000,1650625641.907357,0.000000,0.000000,1.000000,0.000000,0.000000,0.000000,0.000000,0.653250,23.984788,-0.914401
1650625642.007829,4527.000000,1650625642.007655,0.000000,0.000000,1.000000,0.000000,0.000000,0.000000,0.000000,0.655427,23.982428,-0.917080
1650625642.108308,4528.000000,1650625642.108051,0.000000,0.000000,1.000000,0.000000,0.000000,0.000000,0.000000,0.657458,23.979157,-0.922175
1650625642.207809,4529.000000,1650625642.207616,0.000000,0.000000,1.000000,0.000000,0.000000,0.000000,0.000000,0.659347,23.977212,-0.930383
1650625642.307817,4530.000000,1650625642.307604,0.000000,0.000000,1.000000,0.000000,0.000000,0.000000,0.000000,0.654554,23.978705,-0.892367
1650625642.407918,4531.000000,1650625642.407660,0.000000,0.000000,1.000000,0.000000,0.000000,0.000000,0.000000,0.653275,23.977989,-0.866502
1650625642.507944,4532.000000,1650625642.507727,0.000000,0.000000,1.000000,0.000000,0.000000,0.000000,0.000000,0.653142,23.977363,-0.849112
1650625642.607843,4533.000000,1650625642.607637,0.000000,0.000000,1.000000,0.000000,0.000000,0.000000,0.000000,0.655185,23.977913,-0.843103
1650625642.707896,4534.000000,1650625642.707689,0.000000,0.000000,1.000000,0.000000,0.000000,0.000000,0.000000,0.656008,23.979569,-0.846405
1650625642.807918,4535.000000,1650625642.807640,0.000000,0.000000,1.000000,0.000000,0.000000,0.000000,0.000000,0.657857,23.982263,-0.857822
1650625642.908167,4536.000000,1650625642.907994,0.000000,0.000000,1.000000,0.000000,0.000000,0.000000,0.000000,0.661761,23.983748,-0.872162
1650625643.007787,4537.000000,1650625643.007593,0.000000,0.000000,1.000000,0.000000,0.000000,0.000000,0.000000,0.665417,23.987354,-0.894921
1650625643.107954,4538.000000,1650625643.107759,0.000000,0.000000,1.000000,0.000000,0.000000,0.000000,0.000000,0.667739,23.990772,-0.923297
1650625643.207845,4539.000000,1650625643.207575,0.000000,0.000000,1.000000,0.000000,0.000000,0.000000,0.000000,0.670975,23.994001,-0.949753
1650625643.308177,4540.000000,1650625643.307981,0.000000,0.000000,1.000000,0.000000,0.000000,0.000000,0.000000,0.670707,23.998133,-0.978353
1650625643.407789,4541.000000,1650625643.407558,0.000000,0.000000,1.000000,0.000000,0.000000,0.000000,0.000000,0.667129,24.000924,-1.003318
1650625643.507880,4542.000000,1650625643.507602,0.000000,0.000000,1.000000,0.000000,0.000000,0.000000,0.000000,0.666980,24.001349,-1.023948
1650625643.607842,4543.000000,1650625643.607612,0.000000,0.000000,1.000000,0.000000,0.000000,0.000000,0.000000,0.664621,24.002811,-1.041193
1650625643.708183,4544.000000,1650625643.708012,0.000000,0.000000,1.000000,0.000000,0.000000,0.000000,0.000000,0.664546,24.004158,-1.055973
1650625643.807816,4545.000000,1650625643.807564,0.000000,0.000000,1.000000,0.000000,0.000000,0.000000,0.000000,0.656818,24.008666,-1.017561
1650625643.907880,4546.000000,1650625643.907611,0.000000,0.000000,1.000000,0.000000,0.000000,0.000000,0.000000,0.652783,24.012880,-0.997531
1650625644.008047,4547.000000,1650625644.007796,0.000000,0.000000,1.000000,0.000000,0.000000,0.000000,0.000000,0.650072,24.016805,-0.992758
1650625644.107904,4548.000000,1650625644.107621,0.000000,0.000000,1.000000,0.000000,0.000000,0.000000,0.000000,0.648621,24.020448,-0.996995
1650625644.207953,4549.000000,1650625644.207665,0.000000,0.000000,1.000000,0.000000,0.000000,0.000000,0.000000,0.648364,24.024907,-1.008261
1650625644.307899,4550.000000,1650625644.307656,0.000000,0.000000,1.000000,0.000000,0.000000,0.000000,0.000000,0.648146,24.026857,-1.023028
1650625644.407906,4551.000000,1650625644.407634,0.000000,0.000000,1.000000,0.000000,0.000000,0.000000,0.000000,0.649053,24.028615,-1.041136
1650625644.508187,4552.000000,1650625644.508030,0.000000,0.000000,1.000000,0.000000,0.000000,0.000000,0.000000,0.646659,24.030189,-1.059196
1650625644.607754,4553.000000,1650625644.607543,0.000000,0.000000,1.000000,0.000000,0.000000,0.000000,0.000000,0.647693,24.030500,-1.071539
1650625644.707791,4554.000000,1650625644.707633,0.000000,0.000000,1.000000,0.000000,0.000000,0.000000,0.000000,0.649781,24.030711,-1.088060
1650625644.807799,4555.000000,1650625644.807640,0.000000,0.000000,1.000000,0.000000,0.000000,0.000000,0.000000,0.652860,24.030832,-1.105343
1650625644.907904,4556.000000,1650625644.907663,0.000000,0.000000,1.000000,0.000000,0.000000,0.000000,0.000000,0.653593,24.031962,-1.128174
1650625645.007883,4557.000000,1650625645.007633,0.000000,0.000000,1.000000,0.000000,0.000000,0.000000,0.000000,0.648834,24.036227,-1.095008
1650625645.107869,4558.000000,1650625645.107667,0.000000,0.000000,1.000000,0.000000,0.000000,0.000000,0.000000,0.646530,24.039087,-1.078332
1650625645.207869,4559.000000,1650625645.207665,0.000000,0.000000,1.000000,0.000000,0.000000,0.000000,0.000000,0.646555,24.040613,-1.070257
1650625645.308218,4560.000000,1650625645.308028,0.000000,0.000000,1.000000,0.000000,0.000000,0.000000,0.000000,0.647689,24.043059,-1.079327
1650625645.407783,4561.000000,1650625645.407590,0.000000,0.000000,1.000000,0.000000,0.000000,0.000000,0.000000,0.649867,24.044191,-1.087906
1650625645.507958,4562.000000,1650625645.507741,0.000000,0.000000,1.000000,0.000000,0.000000,0.000000,0.000000,0.651934,24.042994,-1.092777
1650625645.607740,4563.000000,1650625645.607501,0.000000,0.000000,1.000000,0.000000,0.000000,0.000000,0.000000,0.653890,24.042872,-1.101346
1650625645.707871,4564.000000,1650625645.707634,0.000000,0.000000,1.000000,0.000000,0.000000,0.000000,0.000000,0.655734,24.041592,-1.112649
1650625645.808030,4565.000000,1650625645.807826,0.000000,0.000000,1.000000,0.000000,0.000000,0.000000,0.000000,0.656376,24.041406,-1.126562
1650625645.907872,4566.000000,1650625645.907669,0.000000,0.000000,1.000000,0.000000,0.000000,0.000000,0.000000,0.655880,24.041169,-1.140544
1650625646.007849,4567.000000,1650625646.007674,0.000000,0.000000,1.000000,0.000000,0.000000,0.000000,0.000000,0.655402,24.040888,-1.151350
1650625646.108209,4568.000000,1650625646.108021,0.000000,0.000000,1.000000,0.000000,0.000000,0.000000,0.000000,0.654941,24.040568,-1.167162
1650625646.207768,4569.000000,1650625646.207513,0.000000,0.000000,1.000000,0.000000,0.000000,0.000000,0.000000,0.654500,24.040217,-1.180503
1650625646.307818,4570.000000,1650625646.307564,0.000000,0.000000,1.000000,0.000000,0.000000,0.000000,0.000000,0.652988,24.039840,-1.194685
1650625646.407790,4571.000000,1650625646.407536,0.000000,0.000000,1.000000,0.000000,0.000000,0.000000,0.000000,0.652650,24.037261,-1.200787
1650625646.508193,4572.000000,1650625646.507905,0.000000,0.000000,1.000000,0.000000,0.000000,0.000000,0.000000,0.652332,24.033702,-1.201556
1650625646.608037,4573.000000,1650625646.607755,0.000000,0.000000,1.000000,0.000000,0.000000,0.000000,0.000000,0.652034,24.028138,-1.194797
1650625646.708027,4574.000000,1650625646.707741,0.000000,0.000000,1.000000,0.000000,0.000000,0.000000,0.000000,0.652846,24.022877,-1.189704
1650625646.807969,4575.000000,1650625646.807749,0.000000,0.000000,1.000000,0.000000,0.000000,0.000000,0.000000,0.654705,24.017921,-1.184617
1650625646.908328,4576.000000,1650625646.908095,0.000000,0.000000,1.000000,0.000000,0.000000,0.000000,0.000000,0.658638,24.014356,-1.181970
1650625647.007812,4577.000000,1650625647.007618,0.000000,0.000000,1.000000,0.000000,0.000000,0.000000,0.000000,0.662340,24.012118,-1.185711
1650625647.107764,4578.000000,1650625647.107569,0.000000,0.000000,1.000000,0.000000,0.000000,0.000000,0.000000,0.663631,24.010047,-1.185905
1650625647.207722,4579.000000,1650625647.207517,0.000000,0.000000,1.000000,0.000000,0.000000,0.000000,0.000000,0.664822,24.008139,-1.186734
1650625647.308133,4580.000000,1650625647.307878,0.000000,0.000000,1.000000,0.000000,0.000000,0.000000,0.000000,0.664825,24.005297,-1.180920
1650625647.408085,4581.000000,1650625647.407831,0.000000,0.000000,1.000000,0.000000,0.000000,0.000000,0.000000,0.665887,24.001578,-1.170360
1650625647.508122,4582.000000,1650625647.507845,0.000000,0.000000,1.000000,0.000000,0.000000,0.000000,0.000000,0.664679,23.997039,-1.164140
1650625647.607888,4583.000000,1650625647.607627,0.000000,0.000000,1.000000,0.000000,0.000000,0.000000,0.000000,0.656968,23.997186,-1.109682
1650625647.708231,4584.000000,1650625647.707975,0.000000,0.000000,1.000000,0.000000,0.000000,0.000000,0.000000,0.652948,23.996308,-1.074349
1650625647.807784,4585.000000,1650625647.807543,0.000000,0.000000,1.000000,0.000000,0.000000,0.000000,0.000000,0.650249,23.992277,-1.044526
1650625647.907787,4586.000000,1650625647.907545,0.000000,0.000000,1.000000,0.000000,0.000000,0.000000,0.000000,0.645536,23.989636,-1.024880
1650625648.007720,4587.000000,1650625648.007561,0.000000,0.000000,1.000000,0.000000,0.000000,0.000000,0.000000,0.640023,23.986132,-1.006964
1650625648.107802,4588.000000,1650625648.107650,0.000000,0.000000,1.000000,0.000000,0.000000,0.000000,0.000000,0.638130,23.980727,-0.982668
1650625648.207776,4589.000000,1650625648.207617,0.000000,0.000000,1.000000,0.000000,0.000000,0.000000,0.000000,0.638573,23.977900,-0.969221
1650625648.308146,4590.000000,1650625648.307997,0.000000,0.000000,1.000000,0.000000,0.000000,0.000000,0.000000,0.637950,23.974240,-0.954909
1650625648.408033,4591.000000,1650625648.407786,0.000000,0.000000,1.000000,0.000000,0.000000,0.000000,0.000000,0.639588,23.970890,-0.943814
1650625648.508163,4592.000000,1650625648.507962,0.000000,0.000000,1.000000,0.000000,0.000000,0.000000,0.000000,0.642267,23.967837,-0.938237
1650625648.608206,4593.000000,1650625648.608045,0.000000,0.000000,1.000000,0.000000,0.000000,0.000000,0.000000,0.645918,23.965067,-0.936342
1650625648.708204,4594.000000,1650625648.708006,0.000000,0.000000,1.000000,0.000000,0.000000,0.000000,0.000000,0.648295,23.962568,-0.928295
1650625648.808151,4595.000000,1650625648.807917,0.000000,0.000000,1.000000,0.000000,0.000000,0.000000,0.000000,0.649459,23.960325,-0.919995
1650625648.908081,4596.000000,1650625648.907875,0.000000,0.000000,1.000000,0.000000,0.000000,0.000000,0.000000,0.648382,23.958324,-0.912263
1650625649.007953,4597.000000,1650625649.007740,0.000000,0.000000,1.000000,0.000000,0.000000,0.000000,0.000000,0.640827,23.960914,-0.863950
1650625649.107925,4598.000000,1650625649.107724,0.000000,0.000000,1.000000,0.000000,0.000000,0.000000,0.000000,0.636985,23.962377,-0.830796
1650625649.208009,4599.000000,1650625649.207771,0.000000,0.000000,1.000000,0.000000,0.000000,0.000000,0.000000,0.634482,23.963854,-0.811426
1650625649.308152,4600.000000,1650625649.307951,0.000000,0.000000,1.000000,0.000000,0.000000,0.000000,0.000000,0.635432,23.965334,-0.802884
1650625649.408247,4601.000000,1650625649.408060,0.000000,0.000000,1.000000,0.000000,0.000000,0.000000,0.000000,0.637460,23.965718,-0.795862
1650625649.508037,4602.000000,1650625649.507775,0.000000,0.000000,1.000000,0.000000,0.000000,0.000000,0.000000,0.640499,23.966150,-0.796746
1650625649.607906,4603.000000,1650625649.607646,0.000000,0.000000,1.000000,0.000000,0.000000,0.000000,0.000000,0.643393,23.965532,-0.803588
1650625649.708215,4604.000000,1650625649.707979,0.000000,0.000000,1.000000,0.000000,0.000000,0.000000,0.000000,0.646139,23.965009,-0.811282
1650625649.808177,4605.000000,1650625649.807971,0.000000,0.000000,1.000000,0.000000,0.000000,0.000000,0.000000,0.650916,23.966756,-0.830253
1650625649.908216,4606.000000,1650625649.907962,0.000000,0.000000,1.000000,0.000000,0.000000,0.000000,0.000000,0.655418,23.967367,-0.846290
1650625650.008210,4607.000000,1650625650.007994,0.000000,0.000000,1.000000,0.000000,0.000000,0.000000,0.000000,0.659647,23.970173,-0.869152
1650625650.108290,4608.000000,1650625650.108024,0.000000,0.000000,1.000000,0.000000,0.000000,0.000000,0.000000,0.662515,23.971770,-0.885613
1650625650.207866,4609.000000,1650625650.207641,0.000000,0.000000,1.000000,0.000000,0.000000,0.000000,0.000000,0.664090,23.973307,-0.895089
1650625650.307739,4610.000000,1650625650.307563,0.000000,0.000000,1.000000,0.000000,0.000000,0.000000,0.000000,0.666621,23.972601,-0.901873
1650625650.407983,4611.000000,1650625650.407763,0.000000,0.000000,1.000000,0.000000,0.000000,0.000000,0.000000,0.671141,23.970865,-0.906863
1650625650.508052,4612.000000,1650625650.507863,0.000000,0.000000,1.000000,0.000000,0.000000,0.000000,0.000000,0.674260,23.969251,-0.909313
1650625650.607892,4613.000000,1650625650.607661,0.000000,0.000000,1.000000,0.000000,0.000000,0.000000,0.000000,0.680408,23.968844,-0.920609
1650625650.707868,4614.000000,1650625650.707632,0.000000,0.000000,1.000000,0.000000,0.000000,0.000000,0.000000,0.682865,23.969579,-0.931500
1650625650.807853,4615.000000,1650625650.807620,0.000000,0.000000,1.000000,0.000000,0.000000,0.000000,0.000000,0.684007,23.971391,-0.950047
1650625650.908239,4616.000000,1650625650.908024,0.000000,0.000000,1.000000,0.000000,0.000000,0.000000,0.000000,0.683910,23.972031,-0.967037
1650625651.007817,4617.000000,1650625651.007613,0.000000,0.000000,1.000000,0.000000,0.000000,0.000000,0.000000,0.682645,23.973742,-0.986537
1650625651.107853,4618.000000,1650625651.107581,0.000000,0.000000,1.000000,0.000000,0.000000,0.000000,0.000000,0.672653,23.977550,-0.955188
1650625651.207909,4619.000000,1650625651.207709,0.000000,0.000000,1.000000,0.000000,0.000000,0.000000,0.000000,0.667529,23.980056,-0.931547
1650625651.307887,4620.000000,1650625651.307629,0.000000,0.000000,1.000000,0.000000,0.000000,0.000000,0.000000,0.653941,23.985686,-0.869376
1650625651.408067,4621.000000,1650625651.407822,0.000000,0.000000,1.000000,0.000000,0.000000,0.000000,0.000000,0.645479,23.988799,-0.828396
1650625651.507849,4622.000000,1650625651.507592,0.000000,0.000000,1.000000,0.000000,0.000000,0.000000,0.000000,0.632076,23.994978,-0.755397
1650625651.607976,4623.000000,1650625651.607703,0.000000,0.000000,1.000000,0.000000,0.000000,0.000000,0.000000,0.621673,23.998586,-0.709851
1650625651.708175,4624.000000,1650625651.708009,0.000000,0.000000,1.000000,0.000000,0.000000,0.000000,0.000000,0.618496,24.001935,-0.685069
1650625651.807566,4625.000000,1650625651.807341,0.000000,0.000000,1.000000,0.000000,0.000000,0.000000,0.000000,0.618883,24.003942,-0.673789
1650625651.907543,4626.000000,1650625651.907336,0.000000,0.000000,1.000000,0.000000,0.000000,0.000000,0.000000,0.620450,24.004678,-0.671436
1650625652.007785,4627.000000,1650625652.007617,0.000000,0.000000,1.000000,0.000000,0.000000,0.000000,0.000000,0.622033,24.006395,-0.683283
1650625652.107701,4628.000000,1650625652.107532,0.000000,0.000000,1.000000,0.000000,0.000000,0.000000,0.000000,0.626891,24.006857,-0.700656
1650625652.207554,4629.000000,1650625652.207382,0.000000,0.000000,1.000000,0.000000,0.000000,0.000000,0.000000,0.627191,24.008316,-0.722482
1650625652.307664,4630.000000,1650625652.307490,0.000000,0.000000,1.000000,0.000000,0.000000,0.000000,0.000000,0.629720,24.009626,-0.750143
1650625652.407694,4631.000000,1650625652.407520,0.000000,0.000000,1.000000,0.000000,0.000000,0.000000,0.000000,0.631073,24.009705,-0.768831
