__time,/dwm1001/id_458E/pose_kf/header/seq,/dwm1001/id_458E/pose_kf/header/stamp,/dwm1001/id_458E/pose_kf/pose/orientation/pitch_deg,/dwm1001/id_458E/pose_kf/pose/orientation/roll_deg,/dwm1001/id_458E/pose_kf/pose/orientation/w,/dwm1001/id_458E/pose_kf/pose/orientation/x,/dwm1001/id_458E/pose_kf/pose/orientation/y,/dwm1001/id_458E/pose_kf/pose/orientation/yaw_deg,/dwm1001/id_458E/pose_kf/pose/orientation/z,/dwm1001/id_458E/pose_kf/pose/position/x,/dwm1001/id_458E/pose_kf/pose/position/y,/dwm1001/id_458E/pose_kf/pose/position/z
1650623448.702317,2512.000000,1650623448.702120,0.000000,0.000000,1.000000,0.000000,0.000000,0.000000,0.000000,1.560696,18.400003,1.119545
1650623448.802282,2513.000000,1650623448.802095,0.000000,0.000000,1.000000,0.000000,0.000000,0.000000,0.000000,1.560677,18.398147,1.120930
1650623448.902579,2514.000000,1650623448.902301,0.000000,0.000000,1.000000,0.000000,0.000000,0.000000,0.000000,1.559439,18.397532,1.126539
1650623449.002301,2515.000000,1650623449.002090,0.000000,0.000000,1.000000,0.000000,0.000000,0.000000,0.000000,1.551608,18.398090,1.128115
1650623449.102411,2516.000000,1650623449.102190,0.000000,0.000000,1.000000,0.000000,0.000000,0.000000,0.000000,1.562655,18.397572,1.068551
1650623449.202403,2517.000000,1650623449.202175,0.000000,0.000000,1.000000,0.000000,0.000000,0.000000,0.000000,1.569712,18.397126,1.010081
1650623449.302315,2518.000000,1650623449.302117,0.000000,0.000000,1.000000,0.000000,0.000000,0.000000,0.000000,1.575164,18.397837,0.977747
1650623449.402246,2519.000000,1650623449.402042,0.000000,0.000000,1.000000,0.000000,0.000000,0.000000,0.000000,1.575815,18.399637,0.962469
1650623449.502407,2520.000000,1650623449.502174,0.000000,0.000000,1.000000,0.000000,0.000000,0.000000,0.000000,1.573025,18.401369,0.953891
1650623449.602292,2521.000000,1650623449.602086,0.000000,0.000000,1.000000,0.000000,0.000000,0.000000,0.000000,1.572449,18.403030,0.964641
1650623449.702457,2522.000000,1650623449.702211,0.000000,0.000000,1.000000,0.000000,0.000000,0.000000,0.000000,1.568523,18.404616,0.988260
1650623449.802284,2523.000000,1650623449.802083,0.000000,0.000000,1.000000,0.000000,0.000000,0.000000,0.000000,1.563630,18.406126,1.017720
1650623449.902208,2524.000000,1650623449.902009,0.000000,0.000000,1.000000,0.000000,0.000000,0.000000,0.000000,1.558933,18.407558,1.048688
1650623450.002493,2525.000000,1650623450.002213,0.000000,0.000000,1.000000,0.000000,0.000000,0.000000,0.000000,1.552259,18.408913,1.085880
1650623450.102368,2526.000000,1650623450.102138,0.000000,0.000000,1.000000,0.000000,0.000000,0.000000,0.000000,1.548102,18.409100,1.104777
1650623450.202335,2527.000000,1650623450.202123,0.000000,0.000000,1.000000,0.000000,0.000000,0.000000,0.000000,1.546339,18.410362,1.131081
1650623450.302374,2528.000000,1650623450.302156,0.000000,0.000000,1.000000,0.000000,0.000000,0.000000,0.000000,1.544666,18.410457,1.164442
1650623450.402378,2529.000000,1650623450.402153,0.000000,0.000000,1.000000,0.000000,0.000000,0.000000,0.000000,1.569252,18.407267,1.148874
1650623450.502348,2530.000000,1650623450.502097,0.000000,0.000000,1.000000,0.000000,0.000000,0.000000,0.000000,1.585878,18.405344,1.147664
1650623450.602344,2531.000000,1650623450.602129,0.000000,0.000000,1.000000,0.000000,0.000000,0.000000,0.000000,1.596021,18.405715,1.156203
1650623450.702379,2532.000000,1650623450.702155,0.000000,0.000000,1.000000,0.000000,0.000000,0.000000,0.000000,1.601098,18.407163,1.166825
1650623450.802405,2533.000000,1650623450.802211,0.000000,0.000000,1.000000,0.000000,0.000000,0.000000,0.000000,1.598108,18.408534,1.170556
1650623450.902321,2534.000000,1650623450.902135,0.000000,0.000000,1.000000,0.000000,0.000000,0.000000,0.000000,1.586419,18.410917,1.170088
1650623451.002335,2535.000000,1650623451.002137,0.000000,0.000000,1.000000,0.000000,0.000000,0.000000,0.000000,1.576362,18.410981,1.182526
1650623451.102314,2536.000000,1650623451.102133,0.000000,0.000000,1.000000,0.000000,0.000000,0.000000,0.000000,1.568975,18.412121,1.205718
1650623451.202305,2537.000000,1650623451.202099,0.000000,0.000000,1.000000,0.000000,0.000000,0.000000,0.000000,1.559780,18.414277,1.226289
1650623451.302346,2538.000000,1650623451.302105,0.000000,0.000000,1.000000,0.000000,0.000000,0.000000,0.000000,1.549994,18.417388,1.244312
1650623451.402240,2539.000000,1650623451.402059,0.000000,0.000000,1.000000,0.000000,0.000000,0.000000,0.000000,1.542953,18.419211,1.235671
1650623451.502243,2540.000000,1650623451.502056,0.000000,0.000000,1.000000,0.000000,0.000000,0.000000,0.000000,1.527624,18.420903,1.221621
1650623451.602253,2541.000000,1650623451.602070,0.000000,0.000000,1.000000,0.000000,0.000000,0.000000,0.000000,1.516497,18.423558,1.217733
1650623451.702463,2542.000000,1650623451.702257,0.000000,0.000000,1.000000,0.000000,0.000000,0.000000,0.000000,1.507192,18.426027,1.217961
1650623451.802666,2543.000000,1650623451.802444,0.000000,0.000000,1.000000,0.000000,0.000000,0.000000,0.000000,1.501813,18.428315,1.227786
1650623451.902611,2544.000000,1650623451.902419,0.000000,0.000000,1.000000,0.000000,0.000000,0.000000,0.000000,1.496883,18.429337,1.245197
1650623452.002603,2545.000000,1650623452.002345,0.000000,0.000000,1.000000,0.000000,0.000000,0.000000,0.000000,1.495656,18.429161,1.243248
1650623452.103596,2546.000000,1650623452.102828,0.000000,0.000000,1.000000,0.000000,0.000000,0.000000,0.000000,1.502286,18.428947,1.238856
1650623452.202611,2547.000000,1650623452.202359,0.000000,0.000000,1.000000,0.000000,0.000000,0.000000,0.000000,1.507591,18.429790,1.245841
1650623452.302615,2548.000000,1650623452.302411,0.000000,0.000000,1.000000,0.000000,0.000000,0.000000,0.000000,1.511620,18.429452,1.245995
1650623452.402599,2549.000000,1650623452.402381,0.000000,0.000000,1.000000,0.000000,0.000000,0.000000,0.000000,1.534051,18.426910,1.183145
1650623452.502599,2550.000000,1650623452.502399,0.000000,0.000000,1.000000,0.000000,0.000000,0.000000,0.000000,1.547636,18.425567,1.138973
1650623452.602669,2551.000000,1650623452.602433,0.000000,0.000000,1.000000,0.000000,0.000000,0.000000,0.000000,1.558267,18.424272,1.120059
1650623452.702631,2552.000000,1650623452.702402,0.000000,0.000000,1.000000,0.000000,0.000000,0.000000,0.000000,1.563890,18.424119,1.115736
1650623452.802654,2553.000000,1650623452.802427,0.000000,0.000000,1.000000,0.000000,0.000000,0.000000,0.000000,1.566948,18.425048,1.118967
1650623452.902275,2554.000000,1650623452.902092,0.000000,0.000000,1.000000,0.000000,0.000000,0.000000,0.000000,1.566483,18.424815,1.134274
1650623453.002354,2555.000000,1650623453.002174,0.000000,0.000000,1.000000,0.000000,0.000000,0.000000,0.000000,1.562693,18.425668,1.155496
1650623453.102339,2556.000000,1650623453.102155,0.000000,0.000000,1.000000,0.000000,0.000000,0.000000,0.000000,1.554687,18.425365,1.182355
1650623453.202349,2557.000000,1650623453.202159,0.000000,0.000000,1.000000,0.000000,0.000000,0.000000,0.000000,1.551445,18.425062,1.214576
1650623453.302323,2558.000000,1650623453.302133,0.000000,0.000000,1.000000,0.000000,0.000000,0.000000,0.000000,1.548359,18.424759,1.245438
1650623453.402333,2559.000000,1650623453.402148,0.000000,0.000000,1.000000,0.000000,0.000000,0.000000,0.000000,1.545431,18.423369,1.280590
1650623453.502279,2560.000000,1650623453.502101,0.000000,0.000000,1.000000,0.000000,0.000000,0.000000,0.000000,1.540481,18.423137,1.303675
1650623453.602264,2561.000000,1650623453.602095,0.000000,0.000000,1.000000,0.000000,0.000000,0.000000,0.000000,1.536907,18.422911,1.332891
1650623453.702560,2562.000000,1650623453.702246,0.000000,0.000000,1.000000,0.000000,0.000000,0.000000,0.000000,1.533553,18.423781,1.359076
1650623453.802505,2563.000000,1650623453.802315,0.000000,0.000000,1.000000,0.000000,0.000000,0.000000,0.000000,1.533688,18.423505,1.362965
1650623453.902403,2564.000000,1650623453.902192,0.000000,0.000000,1.000000,0.000000,0.000000,0.000000,0.000000,1.532757,18.421057,1.361590
1650623454.002337,2565.000000,1650623454.002099,0.000000,0.000000,1.000000,0.000000,0.000000,0.000000,0.000000,1.527549,18.419833,1.368886
1650623454.102289,2566.000000,1650623454.102093,0.000000,0.000000,1.000000,0.000000,0.000000,0.000000,0.000000,1.519402,18.419771,1.374019
1650623454.202368,2567.000000,1650623454.202146,0.000000,0.000000,1.000000,0.000000,0.000000,0.000000,0.000000,1.509588,18.420808,1.373851
1650623454.302242,2568.000000,1650623454.302062,0.000000,0.000000,1.000000,0.000000,0.000000,0.000000,0.000000,1.501497,18.421790,1.365382
1650623454.402302,2569.000000,1650623454.402094,0.000000,0.000000,1.000000,0.000000,0.000000,0.000000,0.000000,1.493964,18.423806,1.348971
1650623454.502577,2570.000000,1650623454.502264,0.000000,0.000000,1.000000,0.000000,0.000000,0.000000,0.000000,1.488066,18.425705,1.349169
1650623454.602329,2571.000000,1650623454.602104,0.000000,0.000000,1.000000,0.000000,0.000000,0.000000,0.000000,1.488086,18.426396,1.337893
1650623454.702367,2572.000000,1650623454.702151,0.000000,0.000000,1.000000,0.000000,0.000000,0.000000,0.000000,1.490423,18.427035,1.340633
1650623454.802348,2573.000000,1650623454.802111,0.000000,0.000000,1.000000,0.000000,0.000000,0.000000,0.000000,1.487303,18.427622,1.349568
1650623454.902303,2574.000000,1650623454.902100,0.000000,0.000000,1.000000,0.000000,0.000000,0.000000,0.000000,1.484476,18.428160,1.358794
1650623455.002319,2575.000000,1650623455.002124,0.000000,0.000000,1.000000,0.000000,0.000000,0.000000,0.000000,1.481930,18.427561,1.374742
1650623455.102313,2576.000000,1650623455.102113,0.000000,0.000000,1.000000,0.000000,0.000000,0.000000,0.000000,1.479649,18.426980,1.377764
1650623455.202264,2577.000000,1650623455.202091,0.000000,0.000000,1.000000,0.000000,0.000000,0.000000,0.000000,1.478709,18.427508,1.384516
1650623455.302431,2578.000000,1650623455.302170,0.000000,0.000000,1.000000,0.000000,0.000000,0.000000,0.000000,1.479034,18.427995,1.398067
1650623455.402295,2579.000000,1650623455.402129,0.000000,0.000000,1.000000,0.000000,0.000000,0.000000,0.000000,1.490358,18.427351,1.420548
1650623455.502330,2580.000000,1650623455.502169,0.000000,0.000000,1.000000,0.000000,0.000000,0.000000,0.000000,1.495686,18.427821,1.435441
1650623455.602300,2581.000000,1650623455.602136,0.000000,0.000000,1.000000,0.000000,0.000000,0.000000,0.000000,1.495323,18.428253,1.451100
1650623455.702270,2582.000000,1650623455.702108,0.000000,0.000000,1.000000,0.000000,0.000000,0.000000,0.000000,1.491758,18.429740,1.463447
1650623455.802302,2583.000000,1650623455.802142,0.000000,0.000000,1.000000,0.000000,0.000000,0.000000,0.000000,1.490625,18.430039,1.479055
1650623455.902286,2584.000000,1650623455.902123,0.000000,0.000000,1.000000,0.000000,0.000000,0.000000,0.000000,1.497245,18.429215,1.489715
1650623456.002307,2585.000000,1650623456.002145,0.000000,0.000000,1.000000,0.000000,0.000000,0.000000,0.000000,1.498086,18.427332,1.506103
1650623456.102726,2586.000000,1650623456.102337,0.000000,0.000000,1.000000,0.000000,0.000000,0.000000,0.000000,1.503271,18.426636,1.516683
1650623456.202395,2587.000000,1650623456.202159,0.000000,0.000000,1.000000,0.000000,0.000000,0.000000,0.000000,1.507095,18.427064,1.517651
1650623456.302441,2588.000000,1650623456.302224,0.000000,0.000000,1.000000,0.000000,0.000000,0.000000,0.000000,1.507438,18.427464,1.517472
1650623456.402389,2589.000000,1650623456.402164,0.000000,0.000000,1.000000,0.000000,0.000000,0.000000,0.000000,1.527386,18.424565,1.458946
1650623456.502368,2590.000000,1650623456.502142,0.000000,0.000000,1.000000,0.000000,0.000000,0.000000,0.000000,1.539641,18.421828,1.423569
1650623456.602223,2591.000000,1650623456.602008,0.000000,0.000000,1.000000,0.000000,0.000000,0.000000,0.000000,1.563121,18.418161,1.343539
1650623456.702287,2592.000000,1650623456.702087,0.000000,0.000000,1.000000,0.000000,0.000000,0.000000,0.000000,1.580794,18.415808,1.286120
1650623456.802287,2593.000000,1650623456.802095,0.000000,0.000000,1.000000,0.000000,0.000000,0.000000,0.000000,1.590747,18.413611,1.256141
1650623456.902517,2594.000000,1650623456.902244,0.000000,0.000000,1.000000,0.000000,0.000000,0.000000,0.000000,1.594472,18.412659,1.242058
1650623457.002371,2595.000000,1650623457.002162,0.000000,0.000000,1.000000,0.000000,0.000000,0.000000,0.000000,1.602125,18.412885,1.244054
1650623457.102702,2596.000000,1650623457.102509,0.000000,0.000000,1.000000,0.000000,0.000000,0.000000,0.000000,1.610209,18.415311,1.225178
1650623457.202259,2597.000000,1650623457.202063,0.000000,0.000000,1.000000,0.000000,0.000000,0.000000,0.000000,1.617600,18.418718,1.213716
1650623457.302275,2598.000000,1650623457.302075,0.000000,0.000000,1.000000,0.000000,0.000000,0.000000,0.000000,1.612331,18.420861,1.215832
1650623457.402288,2599.000000,1650623457.402100,0.000000,0.000000,1.000000,0.000000,0.000000,0.000000,0.000000,1.603847,18.422890,1.225321
1650623457.502281,2600.000000,1650623457.502093,0.000000,0.000000,1.000000,0.000000,0.000000,0.000000,0.000000,1.594545,18.424806,1.245893
1650623457.602278,2601.000000,1650623457.602090,0.000000,0.000000,1.000000,0.000000,0.000000,0.000000,0.000000,1.581237,18.425518,1.261737
1650623457.702339,2602.000000,1650623457.702115,0.000000,0.000000,1.000000,0.000000,0.000000,0.000000,0.000000,1.564193,18.427270,1.265753
1650623457.802322,2603.000000,1650623457.802100,0.000000,0.000000,1.000000,0.000000,0.000000,0.000000,0.000000,1.550218,18.428912,1.278567
1650623457.902287,2604.000000,1650623457.902088,0.000000,0.000000,1.000000,0.000000,0.000000,0.000000,0.000000,1.540282,18.428264,1.285284
1650623458.002255,2605.000000,1650623458.002066,0.000000,0.000000,1.000000,0.000000,0.000000,0.000000,0.000000,1.532014,18.427635,1.283716
1650623458.102290,2606.000000,1650623458.102103,0.000000,0.000000,1.000000,0.000000,0.000000,0.000000,0.000000,1.531890,18.425936,1.268552
1650623458.202291,2607.000000,1650623458.202094,0.000000,0.000000,1.000000,0.000000,0.000000,0.000000,0.000000,1.529650,18.424321,1.262138
1650623458.302268,2608.000000,1650623458.302086,0.000000,0.000000,1.000000,0.000000,0.000000,0.000000,0.000000,1.525413,18.423883,1.262517
1650623458.402336,2609.000000,1650623458.402151,0.000000,0.000000,1.000000,0.000000,0.000000,0.000000,0.000000,1.520387,18.424559,1.272635
1650623458.502496,2610.000000,1650623458.502208,0.000000,0.000000,1.000000,0.000000,0.000000,0.000000,0.000000,1.516809,18.425195,1.288048
1650623458.602264,2611.000000,1650623458.602082,0.000000,0.000000,1.000000,0.000000,0.000000,0.000000,0.000000,1.512424,18.425792,1.298837
1650623458.702274,2612.000000,1650623458.702092,0.000000,0.000000,1.000000,0.000000,0.000000,0.000000,0.000000,1.504015,18.426351,1.310006
1650623458.802283,2613.000000,1650623458.802103,0.000000,0.000000,1.000000,0.000000,0.000000,0.000000,0.000000,1.521262,18.426872,1.277974
1650623458.902273,2614.000000,1650623458.902101,0.000000,0.000000,1.000000,0.000000,0.000000,0.000000,0.000000,1.532175,18.426265,1.267438
1650623459.002243,2615.000000,1650623459.002075,0.000000,0.000000,1.000000,0.000000,0.000000,0.000000,0.000000,1.541424,18.426775,1.265453
1650623459.102296,2616.000000,1650623459.102119,0.000000,0.000000,1.000000,0.000000,0.000000,0.000000,0.000000,1.547978,18.427250,1.266029
1650623459.202423,2617.000000,1650623459.202253,0.000000,0.000000,1.000000,0.000000,0.000000,0.000000,0.000000,1.553054,18.427690,1.273897
1650623459.302304,2618.000000,1650623459.302118,0.000000,0.000000,1.000000,0.000000,0.000000,0.000000,0.000000,1.555628,18.429188,1.276652
1650623459.402277,2619.000000,1650623459.402085,0.000000,0.000000,1.000000,0.000000,0.000000,0.000000,0.000000,1.553651,18.430590,1.284170
1650623459.502334,2620.000000,1650623459.502122,0.000000,0.000000,1.000000,0.000000,0.000000,0.000000,0.000000,1.551740,18.431898,1.296246
1650623459.602400,2621.000000,1650623459.602218,0.000000,0.000000,1.000000,0.000000,0.000000,0.000000,0.000000,1.545539,18.433115,1.307835
1650623459.702336,2622.000000,1650623459.702151,0.000000,0.000000,1.000000,0.000000,0.000000,0.000000,0.000000,1.533123,18.434242,1.313293
1650623459.802299,2623.000000,1650623459.802116,0.000000,0.000000,1.000000,0.000000,0.000000,0.000000,0.000000,1.519231,18.435283,1.325760
1650623459.902298,2624.000000,1650623459.902123,0.000000,0.000000,1.000000,0.000000,0.000000,0.000000,0.000000,1.511618,18.436240,1.344129
1650623460.002287,2625.000000,1650623460.002107,0.000000,0.000000,1.000000,0.000000,0.000000,0.000000,0.000000,1.505601,18.437116,1.360068
1650623460.102277,2626.000000,1650623460.102100,0.000000,0.000000,1.000000,0.000000,0.000000,0.000000,0.000000,1.494564,18.437915,1.368812
1650623460.202270,2627.000000,1650623460.202092,0.000000,0.000000,1.000000,0.000000,0.000000,0.000000,0.000000,1.478809,18.439730,1.371446
1650623460.302215,2628.000000,1650623460.302014,0.000000,0.000000,1.000000,0.000000,0.000000,0.000000,0.000000,1.468449,18.441412,1.356122
1650623460.402305,2629.000000,1650623460.402129,0.000000,0.000000,1.000000,0.000000,0.000000,0.000000,0.000000,1.458851,18.441874,1.355044
1650623460.502264,2630.000000,1650623460.502062,0.000000,0.000000,1.000000,0.000000,0.000000,0.000000,0.000000,1.457624,18.442274,1.343450
1650623460.602276,2631.000000,1650623460.602108,0.000000,0.000000,1.000000,0.000000,0.000000,0.000000,0.000000,1.457763,18.442616,1.334691
1650623460.702263,2632.000000,1650623460.702083,0.000000,0.000000,1.000000,0.000000,0.000000,0.000000,0.000000,1.461361,18.441814,1.337539
1650623460.802314,2633.000000,1650623460.802145,0.000000,0.000000,1.000000,0.000000,0.000000,0.000000,0.000000,1.470387,18.441025,1.351525
1650623460.902359,2634.000000,1650623460.902150,0.000000,0.000000,1.000000,0.000000,0.000000,0.000000,0.000000,1.473604,18.440253,1.364079
1650623461.002298,2635.000000,1650623461.002113,0.000000,0.000000,1.000000,0.000000,0.000000,0.000000,0.000000,1.472400,18.440591,1.372822
1650623461.102304,2636.000000,1650623461.102116,0.000000,0.000000,1.000000,0.000000,0.000000,0.000000,0.000000,1.474647,18.440888,1.386767
1650623461.202352,2637.000000,1650623461.202106,0.000000,0.000000,1.000000,0.000000,0.000000,0.000000,0.000000,1.473600,18.441147,1.399232
1650623461.302366,2638.000000,1650623461.302174,0.000000,0.000000,1.000000,0.000000,0.000000,0.000000,0.000000,1.471617,18.441371,1.415100
1650623461.402290,2639.000000,1650623461.402095,0.000000,0.000000,1.000000,0.000000,0.000000,0.000000,0.000000,1.468750,18.440471,1.430179
1650623461.502704,2640.000000,1650623461.502493,0.000000,0.000000,1.000000,0.000000,0.000000,0.000000,0.000000,1.465050,18.439604,1.442870
1650623461.602662,2641.000000,1650623461.602414,0.000000,0.000000,1.000000,0.000000,0.000000,0.000000,0.000000,1.462749,18.438771,1.453253
1650623461.702723,2642.000000,1650623461.702471,0.000000,0.000000,1.000000,0.000000,0.000000,0.000000,0.000000,1.462862,18.436882,1.467058
1650623461.802680,2643.000000,1650623461.802467,0.000000,0.000000,1.000000,0.000000,0.000000,0.000000,0.000000,1.466342,18.436184,1.476872
1650623461.902653,2644.000000,1650623461.902431,0.000000,0.000000,1.000000,0.000000,0.000000,0.000000,0.000000,1.463175,18.436614,1.479623
1650623462.002689,2645.000000,1650623462.002400,0.000000,0.000000,1.000000,0.000000,0.000000,0.000000,0.000000,1.465723,18.435928,1.491730
1650623462.102977,2646.000000,1650623462.102779,0.000000,0.000000,1.000000,0.000000,0.000000,0.000000,0.000000,1.464937,18.435279,1.505545
1650623462.202652,2647.000000,1650623462.202372,0.000000,0.000000,1.000000,0.000000,0.000000,0.000000,0.000000,1.474082,18.433577,1.495985
1650623462.302658,2648.000000,1650623462.302458,0.000000,0.000000,1.000000,0.000000,0.000000,0.000000,0.000000,1.480590,18.431976,1.464019
1650623462.402679,2649.000000,1650623462.402411,0.000000,0.000000,1.000000,0.000000,0.000000,0.000000,0.000000,1.482400,18.431564,1.438032
1650623462.502931,2650.000000,1650623462.502559,0.000000,0.000000,1.000000,0.000000,0.000000,0.000000,0.000000,1.500480,18.429006,1.376705
1650623462.602629,2651.000000,1650623462.602397,0.000000,0.000000,1.000000,0.000000,0.000000,0.000000,0.000000,1.529524,18.424427,1.266246
1650623462.702744,2652.000000,1650623462.702461,0.000000,0.000000,1.000000,0.000000,0.000000,0.000000,0.000000,1.549218,18.421221,1.195921
1650623462.802654,2653.000000,1650623462.802440,0.000000,0.000000,1.000000,0.000000,0.000000,0.000000,0.000000,1.560018,18.419321,1.148094
1650623462.902651,2654.000000,1650623462.902445,0.000000,0.000000,1.000000,0.000000,0.000000,0.000000,0.000000,1.561294,18.418661,1.119506
1650623463.002634,2655.000000,1650623463.002434,0.000000,0.000000,1.000000,0.000000,0.000000,0.000000,0.000000,1.562298,18.418080,1.090061
1650623463.102626,2656.000000,1650623463.102427,0.000000,0.000000,1.000000,0.000000,0.000000,0.000000,0.000000,1.565233,18.416485,1.055792
1650623463.202616,2657.000000,1650623463.202414,0.000000,0.000000,1.000000,0.000000,0.000000,0.000000,0.000000,1.571085,18.416113,1.040321
1650623463.302587,2658.000000,1650623463.302320,0.000000,0.000000,1.000000,0.000000,0.000000,0.000000,0.000000,1.575329,18.415806,1.034833
1650623463.402350,2659.000000,1650623463.402143,0.000000,0.000000,1.000000,0.000000,0.000000,0.000000,0.000000,1.581319,18.414469,1.027622
1650623463.502323,2660.000000,1650623463.502119,0.000000,0.000000,1.000000,0.000000,0.000000,0.000000,0.000000,1.579142,18.413249,1.030042
1650623463.602394,2661.000000,1650623463.602189,0.000000,0.000000,1.000000,0.000000,0.000000,0.000000,0.000000,1.580164,18.412142,1.027970
1650623463.702343,2662.000000,1650623463.702147,0.000000,0.000000,1.000000,0.000000,0.000000,0.000000,0.000000,1.572224,18.412233,1.032056
1650623463.802340,2663.000000,1650623463.802137,0.000000,0.000000,1.000000,0.000000,0.000000,0.000000,0.000000,1.555847,18.412362,1.035575
1650623463.902385,2664.000000,1650623463.902188,0.000000,0.000000,1.000000,0.000000,0.000000,0.000000,0.000000,1.541365,18.412526,1.052238
1650623464.002348,2665.000000,1650623464.002153,0.000000,0.000000,1.000000,0.000000,0.000000,0.000000,0.000000,1.526545,18.412719,1.074211
1650623464.102408,2666.000000,1650623464.102174,0.000000,0.000000,1.000000,0.000000,0.000000,0.000000,0.000000,1.515816,18.408575,1.085907
1650623464.202372,2667.000000,1650623464.202158,0.000000,0.000000,1.000000,0.000000,0.000000,0.000000,0.000000,1.502446,18.405793,1.101418
1650623464.302407,2668.000000,1650623464.302185,0.000000,0.000000,1.000000,0.000000,0.000000,0.000000,0.000000,1.489888,18.403215,1.122972
1650623464.402538,2669.000000,1650623464.402359,0.000000,0.000000,1.000000,0.000000,0.000000,0.000000,0.000000,1.477044,18.403016,1.137377
1650623464.502309,2670.000000,1650623464.502127,0.000000,0.000000,1.000000,0.000000,0.000000,0.000000,0.000000,1.468324,18.402883,1.159406
1650623464.602292,2671.000000,1650623464.602119,0.000000,0.000000,1.000000,0.000000,0.000000,0.000000,0.000000,1.463522,18.402809,1.183062
1650623464.702296,2672.000000,1650623464.702120,0.000000,0.000000,1.000000,0.000000,0.000000,0.000000,0.000000,1.463520,18.403878,1.205818
1650623464.802295,2673.000000,1650623464.802121,0.000000,0.000000,1.000000,0.000000,0.000000,0.000000,0.000000,1.469137,18.403843,1.216378
1650623464.902583,2674.000000,1650623464.902299,0.000000,0.000000,1.000000,0.000000,0.000000,0.000000,0.000000,1.473497,18.402759,1.237795
1650623465.002327,2675.000000,1650623465.002104,0.000000,0.000000,1.000000,0.000000,0.000000,0.000000,0.000000,1.481008,18.401776,1.265564
1650623465.102484,2676.000000,1650623465.102258,0.000000,0.000000,1.000000,0.000000,0.000000,0.000000,0.000000,1.483835,18.401980,1.291320
1650623465.202409,2677.000000,1650623465.202199,0.000000,0.000000,1.000000,0.000000,0.000000,0.000000,0.000000,1.485492,18.402211,1.319941
1650623465.302331,2678.000000,1650623465.302124,0.000000,0.000000,1.000000,0.000000,0.000000,0.000000,0.000000,1.482761,18.402467,1.352883
1650623465.402411,2679.000000,1650623465.402195,0.000000,0.000000,1.000000,0.000000,0.000000,0.000000,0.000000,1.480247,18.402742,1.380245
1650623465.502313,2680.000000,1650623465.502119,0.000000,0.000000,1.000000,0.000000,0.000000,0.000000,0.000000,1.475762,18.404123,1.403827
1650623465.602277,2681.000000,1650623465.602088,0.000000,0.000000,1.000000,0.000000,0.000000,0.000000,0.000000,1.472694,18.405454,1.429399
1650623465.702820,2682.000000,1650623465.702102,0.000000,0.000000,1.000000,0.000000,0.000000,0.000000,0.000000,1.472062,18.406731,1.458461
1650623465.802308,2683.000000,1650623465.802058,0.000000,0.000000,1.000000,0.000000,0.000000,0.000000,0.000000,1.473729,18.407952,1.485191
1650623465.902317,2684.000000,1650623465.902132,0.000000,0.000000,1.000000,0.000000,0.000000,0.000000,0.000000,1.479741,18.409116,1.483847
1650623466.002295,2685.000000,1650623466.002118,0.000000,0.000000,1.000000,0.000000,0.000000,0.000000,0.000000,1.484387,18.411312,1.480579
1650623466.102278,2686.000000,1650623466.102115,0.000000,0.000000,1.000000,0.000000,0.000000,0.000000,0.000000,1.486632,18.413386,1.481937
1650623466.202264,2687.000000,1650623466.202096,0.000000,0.000000,1.000000,0.000000,0.000000,0.000000,0.000000,1.493141,18.413157,1.482100
1650623466.302270,2688.000000,1650623466.302099,0.000000,0.000000,1.000000,0.000000,0.000000,0.000000,0.000000,1.494937,18.411843,1.470649
1650623466.402340,2689.000000,1650623466.402174,0.000000,0.000000,1.000000,0.000000,0.000000,0.000000,0.000000,1.499903,18.411689,1.472275
1650623466.502638,2690.000000,1650623466.502321,0.000000,0.000000,1.000000,0.000000,0.000000,0.000000,0.000000,1.503489,18.408269,1.458237
1650623466.602291,2691.000000,1650623466.602102,0.000000,0.000000,1.000000,0.000000,0.000000,0.000000,0.000000,1.503580,18.407225,1.446137
1650623466.702317,2692.000000,1650623466.702135,0.000000,0.000000,1.000000,0.000000,0.000000,0.000000,0.000000,1.499277,18.407340,1.442378
1650623466.802290,2693.000000,1650623466.802073,0.000000,0.000000,1.000000,0.000000,0.000000,0.000000,0.000000,1.501738,18.404188,1.449865
1650623466.902241,2694.000000,1650623466.902042,0.000000,0.000000,1.000000,0.000000,0.000000,0.000000,0.000000,1.504046,18.397957,1.450399
1650623467.002220,2695.000000,1650623467.002053,0.000000,0.000000,1.000000,0.000000,0.000000,0.000000,0.000000,1.504022,18.395374,1.444268
1650623467.102649,2696.000000,1650623467.102447,0.000000,0.000000,1.000000,0.000000,0.000000,0.000000,0.000000,1.502884,18.394066,1.442242
1650623467.202272,2697.000000,1650623467.202036,0.000000,0.000000,1.000000,0.000000,0.000000,0.000000,0.000000,1.501790,18.395057,1.442553
1650623467.302742,2698.000000,1650623467.302403,0.000000,0.000000,1.000000,0.000000,0.000000,0.000000,0.000000,1.501831,18.396033,1.448341
1650623467.402383,2699.000000,1650623467.402163,0.000000,0.000000,1.000000,0.000000,0.000000,0.000000,0.000000,1.504037,18.394810,1.453735
1650623467.502322,2700.000000,1650623467.502094,0.000000,0.000000,1.000000,0.000000,0.000000,0.000000,0.000000,1.503922,18.394780,1.463589
1650623467.602300,2701.000000,1650623467.602120,0.000000,0.000000,1.000000,0.000000,0.000000,0.000000,0.000000,1.508157,18.394787,1.458356
1650623467.702260,2702.000000,1650623467.702096,0.000000,0.000000,1.000000,0.000000,0.000000,0.000000,0.000000,1.507768,18.395916,1.453985
1650623467.802247,2703.000000,1650623467.802083,0.000000,0.000000,1.000000,0.000000,0.000000,0.000000,0.000000,1.510644,18.395920,1.437550
1650623467.902230,2704.000000,1650623467.902026,0.000000,0.000000,1.000000,0.000000,0.000000,0.000000,0.000000,1.508967,18.397039,1.403122
1650623468.002235,2705.000000,1650623468.002079,0.000000,0.000000,1.000000,0.000000,0.000000,0.000000,0.000000,1.505173,18.398119,1.354712
1650623468.102657,2706.000000,1650623468.102310,0.000000,0.000000,1.000000,0.000000,0.000000,0.000000,0.000000,1.501571,18.399155,1.323615
1650623468.202304,2707.000000,1650623468.202110,0.000000,0.000000,1.000000,0.000000,0.000000,0.000000,0.000000,1.499253,18.400146,1.282571
1650623468.302252,2708.000000,1650623468.302095,0.000000,0.000000,1.000000,0.000000,0.000000,0.000000,0.000000,1.499248,18.396730,1.240110
1650623468.402354,2709.000000,1650623468.402158,0.000000,0.000000,1.000000,0.000000,0.000000,0.000000,0.000000,1.498158,18.395699,1.218937
1650623468.502396,2710.000000,1650623468.502156,0.000000,0.000000,1.000000,0.000000,0.000000,0.000000,0.000000,1.491683,18.395835,1.209349
1650623468.602269,2711.000000,1650623468.602108,0.000000,0.000000,1.000000,0.000000,0.000000,0.000000,0.000000,1.488860,18.394892,1.196368
1650623468.702326,2712.000000,1650623468.702151,0.000000,0.000000,1.000000,0.000000,0.000000,0.000000,0.000000,1.487317,18.391840,1.198691
1650623468.802348,2713.000000,1650623468.802173,0.000000,0.000000,1.000000,0.000000,0.000000,0.000000,0.000000,1.489167,18.390074,1.204396
1650623468.902536,2714.000000,1650623468.902266,0.000000,0.000000,1.000000,0.000000,0.000000,0.000000,0.000000,1.490947,18.390618,1.221392
1650623469.002395,2715.000000,1650623469.002187,0.000000,0.000000,1.000000,0.000000,0.000000,0.000000,0.000000,1.488291,18.392252,1.233861
1650623469.102375,2716.000000,1650623469.102163,0.000000,0.000000,1.000000,0.000000,0.000000,0.000000,0.000000,1.482538,18.394910,1.235505
1650623469.202340,2717.000000,1650623469.202138,0.000000,0.000000,1.000000,0.000000,0.000000,0.000000,0.000000,1.474964,18.398526,1.233203
1650623469.302324,2718.000000,1650623469.302134,0.000000,0.000000,1.000000,0.000000,0.000000,0.000000,0.000000,1.470051,18.401946,1.244854
1650623469.402347,2719.000000,1650623469.402150,0.000000,0.000000,1.000000,0.000000,0.000000,0.000000,0.000000,1.465484,18.404079,1.256965
1650623469.502298,2720.000000,1650623469.502111,0.000000,0.000000,1.000000,0.000000,0.000000,0.000000,0.000000,1.465616,18.404990,1.250137
1650623469.602367,2721.000000,1650623469.602185,0.000000,0.000000,1.000000,0.000000,0.000000,0.000000,0.000000,1.460373,18.405833,1.251755
1650623469.702346,2722.000000,1650623469.702154,0.000000,0.000000,1.000000,0.000000,0.000000,0.000000,0.000000,1.448968,18.406610,1.256632
1650623469.802345,2723.000000,1650623469.802156,0.000000,0.000000,1.000000,0.000000,0.000000,0.000000,0.000000,1.453575,18.405143,1.202526
1650623469.902326,2724.000000,1650623469.902125,0.000000,0.000000,1.000000,0.000000,0.000000,0.000000,0.000000,1.455854,18.404831,1.173357
1650623470.002339,2725.000000,1650623470.002142,0.000000,0.000000,1.000000,0.000000,0.000000,0.000000,0.000000,1.459190,18.404522,1.166546
1650623470.102348,2726.000000,1650623470.102151,0.000000,0.000000,1.000000,0.000000,0.000000,0.000000,0.000000,1.460238,18.405309,1.165875
1650623470.202360,2727.000000,1650623470.202175,0.000000,0.000000,1.000000,0.000000,0.000000,0.000000,0.000000,1.464567,18.408221,1.166247
1650623470.302318,2728.000000,1650623470.302132,0.000000,0.000000,1.000000,0.000000,0.000000,0.000000,0.000000,1.474162,18.410952,1.178096
1650623470.402324,2729.000000,1650623470.402136,0.000000,0.000000,1.000000,0.000000,0.000000,0.000000,0.000000,1.477799,18.409144,1.200930
1650623470.502321,2730.000000,1650623470.502126,0.000000,0.000000,1.000000,0.000000,0.000000,0.000000,0.000000,1.477971,18.408503,1.221357
1650623470.602350,2731.000000,1650623470.602152,0.000000,0.000000,1.000000,0.000000,0.000000,0.000000,0.000000,1.478137,18.408968,1.243467
1650623470.702335,2732.000000,1650623470.702135,0.000000,0.000000,1.000000,0.000000,0.000000,0.000000,0.000000,1.482658,18.408299,1.264732
1650623470.802413,2733.000000,1650623470.802225,0.000000,0.000000,1.000000,0.000000,0.000000,0.000000,0.000000,1.488012,18.408741,1.267405
1650623470.902357,2734.000000,1650623470.902158,0.000000,0.000000,1.000000,0.000000,0.000000,0.000000,0.000000,1.494136,18.408053,1.263521
1650623471.002388,2735.000000,1650623471.002191,0.000000,0.000000,1.000000,0.000000,0.000000,0.000000,0.000000,1.494429,18.407388,1.266255
1650623471.102336,2736.000000,1650623471.102147,0.000000,0.000000,1.000000,0.000000,0.000000,0.000000,0.000000,1.495753,18.407840,1.270495
1650623471.202343,2737.000000,1650623471.202154,0.000000,0.000000,1.000000,0.000000,0.000000,0.000000,0.000000,1.499140,18.408257,1.282626
1650623471.302429,2738.000000,1650623471.302215,0.000000,0.000000,1.000000,0.000000,0.000000,0.000000,0.000000,1.496837,18.408639,1.286986
1650623471.402362,2739.000000,1650623471.402173,0.000000,0.000000,1.000000,0.000000,0.000000,0.000000,0.000000,1.497887,18.408988,1.287108
1650623471.502384,2740.000000,1650623471.502196,0.000000,0.000000,1.000000,0.000000,0.000000,0.000000,0.000000,1.499927,18.409305,1.289615
1650623471.602281,2741.000000,1650623471.602103,0.000000,0.000000,1.000000,0.000000,0.000000,0.000000,0.000000,1.496356,18.406321,1.304087
1650623471.702341,2742.000000,1650623471.702162,0.000000,0.000000,1.000000,0.000000,0.000000,0.000000,0.000000,1.494035,18.403496,1.301790
1650623471.802319,2743.000000,1650623471.802166,0.000000,0.000000,1.000000,0.000000,0.000000,0.000000,0.000000,1.488545,18.403013,1.296312
1650623471.902335,2744.000000,1650623471.902177,0.000000,0.000000,1.000000,0.000000,0.000000,0.000000,0.000000,1.487710,18.400382,1.303919
1650623472.002257,2745.000000,1650623472.002086,0.000000,0.000000,1.000000,0.000000,0.000000,0.000000,0.000000,1.484737,18.399001,1.314397
1650623472.102731,2746.000000,1650623472.102516,0.000000,0.000000,1.000000,0.000000,0.000000,0.000000,0.000000,1.485203,18.398804,1.331646
1650623472.202305,2747.000000,1650623472.202126,0.000000,0.000000,1.000000,0.000000,0.000000,0.000000,0.000000,1.483468,18.395364,1.356980
1650623472.302308,2748.000000,1650623472.302136,0.000000,0.000000,1.000000,0.000000,0.000000,0.000000,0.000000,1.478566,18.394321,1.377936
1650623472.402270,2749.000000,1650623472.402095,0.000000,0.000000,1.000000,0.000000,0.000000,0.000000,0.000000,1.477228,18.395545,1.393855
1650623472.502304,2750.000000,1650623472.502126,0.000000,0.000000,1.000000,0.000000,0.000000,0.000000,0.000000,1.474899,18.392365,1.416210
1650623472.602290,2751.000000,1650623472.602120,0.000000,0.000000,1.000000,0.000000,0.000000,0.000000,0.000000,1.478182,18.390482,1.443098
1650623472.702330,2752.000000,1650623472.702155,0.000000,0.000000,1.000000,0.000000,0.000000,0.000000,0.000000,1.475856,18.388738,1.470268
1650623472.802340,2753.000000,1650623472.802168,0.000000,0.000000,1.000000,0.000000,0.000000,0.000000,0.000000,1.470412,18.383858,1.493639
1650623472.902408,2754.000000,1650623472.902217,0.000000,0.000000,1.000000,0.000000,0.000000,0.000000,0.000000,1.464218,18.382568,1.511726
1650623473.002367,2755.000000,1650623473.002184,0.000000,0.000000,1.000000,0.000000,0.000000,0.000000,0.000000,1.459510,18.381403,1.505367
1650623473.102312,2756.000000,1650623473.102141,0.000000,0.000000,1.000000,0.000000,0.000000,0.000000,0.000000,1.460583,18.381446,1.508639
1650623473.202307,2757.000000,1650623473.202134,0.000000,0.000000,1.000000,0.000000,0.000000,0.000000,0.000000,1.470383,18.382629,1.503417
1650623473.302286,2758.000000,1650623473.302121,0.000000,0.000000,1.000000,0.000000,0.000000,0.000000,0.000000,1.484041,18.382701,1.479581
1650623473.402313,2759.000000,1650623473.402144,0.000000,0.000000,1.000000,0.000000,0.000000,0.000000,0.000000,1.494758,18.383902,1.463741
1650623473.502279,2760.000000,1650623473.502100,0.000000,0.000000,1.000000,0.000000,0.000000,0.000000,0.000000,1.500482,18.385074,1.456416
1650623473.602259,2761.000000,1650623473.602089,0.000000,0.000000,1.000000,0.000000,0.000000,0.000000,0.000000,1.511282,18.387302,1.461317
1650623473.702456,2762.000000,1650623473.702250,0.000000,0.000000,1.000000,0.000000,0.000000,0.000000,0.000000,1.517038,18.389430,1.466658
1650623473.802364,2763.000000,1650623473.802169,0.000000,0.000000,1.000000,0.000000,0.000000,0.000000,0.000000,1.519103,18.390365,1.481291
1650623473.902397,2764.000000,1650623473.902203,0.000000,0.000000,1.000000,0.000000,0.000000,0.000000,0.000000,1.539485,18.389078,1.438695
1650623474.002422,2765.000000,1650623474.002225,0.000000,0.000000,1.000000,0.000000,0.000000,0.000000,0.000000,1.545507,18.388964,1.415450
1650623474.102350,2766.000000,1650623474.102165,0.000000,0.000000,1.000000,0.000000,0.000000,0.000000,0.000000,1.549936,18.389960,1.402755
1650623474.202371,2767.000000,1650623474.202178,0.000000,0.000000,1.000000,0.000000,0.000000,0.000000,0.000000,1.557216,18.392001,1.376822
1650623474.302319,2768.000000,1650623474.302136,0.000000,0.000000,1.000000,0.000000,0.000000,0.000000,0.000000,1.566090,18.393932,1.343877
1650623474.402402,2769.000000,1650623474.402211,0.000000,0.000000,1.000000,0.000000,0.000000,0.000000,0.000000,1.579725,18.393573,1.262320
1650623474.502363,2770.000000,1650623474.502173,0.000000,0.000000,1.000000,0.000000,0.000000,0.000000,0.000000,1.586926,18.394322,1.202796
1650623474.602347,2771.000000,1650623474.602145,0.000000,0.000000,1.000000,0.000000,0.000000,0.000000,0.000000,1.585854,18.396114,1.169349
1650623474.702357,2772.000000,1650623474.702164,0.000000,0.000000,1.000000,0.000000,0.000000,0.000000,0.000000,1.574797,18.396709,1.154520
1650623474.802329,2773.000000,1650623474.802135,0.000000,0.000000,1.000000,0.000000,0.000000,0.000000,0.000000,1.568522,18.398349,1.154344
1650623474.902245,2774.000000,1650623474.902030,0.000000,0.000000,1.000000,0.000000,0.000000,0.000000,0.000000,1.565709,18.400975,1.135957
1650623475.002441,2775.000000,1650623475.002212,0.000000,0.000000,1.000000,0.000000,0.000000,0.000000,0.000000,1.558553,18.403433,1.125919
1650623475.102273,2776.000000,1650623475.102059,0.000000,0.000000,1.000000,0.000000,0.000000,0.000000,0.000000,1.550592,18.406819,1.124701
1650623475.202251,2777.000000,1650623475.202024,0.000000,0.000000,1.000000,0.000000,0.000000,0.000000,0.000000,1.537541,18.412162,1.123063
1650623475.302273,2778.000000,1650623475.302075,0.000000,0.000000,1.000000,0.000000,0.000000,0.000000,0.000000,1.531715,18.414979,1.116980
1650623475.402327,2779.000000,1650623475.402162,0.000000,0.000000,1.000000,0.000000,0.000000,0.000000,0.000000,1.527289,18.418675,1.115498
1650623475.502252,2780.000000,1650623475.502052,0.000000,0.000000,1.000000,0.000000,0.000000,0.000000,0.000000,1.517660,18.421011,1.092613
1650623475.602303,2781.000000,1650623475.602116,0.000000,0.000000,1.000000,0.000000,0.000000,0.000000,0.000000,1.516224,18.423149,1.062925
1650623475.702319,2782.000000,1650623475.702136,0.000000,0.000000,1.000000,0.000000,0.000000,0.000000,0.000000,1.513815,18.424006,1.054968
1650623475.802315,2783.000000,1650623475.802134,0.000000,0.000000,1.000000,0.000000,0.000000,0.000000,0.000000,1.513763,18.426926,1.053349
1650623475.902297,2784.000000,1650623475.902120,0.000000,0.000000,1.000000,0.000000,0.000000,0.000000,0.000000,1.514846,18.428519,1.040058
1650623476.002301,2785.000000,1650623476.002122,0.000000,0.000000,1.000000,0.000000,0.000000,0.000000,0.000000,1.515907,18.428858,1.018798
1650623476.102346,2786.000000,1650623476.102142,0.000000,0.000000,1.000000,0.000000,0.000000,0.000000,0.000000,1.522392,18.429104,0.989911
1650623476.202366,2787.000000,1650623476.202162,0.000000,0.000000,1.000000,0.000000,0.000000,0.000000,0.000000,1.528533,18.428175,0.954543
1650623476.302318,2788.000000,1650623476.302118,0.000000,0.000000,1.000000,0.000000,0.000000,0.000000,0.000000,1.533238,18.428323,0.944451
1650623476.402332,2789.000000,1650623476.402136,0.000000,0.000000,1.000000,0.000000,0.000000,0.000000,0.000000,1.536570,18.427313,0.953773
1650623476.502323,2790.000000,1650623476.502128,0.000000,0.000000,1.000000,0.000000,0.000000,0.000000,0.000000,1.537506,18.427394,0.968790
1650623476.602290,2791.000000,1650623476.602093,0.000000,0.000000,1.000000,0.000000,0.000000,0.000000,0.000000,1.541627,18.427420,0.993260
1650623476.702360,2792.000000,1650623476.702174,0.000000,0.000000,1.000000,0.000000,0.000000,0.000000,0.000000,1.542206,18.426306,1.027552
1650623476.802328,2793.000000,1650623476.802145,0.000000,0.000000,1.000000,0.000000,0.000000,0.000000,0.000000,1.539436,18.426301,1.063133
1650623476.902333,2794.000000,1650623476.902137,0.000000,0.000000,1.000000,0.000000,0.000000,0.000000,0.000000,1.542236,18.426257,1.103913
1650623477.002309,2795.000000,1650623477.002112,0.000000,0.000000,1.000000,0.000000,0.000000,0.000000,0.000000,1.540480,18.426179,1.144766
1650623477.102716,2796.000000,1650623477.102525,0.000000,0.000000,1.000000,0.000000,0.000000,0.000000,0.000000,1.537696,18.426070,1.177552
1650623477.202351,2797.000000,1650623477.202143,0.000000,0.000000,1.000000,0.000000,0.000000,0.000000,0.000000,1.540494,18.424844,1.190442
1650623477.302371,2798.000000,1650623477.302176,0.000000,0.000000,1.000000,0.000000,0.000000,0.000000,0.000000,1.535477,18.424749,1.201153
1650623477.402396,2799.000000,1650623477.402205,0.000000,0.000000,1.000000,0.000000,0.000000,0.000000,0.000000,1.533991,18.424635,1.221853
1650623477.502374,2800.000000,1650623477.502183,0.000000,0.000000,1.000000,0.000000,0.000000,0.000000,0.000000,1.535851,18.424504,1.244043
1650623477.602255,2801.000000,1650623477.602063,0.000000,0.000000,1.000000,0.000000,0.000000,0.000000,0.000000,1.536507,18.424359,1.270047
1650623477.702475,2802.000000,1650623477.702190,0.000000,0.000000,1.000000,0.000000,0.000000,0.000000,0.000000,1.543655,18.423111,1.281126
1650623477.802402,2803.000000,1650623477.802197,0.000000,0.000000,1.000000,0.000000,0.000000,0.000000,0.000000,1.551469,18.423008,1.295611
1650623477.902337,2804.000000,1650623477.902144,0.000000,0.000000,1.000000,0.000000,0.000000,0.000000,0.000000,1.555528,18.423988,1.307703
1650623478.002443,2805.000000,1650623478.002243,0.000000,0.000000,1.000000,0.000000,0.000000,0.000000,0.000000,1.560389,18.421627,1.327164
1650623478.102394,2806.000000,1650623478.102180,0.000000,0.000000,1.000000,0.000000,0.000000,0.000000,0.000000,1.567087,18.420478,1.343994
1650623478.202343,2807.000000,1650623478.202150,0.000000,0.000000,1.000000,0.000000,0.000000,0.000000,0.000000,1.567873,18.419388,1.359087
1650623478.302318,2808.000000,1650623478.302126,0.000000,0.000000,1.000000,0.000000,0.000000,0.000000,0.000000,1.566342,18.418358,1.381370
1650623478.402369,2809.000000,1650623478.402182,0.000000,0.000000,1.000000,0.000000,0.000000,0.000000,0.000000,1.570265,18.416298,1.409719
1650623478.502428,2810.000000,1650623478.502221,0.000000,0.000000,1.000000,0.000000,0.000000,0.000000,0.000000,1.573884,18.415450,1.431758
1650623478.602308,2811.000000,1650623478.602129,0.000000,0.000000,1.000000,0.000000,0.000000,0.000000,0.000000,1.570668,18.414660,1.454976
1650623478.702329,2812.000000,1650623478.702142,0.000000,0.000000,1.000000,0.000000,0.000000,0.000000,0.000000,1.568637,18.415017,1.474461
1650623478.802321,2813.000000,1650623478.802143,0.000000,0.000000,1.000000,0.000000,0.000000,0.000000,0.000000,1.572099,18.414276,1.483089
1650623478.902272,2814.000000,1650623478.902098,0.000000,0.000000,1.000000,0.000000,0.000000,0.000000,0.000000,1.575296,18.411409,1.496622
1650623479.002279,2815.000000,1650623479.002106,0.000000,0.000000,1.000000,0.000000,0.000000,0.000000,0.000000,1.576056,18.409809,1.506791
1650623479.102310,2816.000000,1650623479.102128,0.000000,0.000000,1.000000,0.000000,0.000000,0.000000,0.000000,1.575605,18.409413,1.523409
1650623479.202305,2817.000000,1650623479.202125,0.000000,0.000000,1.000000,0.000000,0.000000,0.000000,0.000000,1.569653,18.409064,1.539754
1650623479.302391,2818.000000,1650623479.302178,0.000000,0.000000,1.000000,0.000000,0.000000,0.000000,0.000000,1.567246,18.409849,1.558244
1650623479.402355,2819.000000,1650623479.402163,0.000000,0.000000,1.000000,0.000000,0.000000,0.000000,0.000000,1.563840,18.409522,1.573940
1650623479.502306,2820.000000,1650623479.502121,0.000000,0.000000,1.000000,0.000000,0.000000,0.000000,0.000000,1.550778,18.410324,1.574852
1650623479.602346,2821.000000,1650623479.602165,0.000000,0.000000,1.000000,0.000000,0.000000,0.000000,0.000000,1.537353,18.412190,1.584171
1650623479.702365,2822.000000,1650623479.702175,0.000000,0.000000,1.000000,0.000000,0.000000,0.000000,0.000000,1.530169,18.413964,1.591078
1650623479.802351,2823.000000,1650623479.802180,0.000000,0.000000,1.000000,0.000000,0.000000,0.000000,0.000000,1.538717,18.413465,1.540837
1650623479.902362,2824.000000,1650623479.902140,0.000000,0.000000,1.000000,0.000000,0.000000,0.000000,0.000000,1.539212,18.414089,1.496338
1650623480.002351,2825.000000,1650623480.002180,0.000000,0.000000,1.000000,0.000000,0.000000,0.000000,0.000000,1.544083,18.414682,1.468729
1650623480.102319,2826.000000,1650623480.102142,0.000000,0.000000,1.000000,0.000000,0.000000,0.000000,0.000000,1.547621,18.415244,1.450933
1650623480.202314,2827.000000,1650623480.202140,0.000000,0.000000,1.000000,0.000000,0.000000,0.000000,0.000000,1.555338,18.415775,1.446626
1650623480.302304,2828.000000,1650623480.302128,0.000000,0.000000,1.000000,0.000000,0.000000,0.000000,0.000000,1.569164,18.414094,1.388339
1650623480.402462,2829.000000,1650623480.402277,0.000000,0.000000,1.000000,0.000000,0.000000,0.000000,0.000000,1.575637,18.413597,1.354160
1650623480.502289,2830.000000,1650623480.502082,0.000000,0.000000,1.000000,0.000000,0.000000,0.000000,0.000000,1.577321,18.413132,1.337530
1650623480.602341,2831.000000,1650623480.602155,0.000000,0.000000,1.000000,0.000000,0.000000,0.000000,0.000000,1.586472,18.410518,1.264381
1650623480.702288,2832.000000,1650623480.702120,0.000000,0.000000,1.000000,0.000000,0.000000,0.000000,0.000000,1.590663,18.408059,1.202435
1650623480.802285,2833.000000,1650623480.802118,0.000000,0.000000,1.000000,0.000000,0.000000,0.000000,0.000000,1.585796,18.407936,1.147306
1650623480.902369,2834.000000,1650623480.902168,0.000000,0.000000,1.000000,0.000000,0.000000,0.000000,0.000000,1.580018,18.407839,1.119767
1650623481.002318,2835.000000,1650623481.002125,0.000000,0.000000,1.000000,0.000000,0.000000,0.000000,0.000000,1.575582,18.407766,1.109060
1650623481.102249,2836.000000,1650623481.102069,0.000000,0.000000,1.000000,0.000000,0.000000,0.000000,0.000000,1.571344,18.407715,1.107251
1650623481.202312,2837.000000,1650623481.202139,0.000000,0.000000,1.000000,0.000000,0.000000,0.000000,0.000000,1.564036,18.409865,1.102676
1650623481.302317,2838.000000,1650623481.302121,0.000000,0.000000,1.000000,0.000000,0.000000,0.000000,0.000000,1.560393,18.411907,1.105923
1650623481.402284,2839.000000,1650623481.402097,0.000000,0.000000,1.000000,0.000000,0.000000,0.000000,0.000000,1.556957,18.413840,1.091654
1650623481.502356,2840.000000,1650623481.502186,0.000000,0.000000,1.000000,0.000000,0.000000,0.000000,0.000000,1.554815,18.415665,1.096069
1650623481.602361,2841.000000,1650623481.602191,0.000000,0.000000,1.000000,0.000000,0.000000,0.000000,0.000000,1.552814,18.416290,1.110327
1650623481.702448,2842.000000,1650623481.702214,0.000000,0.000000,1.000000,0.000000,0.000000,0.000000,0.000000,1.553132,18.415780,1.107380
1650623481.802394,2843.000000,1650623481.802171,0.000000,0.000000,1.000000,0.000000,0.000000,0.000000,0.000000,1.550186,18.416379,1.114526
1650623481.902381,2844.000000,1650623481.902182,0.000000,0.000000,1.000000,0.000000,0.000000,0.000000,0.000000,1.543074,18.418027,1.114399
1650623482.002327,2845.000000,1650623482.002176,0.000000,0.000000,1.000000,0.000000,0.000000,0.000000,0.000000,1.533132,18.420660,1.105668
1650623482.102648,2846.000000,1650623482.102445,0.000000,0.000000,1.000000,0.000000,0.000000,0.000000,0.000000,1.523813,18.423128,1.104812
1650623482.202409,2847.000000,1650623482.202213,0.000000,0.000000,1.000000,0.000000,0.000000,0.000000,0.000000,1.512929,18.423252,1.117955
1650623482.302387,2848.000000,1650623482.302246,0.000000,0.000000,1.000000,0.000000,0.000000,0.000000,0.000000,1.502772,18.423343,1.138856
1650623482.402267,2849.000000,1650623482.402101,0.000000,0.000000,1.000000,0.000000,0.000000,0.000000,0.000000,1.494418,18.422312,1.161512
1650623482.502400,2850.000000,1650623482.502197,0.000000,0.000000,1.000000,0.000000,0.000000,0.000000,0.000000,1.483424,18.422406,1.180160
1650623482.602297,2851.000000,1650623482.602126,0.000000,0.000000,1.000000,0.000000,0.000000,0.000000,0.000000,1.473230,18.422475,1.202990
1650623482.702290,2852.000000,1650623482.702062,0.000000,0.000000,1.000000,0.000000,0.000000,0.000000,0.000000,1.462723,18.422521,1.234630
1650623482.802399,2853.000000,1650623482.802198,0.000000,0.000000,1.000000,0.000000,0.000000,0.000000,0.000000,1.456300,18.421455,1.247248
1650623482.902339,2854.000000,1650623482.902182,0.000000,0.000000,1.000000,0.000000,0.000000,0.000000,0.000000,1.451565,18.420434,1.270623
1650623483.002300,2855.000000,1650623483.002144,0.000000,0.000000,1.000000,0.000000,0.000000,0.000000,0.000000,1.451699,18.420549,1.288960
1650623483.102306,2856.000000,1650623483.102152,0.000000,0.000000,1.000000,0.000000,0.000000,0.000000,0.000000,1.450968,18.419557,1.313724
1650623483.202327,2857.000000,1650623483.202158,0.000000,0.000000,1.000000,0.000000,0.000000,0.000000,0.000000,1.454862,18.418614,1.343811
1650623483.302553,2858.000000,1650623483.302294,0.000000,0.000000,1.000000,0.000000,0.000000,0.000000,0.000000,1.464192,18.417719,1.345090
1650623483.402298,2859.000000,1650623483.402119,0.000000,0.000000,1.000000,0.000000,0.000000,0.000000,0.000000,1.467720,18.417963,1.355019
1650623483.502443,2860.000000,1650623483.502228,0.000000,0.000000,1.000000,0.000000,0.000000,0.000000,0.000000,1.469010,18.418194,1.373237
1650623483.602383,2861.000000,1650623483.602198,0.000000,0.000000,1.000000,0.000000,0.000000,0.000000,0.000000,1.465994,18.417320,1.397777
1650623483.702311,2862.000000,1650623483.702130,0.000000,0.000000,1.000000,0.000000,0.000000,0.000000,0.000000,1.468720,18.416496,1.426735
1650623483.802319,2863.000000,1650623483.802142,0.000000,0.000000,1.000000,0.000000,0.000000,0.000000,0.000000,1.482313,18.413540,1.389734
1650623483.902282,2864.000000,1650623483.902108,0.000000,0.000000,1.000000,0.000000,0.000000,0.000000,0.000000,1.486505,18.410758,1.368540
1650623484.002322,2865.000000,1650623484.002147,0.000000,0.000000,1.000000,0.000000,0.000000,0.000000,0.000000,1.489422,18.410329,1.363365
1650623484.102329,2866.000000,1650623484.102140,0.000000,0.000000,1.000000,0.000000,0.000000,0.000000,0.000000,1.488943,18.411036,1.354225
1650623484.202304,2867.000000,1650623484.202131,0.000000,0.000000,1.000000,0.000000,0.000000,0.000000,0.000000,1.489613,18.412812,1.348559
1650623484.302350,2868.000000,1650623484.302182,0.000000,0.000000,1.000000,0.000000,0.000000,0.000000,0.000000,1.489185,18.415594,1.350273
1650623484.402374,2869.000000,1650623484.402187,0.000000,0.000000,1.000000,0.000000,0.000000,0.000000,0.000000,1.493170,18.417135,1.362299
1650623484.502341,2870.000000,1650623484.502137,0.000000,0.000000,1.000000,0.000000,0.000000,0.000000,0.000000,1.493681,18.416408,1.365655
1650623484.602360,2871.000000,1650623484.602188,0.000000,0.000000,1.000000,0.000000,0.000000,0.000000,0.000000,1.490905,18.416811,1.374401
1650623484.702335,2872.000000,1650623484.702164,0.000000,0.000000,1.000000,0.000000,0.000000,0.000000,0.000000,1.486120,18.417189,1.385083
1650623484.802427,2873.000000,1650623484.802271,0.000000,0.000000,1.000000,0.000000,0.000000,0.000000,0.000000,1.487081,18.417544,1.380675
1650623484.902468,2874.000000,1650623484.902207,0.000000,0.000000,1.000000,0.000000,0.000000,0.000000,0.000000,1.484747,18.417876,1.374703
1650623485.002375,2875.000000,1650623485.002198,0.000000,0.000000,1.000000,0.000000,0.000000,0.000000,0.000000,1.479304,18.418185,1.368857
1650623485.102385,2876.000000,1650623485.102211,0.000000,0.000000,1.000000,0.000000,0.000000,0.000000,0.000000,1.482930,18.419563,1.372825
1650623485.202326,2877.000000,1650623485.202147,0.000000,0.000000,1.000000,0.000000,0.000000,0.000000,0.000000,1.484213,18.419765,1.377337
1650623485.302353,2878.000000,1650623485.302172,0.000000,0.000000,1.000000,0.000000,0.000000,0.000000,0.000000,1.487637,18.419947,1.392047
1650623485.402379,2879.000000,1650623485.402211,0.000000,0.000000,1.000000,0.000000,0.000000,0.000000,0.000000,1.512698,18.416838,1.339102
1650623485.502325,2880.000000,1650623485.502160,0.000000,0.000000,1.000000,0.000000,0.000000,0.000000,0.000000,1.537422,18.413899,1.296325
1650623485.602297,2881.000000,1650623485.602133,0.000000,0.000000,1.000000,0.000000,0.000000,0.000000,0.000000,1.553029,18.412220,1.276283
1650623485.702503,2882.000000,1650623485.702274,0.000000,0.000000,1.000000,0.000000,0.000000,0.000000,0.000000,1.563245,18.410648,1.272446
1650623485.802428,2883.000000,1650623485.802227,0.000000,0.000000,1.000000,0.000000,0.000000,0.000000,0.000000,1.567253,18.410271,1.278521
1650623485.902336,2884.000000,1650623485.902143,0.000000,0.000000,1.000000,0.000000,0.000000,0.000000,0.000000,1.571932,18.409933,1.293286
1650623486.002326,2885.000000,1650623486.002149,0.000000,0.000000,1.000000,0.000000,0.000000,0.000000,0.000000,1.571790,18.409632,1.310720
1650623486.102405,2886.000000,1650623486.102215,0.000000,0.000000,1.000000,0.000000,0.000000,0.000000,0.000000,1.568192,18.409366,1.333102
1650623486.202379,2887.000000,1650623486.202189,0.000000,0.000000,1.000000,0.000000,0.000000,0.000000,0.000000,1.555897,18.410224,1.354551
1650623486.302364,2888.000000,1650623486.302181,0.000000,0.000000,1.000000,0.000000,0.000000,0.000000,0.000000,1.546331,18.409959,1.379099
1650623486.402370,2889.000000,1650623486.402184,0.000000,0.000000,1.000000,0.000000,0.000000,0.000000,0.000000,1.539383,18.409724,1.404972
1650623486.502559,2890.000000,1650623486.502304,0.000000,0.000000,1.000000,0.000000,0.000000,0.000000,0.000000,1.537118,18.409516,1.432077
1650623486.602340,2891.000000,1650623486.602137,0.000000,0.000000,1.000000,0.000000,0.000000,0.000000,0.000000,1.534928,18.409333,1.441774
1650623486.702359,2892.000000,1650623486.702155,0.000000,0.000000,1.000000,0.000000,0.000000,0.000000,0.000000,1.532821,18.410265,1.457339
1650623486.802365,2893.000000,1650623486.802163,0.000000,0.000000,1.000000,0.000000,0.000000,0.000000,0.000000,1.526438,18.410067,1.468838
1650623486.902348,2894.000000,1650623486.902143,0.000000,0.000000,1.000000,0.000000,0.000000,0.000000,0.000000,1.513854,18.410980,1.485296
1650623487.002343,2895.000000,1650623487.002152,0.000000,0.000000,1.000000,0.000000,0.000000,0.000000,0.000000,1.505260,18.411850,1.500850
1650623487.102657,2896.000000,1650623487.102479,0.000000,0.000000,1.000000,0.000000,0.000000,0.000000,0.000000,1.518999,18.410496,1.461487
1650623487.202322,2897.000000,1650623487.202133,0.000000,0.000000,1.000000,0.000000,0.000000,0.000000,0.000000,1.529822,18.410313,1.443692
1650623487.302719,2898.000000,1650623487.302461,0.000000,0.000000,1.000000,0.000000,0.000000,0.000000,0.000000,1.537851,18.410149,1.441795
1650623487.402469,2899.000000,1650623487.402231,0.000000,0.000000,1.000000,0.000000,0.000000,0.000000,0.000000,1.538853,18.410002,1.444680
1650623487.502391,2900.000000,1650623487.502162,0.000000,0.000000,1.000000,0.000000,0.000000,0.000000,0.000000,1.540843,18.410961,1.448929
1650623487.602413,2901.000000,1650623487.602173,0.000000,0.000000,1.000000,0.000000,0.000000,0.000000,0.000000,1.543765,18.410782,1.437551
1650623487.702432,2902.000000,1650623487.702197,0.000000,0.000000,1.000000,0.000000,0.000000,0.000000,0.000000,1.545380,18.411708,1.423296
1650623487.802427,2903.000000,1650623487.802190,0.000000,0.000000,1.000000,0.000000,0.000000,0.000000,0.000000,1.546847,18.413676,1.414375
1650623487.902420,2904.000000,1650623487.902193,0.000000,0.000000,1.000000,0.000000,0.000000,0.000000,0.000000,1.568892,18.412260,1.359783
1650623488.002409,2905.000000,1650623488.002190,0.000000,0.000000,1.000000,0.000000,0.000000,0.000000,0.000000,1.581977,18.413103,1.316296
1650623488.102427,2906.000000,1650623488.102214,0.000000,0.000000,1.000000,0.000000,0.000000,0.000000,0.000000,1.588738,18.412806,1.293216
1650623488.202334,2907.000000,1650623488.202159,0.000000,0.000000,1.000000,0.000000,0.000000,0.000000,0.000000,1.585144,18.412525,1.287336
1650623488.302356,2908.000000,1650623488.302168,0.000000,0.000000,1.000000,0.000000,0.000000,0.000000,0.000000,1.573963,18.413348,1.285063
1650623488.402368,2909.000000,1650623488.402175,0.000000,0.000000,1.000000,0.000000,0.000000,0.000000,0.000000,1.561103,18.414124,1.293508
1650623488.502365,2910.000000,1650623488.502187,0.000000,0.000000,1.000000,0.000000,0.000000,0.000000,0.000000,1.553244,18.414852,1.307380
1650623488.602374,2911.000000,1650623488.602201,0.000000,0.000000,1.000000,0.000000,0.000000,0.000000,0.000000,1.540330,18.415533,1.328851
1650623488.702312,2912.000000,1650623488.702138,0.000000,0.000000,1.000000,0.000000,0.000000,0.000000,0.000000,1.531400,18.415078,1.332573
1650623488.802360,2913.000000,1650623488.802155,0.000000,0.000000,1.000000,0.000000,0.000000,0.000000,0.000000,1.520815,18.415730,1.335384
1650623488.902473,2914.000000,1650623488.902236,0.000000,0.000000,1.000000,0.000000,0.000000,0.000000,0.000000,1.514146,18.416339,1.344571
1650623489.002458,2915.000000,1650623489.002188,0.000000,0.000000,1.000000,0.000000,0.000000,0.000000,0.000000,1.509017,18.415813,1.349376
1650623489.102367,2916.000000,1650623489.102182,0.000000,0.000000,1.000000,0.000000,0.000000,0.000000,0.000000,1.502084,18.416399,1.348354
1650623489.202437,2917.000000,1650623489.202201,0.000000,0.000000,1.000000,0.000000,0.000000,0.000000,0.000000,1.498913,18.416943,1.357064
1650623489.302399,2918.000000,1650623489.302189,0.000000,0.000000,1.000000,0.000000,0.000000,0.000000,0.000000,1.506935,18.416357,1.322678
1650623489.402411,2919.000000,1650623489.402201,0.000000,0.000000,1.000000,0.000000,0.000000,0.000000,0.000000,1.512425,18.414705,1.305863
1650623489.502374,2920.000000,1650623489.502165,0.000000,0.000000,1.000000,0.000000,0.000000,0.000000,0.000000,1.513317,18.415321,1.293840
1650623489.602485,2921.000000,1650623489.602304,0.000000,0.000000,1.000000,0.000000,0.000000,0.000000,0.000000,1.518578,18.414809,1.281594
1650623489.702701,2922.000000,1650623489.702388,0.000000,0.000000,1.000000,0.000000,0.000000,0.000000,0.000000,1.513776,18.415412,1.265926
1650623489.802417,2923.000000,1650623489.802231,0.000000,0.000000,1.000000,0.000000,0.000000,0.000000,0.000000,1.513646,18.417070,1.260703
1650623489.902410,2924.000000,1650623489.902233,0.000000,0.000000,1.000000,0.000000,0.000000,0.000000,0.000000,1.512480,18.417537,1.238896
1650623490.002388,2925.000000,1650623490.002200,0.000000,0.000000,1.000000,0.000000,0.000000,0.000000,0.000000,1.508155,18.419060,1.224592
1650623490.102356,2926.000000,1650623490.102173,0.000000,0.000000,1.000000,0.000000,0.000000,0.000000,0.000000,1.499762,18.420485,1.213471
1650623490.202347,2927.000000,1650623490.202165,0.000000,0.000000,1.000000,0.000000,0.000000,0.000000,0.000000,1.506083,18.419634,1.164289
1650623490.302464,2928.000000,1650623490.302263,0.000000,0.000000,1.000000,0.000000,0.000000,0.000000,0.000000,1.505575,18.418815,1.135912
1650623490.402437,2929.000000,1650623490.402252,0.000000,0.000000,1.000000,0.000000,0.000000,0.000000,0.000000,1.506241,18.419120,1.119474
1650623490.502490,2930.000000,1650623490.502266,0.000000,0.000000,1.000000,0.000000,0.000000,0.000000,0.000000,1.506921,18.420488,1.117734
1650623490.602467,2931.000000,1650623490.602239,0.000000,0.000000,1.000000,0.000000,0.000000,0.000000,0.000000,1.504337,18.420676,1.115572
1650623490.702260,2932.000000,1650623490.702107,0.000000,0.000000,1.000000,0.000000,0.000000,0.000000,0.000000,1.503036,18.420840,1.125094
1650623490.802340,2933.000000,1650623490.802159,0.000000,0.000000,1.000000,0.000000,0.000000,0.000000,0.000000,1.505128,18.422071,1.142573
1650623490.902481,2934.000000,1650623490.902243,0.000000,0.000000,1.000000,0.000000,0.000000,0.000000,0.000000,1.528957,18.419946,1.093454
1650623491.002449,2935.000000,1650623491.002231,0.000000,0.000000,1.000000,0.000000,0.000000,0.000000,0.000000,1.544910,18.417927,1.072430
1650623491.102433,2936.000000,1650623491.102225,0.000000,0.000000,1.000000,0.000000,0.000000,0.000000,0.000000,1.555549,18.416016,1.071939
1650623491.202376,2937.000000,1650623491.202163,0.000000,0.000000,1.000000,0.000000,0.000000,0.000000,0.000000,1.556774,18.415303,1.070980
1650623491.302519,2938.000000,1650623491.302284,0.000000,0.000000,1.000000,0.000000,0.000000,0.000000,0.000000,1.561093,18.414634,1.065528
