__time,/dwm1001/id_458E/pose_kf/header/seq,/dwm1001/id_458E/pose_kf/header/stamp,/dwm1001/id_458E/pose_kf/pose/orientation/pitch_deg,/dwm1001/id_458E/pose_kf/pose/orientation/roll_deg,/dwm1001/id_458E/pose_kf/pose/orientation/w,/dwm1001/id_458E/pose_kf/pose/orientation/x,/dwm1001/id_458E/pose_kf/pose/orientation/y,/dwm1001/id_458E/pose_kf/pose/orientation/yaw_deg,/dwm1001/id_458E/pose_kf/pose/orientation/z,/dwm1001/id_458E/pose_kf/pose/position/x,/dwm1001/id_458E/pose_kf/pose/position/y,/dwm1001/id_458E/pose_kf/pose/position/z
1650623782.503030,4913.000000,1650623782.502858,0.000000,0.000000,1.000000,0.000000,0.000000,0.000000,0.000000,0.765125,30.232302,-0.928173
1650623782.603021,4914.000000,1650623782.602839,0.000000,0.000000,1.000000,0.000000,0.000000,0.000000,0.000000,0.755582,30.234953,-0.890685
1650623782.703088,4915.000000,1650623782.702923,0.000000,0.000000,1.000000,0.000000,0.000000,0.000000,0.000000,0.748721,30.238627,-0.877204
1650623782.803014,4916.000000,1650623782.802853,0.000000,0.000000,1.000000,0.000000,0.000000,0.000000,0.000000,0.744420,30.239979,-0.869049
1650623782.903018,4917.000000,1650623782.902853,0.000000,0.000000,1.000000,0.000000,0.000000,0.000000,0.000000,0.740372,30.240220,-0.866021
1650623783.003013,4918.000000,1650623783.002841,0.000000,0.000000,1.000000,0.000000,0.000000,0.000000,0.000000,0.738754,30.239406,-0.871145
1650623783.103021,4919.000000,1650623783.102872,0.000000,0.000000,1.000000,0.000000,0.000000,0.000000,0.000000,0.727444,30.243045,-0.828441
1650623783.203224,4920.000000,1650623783.203036,0.000000,0.000000,1.000000,0.000000,0.000000,0.000000,0.000000,0.717908,30.246521,-0.810072
1650623783.303032,4921.000000,1650623783.302825,0.000000,0.000000,1.000000,0.000000,0.000000,0.000000,0.000000,0.713345,30.246557,-0.794925
1650623783.403020,4922.000000,1650623783.402807,0.000000,0.000000,1.000000,0.000000,0.000000,0.000000,0.000000,0.709134,30.246610,-0.788539
1650623783.502971,4923.000000,1650623783.502812,0.000000,0.000000,1.000000,0.000000,0.000000,0.000000,0.000000,0.707441,30.246679,-0.793794
1650623783.603009,4924.000000,1650623783.602851,0.000000,0.000000,1.000000,0.000000,0.000000,0.000000,0.000000,0.707040,30.246762,-0.809401
1650623783.703044,4925.000000,1650623783.702896,0.000000,0.000000,1.000000,0.000000,0.000000,0.000000,0.000000,0.710036,30.246856,-0.814753
1650623783.803002,4926.000000,1650623783.802847,0.000000,0.000000,1.000000,0.000000,0.000000,0.000000,0.000000,0.715136,30.246959,-0.831218
1650623783.902989,4927.000000,1650623783.902829,0.000000,0.000000,1.000000,0.000000,0.000000,0.000000,0.000000,0.718936,30.248161,-0.855093
1650623784.003157,4928.000000,1650623784.002882,0.000000,0.000000,1.000000,0.000000,0.000000,0.000000,0.000000,0.724761,30.247125,-0.882814
1650623784.103044,4929.000000,1650623784.102860,0.000000,0.000000,1.000000,0.000000,0.000000,0.000000,0.000000,0.733569,30.246158,-0.897244
1650623784.202975,4930.000000,1650623784.202830,0.000000,0.000000,1.000000,0.000000,0.000000,0.000000,0.000000,0.744078,30.243076,-0.890833
1650623784.302993,4931.000000,1650623784.302853,0.000000,0.000000,1.000000,0.000000,0.000000,0.000000,0.000000,0.752892,30.241276,-0.896694
1650623784.402940,4932.000000,1650623784.402809,0.000000,0.000000,1.000000,0.000000,0.000000,0.000000,0.000000,0.762257,30.239601,-0.911100
1650623784.503002,4933.000000,1650623784.502856,0.000000,0.000000,1.000000,0.000000,0.000000,0.000000,0.000000,0.768847,30.239138,-0.932879
1650623784.602983,4934.000000,1650623784.602820,0.000000,0.000000,1.000000,0.000000,0.000000,0.000000,0.000000,0.774977,30.239822,-0.959284
1650623784.703195,4935.000000,1650623784.703025,0.000000,0.000000,1.000000,0.000000,0.000000,0.000000,0.000000,0.780659,30.240495,-0.990894
1650623784.803201,4936.000000,1650623784.803027,0.000000,0.000000,1.000000,0.000000,0.000000,0.000000,0.000000,0.785907,30.240065,-1.021003
1650623784.903050,4937.000000,1650623784.902826,0.000000,0.000000,1.000000,0.000000,0.000000,0.000000,0.000000,0.791824,30.239681,-1.031081
1650623785.003017,4938.000000,1650623785.002841,0.000000,0.000000,1.000000,0.000000,0.000000,0.000000,0.000000,0.795092,30.239340,-1.043705
1650623785.103071,4939.000000,1650623785.102858,0.000000,0.000000,1.000000,0.000000,0.000000,0.000000,0.000000,0.799125,30.239041,-1.062793
1650623785.203035,4940.000000,1650623785.202887,0.000000,0.000000,1.000000,0.000000,0.000000,0.000000,0.000000,0.799516,30.238781,-1.080000
1650623785.303016,4941.000000,1650623785.302881,0.000000,0.000000,1.000000,0.000000,0.000000,0.000000,0.000000,0.800832,30.240738,-1.103451
1650623785.403027,4942.000000,1650623785.402892,0.000000,0.000000,1.000000,0.000000,0.000000,0.000000,0.000000,0.798665,30.243692,-1.073189
1650623785.502986,4943.000000,1650623785.502849,0.000000,0.000000,1.000000,0.000000,0.000000,0.000000,0.000000,0.796491,30.246490,-1.043866
1650623785.603547,4944.000000,1650623785.603343,0.000000,0.000000,1.000000,0.000000,0.000000,0.000000,0.000000,0.797595,30.248041,-1.031633
1650623785.702924,4945.000000,1650623785.702735,0.000000,0.000000,1.000000,0.000000,0.000000,0.000000,0.000000,0.795260,30.249498,-1.026961
1650623785.803046,4946.000000,1650623785.802877,0.000000,0.000000,1.000000,0.000000,0.000000,0.000000,0.000000,0.792958,30.249771,-1.024723
1650623785.903054,4947.000000,1650623785.902889,0.000000,0.000000,1.000000,0.000000,0.000000,0.000000,0.000000,0.791790,30.248926,-1.028864
1650623786.003134,4948.000000,1650623786.002967,0.000000,0.000000,1.000000,0.000000,0.000000,0.000000,0.000000,0.789522,30.248117,-1.038320
1650623786.103102,4949.000000,1650623786.102892,0.000000,0.000000,1.000000,0.000000,0.000000,0.000000,0.000000,0.789496,30.247345,-1.051255
1650623786.203040,4950.000000,1650623786.202876,0.000000,0.000000,1.000000,0.000000,0.000000,0.000000,0.000000,0.787232,30.247701,-1.065900
1650623786.303060,4951.000000,1650623786.302892,0.000000,0.000000,1.000000,0.000000,0.000000,0.000000,0.000000,0.783954,30.246943,-1.081365
1650623786.403071,4952.000000,1650623786.402861,0.000000,0.000000,1.000000,0.000000,0.000000,0.000000,0.000000,0.747017,30.257127,-1.045984
1650623786.503048,4953.000000,1650623786.502857,0.000000,0.000000,1.000000,0.000000,0.000000,0.000000,0.000000,0.719809,30.264542,-1.028812
1650623786.603047,4954.000000,1650623786.602890,0.000000,0.000000,1.000000,0.000000,0.000000,0.000000,0.000000,0.700789,30.270407,-1.008990
1650623786.702987,4955.000000,1650623786.702823,0.000000,0.000000,1.000000,0.000000,0.000000,0.000000,0.000000,0.688472,30.274791,-1.005211
1650623786.802974,4956.000000,1650623786.802824,0.000000,0.000000,1.000000,0.000000,0.000000,0.000000,0.000000,0.682519,30.277765,-1.007967
1650623786.902960,4957.000000,1650623786.902755,0.000000,0.000000,1.000000,0.000000,0.000000,0.000000,0.000000,0.679318,30.280492,-1.021026
1650623787.002982,4958.000000,1650623787.002825,0.000000,0.000000,1.000000,0.000000,0.000000,0.000000,0.000000,0.678713,30.280800,-1.018952
1650623787.103330,4959.000000,1650623787.103177,0.000000,0.000000,1.000000,0.000000,0.000000,0.000000,0.000000,0.679462,30.282098,-1.024945
1650623787.203091,4960.000000,1650623787.202858,0.000000,0.000000,1.000000,0.000000,0.000000,0.000000,0.000000,0.683655,30.283241,-1.040284
1650623787.303052,4961.000000,1650623787.302874,0.000000,0.000000,1.000000,0.000000,0.000000,0.000000,0.000000,0.669272,30.288600,-1.003281
1650623787.403009,4962.000000,1650623787.402833,0.000000,0.000000,1.000000,0.000000,0.000000,0.000000,0.000000,0.662438,30.292482,-0.983854
1650623787.502987,4963.000000,1650623787.502822,0.000000,0.000000,1.000000,0.000000,0.000000,0.000000,0.000000,0.661659,30.293870,-0.976492
1650623787.603018,4964.000000,1650623787.602843,0.000000,0.000000,1.000000,0.000000,0.000000,0.000000,0.000000,0.662235,30.295083,-0.980720
1650623787.703038,4965.000000,1650623787.702878,0.000000,0.000000,1.000000,0.000000,0.000000,0.000000,0.000000,0.665166,30.292860,-0.979936
1650623787.803006,4966.000000,1650623787.802840,0.000000,0.000000,1.000000,0.000000,0.000000,0.000000,0.000000,0.670303,30.290673,-0.987246
1650623787.903020,4967.000000,1650623787.902854,0.000000,0.000000,1.000000,0.000000,0.000000,0.000000,0.000000,0.676409,30.288531,-0.997473
1650623788.003258,4968.000000,1650623788.003091,0.000000,0.000000,1.000000,0.000000,0.000000,0.000000,0.000000,0.680131,30.285353,-0.988708
1650623788.103015,4969.000000,1650623788.102835,0.000000,0.000000,1.000000,0.000000,0.000000,0.000000,0.000000,0.684852,30.282299,-0.989153
1650623788.203038,4970.000000,1650623788.202857,0.000000,0.000000,1.000000,0.000000,0.000000,0.000000,0.000000,0.679592,30.282646,-0.960532
1650623788.302955,4971.000000,1650623788.302786,0.000000,0.000000,1.000000,0.000000,0.000000,0.000000,0.000000,0.676900,30.281848,-0.943582
1650623788.403036,4972.000000,1650623788.402859,0.000000,0.000000,1.000000,0.000000,0.000000,0.000000,0.000000,0.676638,30.281062,-0.943507
1650623788.503005,4973.000000,1650623788.502834,0.000000,0.000000,1.000000,0.000000,0.000000,0.000000,0.000000,0.680851,30.280293,-0.948332
1650623788.603031,4974.000000,1650623788.602849,0.000000,0.000000,1.000000,0.000000,0.000000,0.000000,0.000000,0.686004,30.278452,-0.957849
1650623788.703017,4975.000000,1650623788.702841,0.000000,0.000000,1.000000,0.000000,0.000000,0.000000,0.000000,0.693116,30.276696,-0.946852
1650623788.803331,4976.000000,1650623788.803078,0.000000,0.000000,1.000000,0.000000,0.000000,0.000000,0.000000,0.703144,30.273936,-0.929087
1650623788.903082,4977.000000,1650623788.902890,0.000000,0.000000,1.000000,0.000000,0.000000,0.000000,0.000000,0.711536,30.269145,-0.919372
1650623789.003054,4978.000000,1650623789.002858,0.000000,0.000000,1.000000,0.000000,0.000000,0.000000,0.000000,0.720533,30.264631,-0.914977
1650623789.103060,4979.000000,1650623789.102860,0.000000,0.000000,1.000000,0.000000,0.000000,0.000000,0.000000,0.730077,30.260391,-0.919722
1650623789.203039,4980.000000,1650623789.202842,0.000000,0.000000,1.000000,0.000000,0.000000,0.000000,0.000000,0.739020,30.258602,-0.933228
1650623789.303025,4981.000000,1650623789.302844,0.000000,0.000000,1.000000,0.000000,0.000000,0.000000,0.000000,0.746281,30.255865,-0.950276
1650623789.403012,4982.000000,1650623789.402834,0.000000,0.000000,1.000000,0.000000,0.000000,0.000000,0.000000,0.755207,30.252235,-0.965853
1650623789.503040,4983.000000,1650623789.502835,0.000000,0.000000,1.000000,0.000000,0.000000,0.000000,0.000000,0.763504,30.249952,-0.985638
1650623789.603327,4984.000000,1650623789.602926,0.000000,0.000000,1.000000,0.000000,0.000000,0.000000,0.000000,0.771189,30.247855,-1.008619
1650623789.703049,4985.000000,1650623789.702825,0.000000,0.000000,1.000000,0.000000,0.000000,0.000000,0.000000,0.779370,30.245937,-1.028181
1650623789.803144,4986.000000,1650623789.802923,0.000000,0.000000,1.000000,0.000000,0.000000,0.000000,0.000000,0.785825,30.244191,-1.033139
1650623789.903065,4987.000000,1650623789.902892,0.000000,0.000000,1.000000,0.000000,0.000000,0.000000,0.000000,0.790638,30.241519,-1.038594
1650623790.003026,4988.000000,1650623790.002838,0.000000,0.000000,1.000000,0.000000,0.000000,0.000000,0.000000,0.792804,30.239065,-1.029200
1650623790.103030,4989.000000,1650623790.102840,0.000000,0.000000,1.000000,0.000000,0.000000,0.000000,0.000000,0.795743,30.237913,-1.032189
1650623790.203092,4990.000000,1650623790.202903,0.000000,0.000000,1.000000,0.000000,0.000000,0.000000,0.000000,0.799417,30.235808,-1.037382
1650623790.303047,4991.000000,1650623790.302856,0.000000,0.000000,1.000000,0.000000,0.000000,0.000000,0.000000,0.802693,30.232807,-1.046300
1650623790.403238,4992.000000,1650623790.403047,0.000000,0.000000,1.000000,0.000000,0.000000,0.000000,0.000000,0.805596,30.231142,-1.056361
1650623790.503081,4993.000000,1650623790.502898,0.000000,0.000000,1.000000,0.000000,0.000000,0.000000,0.000000,0.809237,30.228562,-1.067507
1650623790.603051,4994.000000,1650623790.602859,0.000000,0.000000,1.000000,0.000000,0.000000,0.000000,0.000000,0.813576,30.227299,-1.061938
1650623790.703237,4995.000000,1650623790.703040,0.000000,0.000000,1.000000,0.000000,0.000000,0.000000,0.000000,0.817482,30.227281,-1.047603
1650623790.803102,4996.000000,1650623790.802922,0.000000,0.000000,1.000000,0.000000,0.000000,0.000000,0.000000,0.819888,30.227345,-1.044237
1650623790.903065,4997.000000,1650623790.902899,0.000000,0.000000,1.000000,0.000000,0.000000,0.000000,0.000000,0.824151,30.227482,-1.048183
1650623791.003058,4998.000000,1650623791.002893,0.000000,0.000000,1.000000,0.000000,0.000000,0.000000,0.000000,0.829075,30.226593,-1.055111
1650623791.103086,4999.000000,1650623791.102921,0.000000,0.000000,1.000000,0.000000,0.000000,0.000000,0.000000,0.835712,30.225822,-1.045537
1650623791.203313,5000.000000,1650623791.203081,0.000000,0.000000,1.000000,0.000000,0.000000,0.000000,0.000000,0.838508,30.227341,-1.049178
1650623791.303097,5001.000000,1650623791.302843,0.000000,0.000000,1.000000,0.000000,0.000000,0.000000,0.000000,0.842035,30.227748,-1.051791
1650623791.403073,5002.000000,1650623791.402856,0.000000,0.000000,1.000000,0.000000,0.000000,0.000000,0.000000,0.844074,30.228187,-1.056639
1650623791.503040,5003.000000,1650623791.502850,0.000000,0.000000,1.000000,0.000000,0.000000,0.000000,0.000000,0.845803,30.229743,-1.067662
1650623791.603023,5004.000000,1650623791.602841,0.000000,0.000000,1.000000,0.000000,0.000000,0.000000,0.000000,0.848334,30.230167,-1.062820
1650623791.703059,5005.000000,1650623791.702879,0.000000,0.000000,1.000000,0.000000,0.000000,0.000000,0.000000,0.850536,30.231696,-1.044378
1650623791.803051,5006.000000,1650623791.802880,0.000000,0.000000,1.000000,0.000000,0.000000,0.000000,0.000000,0.849161,30.233174,-1.037919
1650623791.903034,5007.000000,1650623791.902852,0.000000,0.000000,1.000000,0.000000,0.000000,0.000000,0.000000,0.847690,30.235687,-1.042166
1650623792.003783,5008.000000,1650623792.003481,0.000000,0.000000,1.000000,0.000000,0.000000,0.000000,0.000000,0.847232,30.238079,-1.054264
1650623792.103395,5009.000000,1650623792.103186,0.000000,0.000000,1.000000,0.000000,0.000000,0.000000,0.000000,0.845562,30.241439,-1.071458
1650623792.203096,5010.000000,1650623792.202849,0.000000,0.000000,1.000000,0.000000,0.000000,0.000000,0.000000,0.843851,30.243521,-1.091096
1650623792.303090,5011.000000,1650623792.302916,0.000000,0.000000,1.000000,0.000000,0.000000,0.000000,0.000000,0.843203,30.244390,-1.087244
1650623792.403036,5012.000000,1650623792.402875,0.000000,0.000000,1.000000,0.000000,0.000000,0.000000,0.000000,0.841390,30.246290,-1.091506
1650623792.503038,5013.000000,1650623792.502882,0.000000,0.000000,1.000000,0.000000,0.000000,0.000000,0.000000,0.840667,30.246978,-1.103551
1650623792.603092,5014.000000,1650623792.602926,0.000000,0.000000,1.000000,0.000000,0.000000,0.000000,0.000000,0.838803,30.248701,-1.119017
1650623792.703051,5015.000000,1650623792.702846,0.000000,0.000000,1.000000,0.000000,0.000000,0.000000,0.000000,0.835870,30.247036,-1.127263
1650623792.803708,5016.000000,1650623792.803483,0.000000,0.000000,1.000000,0.000000,0.000000,0.000000,0.000000,0.831941,30.247626,-1.139861
1650623792.903431,5017.000000,1650623792.903233,0.000000,0.000000,1.000000,0.000000,0.000000,0.000000,0.000000,0.829267,30.247076,-1.151783
1650623793.003427,5018.000000,1650623793.003217,0.000000,0.000000,1.000000,0.000000,0.000000,0.000000,0.000000,0.826700,30.246542,-1.163042
1650623793.103079,5019.000000,1650623793.102934,0.000000,0.000000,1.000000,0.000000,0.000000,0.000000,0.000000,0.823155,30.246025,-1.176074
1650623793.203030,5020.000000,1650623793.202844,0.000000,0.000000,1.000000,0.000000,0.000000,0.000000,0.000000,0.817607,30.246616,-1.186760
1650623793.303047,5021.000000,1650623793.302826,0.000000,0.000000,1.000000,0.000000,0.000000,0.000000,0.000000,0.816726,30.246074,-1.194379
1650623793.402965,5022.000000,1650623793.402800,0.000000,0.000000,1.000000,0.000000,0.000000,0.000000,0.000000,0.804995,30.251005,-1.145019
1650623793.503013,5023.000000,1650623793.502849,0.000000,0.000000,1.000000,0.000000,0.000000,0.000000,0.000000,0.796126,30.254553,-1.112844
1650623793.603313,5024.000000,1650623793.603008,0.000000,0.000000,1.000000,0.000000,0.000000,0.000000,0.000000,0.788898,30.256784,-1.094800
1650623793.703045,5025.000000,1650623793.702843,0.000000,0.000000,1.000000,0.000000,0.000000,0.000000,0.000000,0.784331,30.258855,-1.090354
1650623793.803062,5026.000000,1650623793.802856,0.000000,0.000000,1.000000,0.000000,0.000000,0.000000,0.000000,0.784471,30.258590,-1.071545
1650623793.903026,5027.000000,1650623793.902836,0.000000,0.000000,1.000000,0.000000,0.000000,0.000000,0.000000,0.785784,30.256118,-1.051889
1650623794.003031,5028.000000,1650623794.002847,0.000000,0.000000,1.000000,0.000000,0.000000,0.000000,0.000000,0.786015,30.254843,-1.041936
1650623794.103021,5029.000000,1650623794.102839,0.000000,0.000000,1.000000,0.000000,0.000000,0.000000,0.000000,0.785219,30.252522,-1.038893
1650623794.203062,5030.000000,1650623794.202882,0.000000,0.000000,1.000000,0.000000,0.000000,0.000000,0.000000,0.782359,30.251403,-1.046515
1650623794.303131,5031.000000,1650623794.302940,0.000000,0.000000,1.000000,0.000000,0.000000,0.000000,0.000000,0.779733,30.249244,-1.052260
1650623794.403353,5032.000000,1650623794.403150,0.000000,0.000000,1.000000,0.000000,0.000000,0.000000,0.000000,0.777332,30.249380,-1.065870
1650623794.503127,5033.000000,1650623794.502920,0.000000,0.000000,1.000000,0.000000,0.000000,0.000000,0.000000,0.776237,30.249505,-1.082164
1650623794.603133,5034.000000,1650623794.602923,0.000000,0.000000,1.000000,0.000000,0.000000,0.000000,0.000000,0.778557,30.248530,-1.101007
1650623794.703151,5035.000000,1650623794.702948,0.000000,0.000000,1.000000,0.000000,0.000000,0.000000,0.000000,0.781912,30.247607,-1.120652
1650623794.803117,5036.000000,1650623794.802918,0.000000,0.000000,1.000000,0.000000,0.000000,0.000000,0.000000,0.784050,30.247827,-1.143455
1650623794.903022,5037.000000,1650623794.902839,0.000000,0.000000,1.000000,0.000000,0.000000,0.000000,0.000000,0.785028,30.248036,-1.151510
1650623795.003042,5038.000000,1650623795.002837,0.000000,0.000000,1.000000,0.000000,0.000000,0.000000,0.000000,0.785993,30.249326,-1.163147
1650623795.103121,5039.000000,1650623795.102932,0.000000,0.000000,1.000000,0.000000,0.000000,0.000000,0.000000,0.784761,30.249452,-1.170948
1650623795.203648,5040.000000,1650623795.203373,0.000000,0.000000,1.000000,0.000000,0.000000,0.000000,0.000000,0.781452,30.250658,-1.183124
1650623795.303414,5041.000000,1650623795.303206,0.000000,0.000000,1.000000,0.000000,0.000000,0.000000,0.000000,0.778370,30.248520,-1.184164
1650623795.403406,5042.000000,1650623795.403189,0.000000,0.000000,1.000000,0.000000,0.000000,0.000000,0.000000,0.772236,30.246499,-1.180971
1650623795.503396,5043.000000,1650623795.503177,0.000000,0.000000,1.000000,0.000000,0.000000,0.000000,0.000000,0.770867,30.244594,-1.162438
1650623795.603414,5044.000000,1650623795.603148,0.000000,0.000000,1.000000,0.000000,0.000000,0.000000,0.000000,0.770732,30.242805,-1.154222
1650623795.703339,5045.000000,1650623795.703143,0.000000,0.000000,1.000000,0.000000,0.000000,0.000000,0.000000,0.771761,30.241130,-1.137377
1650623795.803398,5046.000000,1650623795.803210,0.000000,0.000000,1.000000,0.000000,0.000000,0.000000,0.000000,0.772792,30.239569,-1.130023
1650623795.903401,5047.000000,1650623795.903177,0.000000,0.000000,1.000000,0.000000,0.000000,0.000000,0.000000,0.773819,30.239207,-1.131795
1650623796.003633,5048.000000,1650623796.003367,0.000000,0.000000,1.000000,0.000000,0.000000,0.000000,0.000000,0.773746,30.237800,-1.134259
1650623796.103435,5049.000000,1650623796.103169,0.000000,0.000000,1.000000,0.000000,0.000000,0.000000,0.000000,0.772629,30.236497,-1.136577
1650623796.203410,5050.000000,1650623796.203155,0.000000,0.000000,1.000000,0.000000,0.000000,0.000000,0.000000,0.773799,30.235295,-1.139560
1650623796.303437,5051.000000,1650623796.303225,0.000000,0.000000,1.000000,0.000000,0.000000,0.000000,0.000000,0.774943,30.233100,-1.142371
1650623796.403413,5052.000000,1650623796.403200,0.000000,0.000000,1.000000,0.000000,0.000000,0.000000,0.000000,0.776057,30.232153,-1.149855
1650623796.503364,5053.000000,1650623796.503153,0.000000,0.000000,1.000000,0.000000,0.000000,0.000000,0.000000,0.778227,30.231296,-1.156166
1650623796.603377,5054.000000,1650623796.603189,0.000000,0.000000,1.000000,0.000000,0.000000,0.000000,0.000000,0.781389,30.229433,-1.156506
1650623796.703363,5055.000000,1650623796.703150,0.000000,0.000000,1.000000,0.000000,0.000000,0.000000,0.000000,0.783295,30.228805,-1.155149
1650623796.803587,5056.000000,1650623796.803349,0.000000,0.000000,1.000000,0.000000,0.000000,0.000000,0.000000,0.784008,30.228252,-1.157815
1650623796.903410,5057.000000,1650623796.903181,0.000000,0.000000,1.000000,0.000000,0.000000,0.000000,0.000000,0.782500,30.228862,-1.165146
1650623797.003384,5058.000000,1650623797.003184,0.000000,0.000000,1.000000,0.000000,0.000000,0.000000,0.000000,0.779988,30.229474,-1.172912
1650623797.103691,5059.000000,1650623797.103485,0.000000,0.000000,1.000000,0.000000,0.000000,0.000000,0.000000,0.779805,30.230087,-1.170602
1650623797.203414,5060.000000,1650623797.203168,0.000000,0.000000,1.000000,0.000000,0.000000,0.000000,0.000000,0.778552,30.231785,-1.165080
1650623797.303473,5061.000000,1650623797.303207,0.000000,0.000000,1.000000,0.000000,0.000000,0.000000,0.000000,0.779563,30.235593,-1.162135
1650623797.403337,5062.000000,1650623797.403174,0.000000,0.000000,1.000000,0.000000,0.000000,0.000000,0.000000,0.781620,30.239203,-1.164896
1650623797.503345,5063.000000,1650623797.503171,0.000000,0.000000,1.000000,0.000000,0.000000,0.000000,0.000000,0.782478,30.244794,-1.165872
1650623797.603723,5064.000000,1650623797.603365,0.000000,0.000000,1.000000,0.000000,0.000000,0.000000,0.000000,0.782199,30.248969,-1.160299
1650623797.703415,5065.000000,1650623797.703199,0.000000,0.000000,1.000000,0.000000,0.000000,0.000000,0.000000,0.784117,30.250704,-1.138773
1650623797.803503,5066.000000,1650623797.803252,0.000000,0.000000,1.000000,0.000000,0.000000,0.000000,0.000000,0.785927,30.251217,-1.125364
1650623797.903427,5067.000000,1650623797.903230,0.000000,0.000000,1.000000,0.000000,0.000000,0.000000,0.000000,0.790898,30.251667,-1.122994
1650623798.003417,5068.000000,1650623798.003215,0.000000,0.000000,1.000000,0.000000,0.000000,0.000000,0.000000,0.793393,30.253147,-1.127189
1650623798.103387,5069.000000,1650623798.103218,0.000000,0.000000,1.000000,0.000000,0.000000,0.000000,0.000000,0.795721,30.253419,-1.134450
1650623798.203347,5070.000000,1650623798.203183,0.000000,0.000000,1.000000,0.000000,0.000000,0.000000,0.000000,0.773896,30.260182,-1.102706
1650623798.303408,5071.000000,1650623798.303197,0.000000,0.000000,1.000000,0.000000,0.000000,0.000000,0.000000,0.757655,30.265431,-1.086002
1650623798.403221,5072.000000,1650623798.403056,0.000000,0.000000,1.000000,0.000000,0.000000,0.000000,0.000000,0.746743,30.270325,-1.064403
1650623798.503041,5073.000000,1650623798.502859,0.000000,0.000000,1.000000,0.000000,0.000000,0.000000,0.000000,0.738719,30.273782,-1.055882
1650623798.603106,5074.000000,1650623798.602900,0.000000,0.000000,1.000000,0.000000,0.000000,0.000000,0.000000,0.734534,30.274783,-1.044599
1650623798.703027,5075.000000,1650623798.702838,0.000000,0.000000,1.000000,0.000000,0.000000,0.000000,0.000000,0.725263,30.277825,-0.993583
1650623798.803083,5076.000000,1650623798.802905,0.000000,0.000000,1.000000,0.000000,0.000000,0.000000,0.000000,0.719925,30.278432,-0.960967
1650623798.903065,5077.000000,1650623798.902887,0.000000,0.000000,1.000000,0.000000,0.000000,0.000000,0.000000,0.717225,30.277829,-0.939605
1650623799.003026,5078.000000,1650623799.002844,0.000000,0.000000,1.000000,0.000000,0.000000,0.000000,0.000000,0.718108,30.277180,-0.932294
1650623799.103064,5079.000000,1650623799.102886,0.000000,0.000000,1.000000,0.000000,0.000000,0.000000,0.000000,0.721276,30.274312,-0.926371
1650623799.203482,5080.000000,1650623799.203058,0.000000,0.000000,1.000000,0.000000,0.000000,0.000000,0.000000,0.726587,30.271542,-0.929037
1650623799.303123,5081.000000,1650623799.302923,0.000000,0.000000,1.000000,0.000000,0.000000,0.000000,0.000000,0.732807,30.267784,-0.931057
1650623799.403141,5082.000000,1650623799.402918,0.000000,0.000000,1.000000,0.000000,0.000000,0.000000,0.000000,0.736591,30.265289,-0.939702
1650623799.503030,5083.000000,1650623799.502842,0.000000,0.000000,1.000000,0.000000,0.000000,0.000000,0.000000,0.739146,30.262907,-0.943388
1650623799.603023,5084.000000,1650623799.602851,0.000000,0.000000,1.000000,0.000000,0.000000,0.000000,0.000000,0.741616,30.260640,-0.951977
1650623799.703035,5085.000000,1650623799.702871,0.000000,0.000000,1.000000,0.000000,0.000000,0.000000,0.000000,0.743995,30.258491,-0.965247
1650623799.803038,5086.000000,1650623799.802862,0.000000,0.000000,1.000000,0.000000,0.000000,0.000000,0.000000,0.744098,30.255369,-0.976529
1650623799.903135,5087.000000,1650623799.902996,0.000000,0.000000,1.000000,0.000000,0.000000,0.000000,0.000000,0.746408,30.252428,-0.989908
1650623800.003318,5088.000000,1650623800.003110,0.000000,0.000000,1.000000,0.000000,0.000000,0.000000,0.000000,0.748614,30.249667,-0.998820
1650623800.103005,5089.000000,1650623800.102803,0.000000,0.000000,1.000000,0.000000,0.000000,0.000000,0.000000,0.749624,30.247083,-1.011491
1650623800.203098,5090.000000,1650623800.202926,0.000000,0.000000,1.000000,0.000000,0.000000,0.000000,0.000000,0.753860,30.245763,-1.030969
1650623800.303064,5091.000000,1650623800.302898,0.000000,0.000000,1.000000,0.000000,0.000000,0.000000,0.000000,0.756771,30.244551,-1.049686
1650623800.403052,5092.000000,1650623800.402862,0.000000,0.000000,1.000000,0.000000,0.000000,0.000000,0.000000,0.760601,30.242353,-1.061190
1650623800.503134,5093.000000,1650623800.502957,0.000000,0.000000,1.000000,0.000000,0.000000,0.000000,0.000000,0.765289,30.240316,-1.071396
1650623800.603057,5094.000000,1650623800.602888,0.000000,0.000000,1.000000,0.000000,0.000000,0.000000,0.000000,0.770775,30.238436,-1.084372
1650623800.703228,5095.000000,1650623800.703025,0.000000,0.000000,1.000000,0.000000,0.000000,0.000000,0.000000,0.775909,30.237799,-1.093537
1650623800.803291,5096.000000,1650623800.803092,0.000000,0.000000,1.000000,0.000000,0.000000,0.000000,0.000000,0.779608,30.236155,-1.103061
1650623800.903084,5097.000000,1650623800.902880,0.000000,0.000000,1.000000,0.000000,0.000000,0.000000,0.000000,0.781941,30.236832,-1.117758
1650623801.003072,5098.000000,1650623801.002888,0.000000,0.000000,1.000000,0.000000,0.000000,0.000000,0.000000,0.785161,30.237518,-1.121267
1650623801.103077,5099.000000,1650623801.102896,0.000000,0.000000,1.000000,0.000000,0.000000,0.000000,0.000000,0.790305,30.237117,-1.131782
1650623801.203113,5100.000000,1650623801.202942,0.000000,0.000000,1.000000,0.000000,0.000000,0.000000,0.000000,0.793983,30.236778,-1.143360
1650623801.303058,5101.000000,1650623801.302905,0.000000,0.000000,1.000000,0.000000,0.000000,0.000000,0.000000,0.798452,30.235406,-1.154332
1650623801.403114,5102.000000,1650623801.402926,0.000000,0.000000,1.000000,0.000000,0.000000,0.000000,0.000000,0.800388,30.235240,-1.151806
1650623801.503015,5103.000000,1650623801.502820,0.000000,0.000000,1.000000,0.000000,0.000000,0.000000,0.000000,0.803202,30.234032,-1.133919
1650623801.603366,5104.000000,1650623801.603184,0.000000,0.000000,1.000000,0.000000,0.000000,0.000000,0.000000,0.804660,30.234021,-1.126324
1650623801.703081,5105.000000,1650623801.702912,0.000000,0.000000,1.000000,0.000000,0.000000,0.000000,0.000000,0.807021,30.234048,-1.130237
1650623801.803062,5106.000000,1650623801.802872,0.000000,0.000000,1.000000,0.000000,0.000000,0.000000,0.000000,0.808053,30.235200,-1.141161
1650623801.903023,5107.000000,1650623801.902855,0.000000,0.000000,1.000000,0.000000,0.000000,0.000000,0.000000,0.811102,30.235229,-1.154764
1650623802.003089,5108.000000,1650623802.002934,0.000000,0.000000,1.000000,0.000000,0.000000,0.000000,0.000000,0.813875,30.236376,-1.173340
1650623802.103433,5109.000000,1650623802.103251,0.000000,0.000000,1.000000,0.000000,0.000000,0.000000,0.000000,0.814203,30.238573,-1.195049
1650623802.203010,5110.000000,1650623802.202830,0.000000,0.000000,1.000000,0.000000,0.000000,0.000000,0.000000,0.813316,30.240666,-1.214895
1650623802.303078,5111.000000,1650623802.302854,0.000000,0.000000,1.000000,0.000000,0.000000,0.000000,0.000000,0.812379,30.241562,-1.231315
1650623802.403561,5112.000000,1650623802.403184,0.000000,0.000000,1.000000,0.000000,0.000000,0.000000,0.000000,0.810312,30.241323,-1.246041
1650623802.503075,5113.000000,1650623802.502845,0.000000,0.000000,1.000000,0.000000,0.000000,0.000000,0.000000,0.810461,30.242192,-1.261545
1650623802.603094,5114.000000,1650623802.602887,0.000000,0.000000,1.000000,0.000000,0.000000,0.000000,0.000000,0.810528,30.243016,-1.279392
1650623802.703021,5115.000000,1650623802.702837,0.000000,0.000000,1.000000,0.000000,0.000000,0.000000,0.000000,0.811612,30.243793,-1.279306
1650623802.803056,5116.000000,1650623802.802888,0.000000,0.000000,1.000000,0.000000,0.000000,0.000000,0.000000,0.813658,30.243435,-1.278153
1650623802.903079,5117.000000,1650623802.902839,0.000000,0.000000,1.000000,0.000000,0.000000,0.000000,0.000000,0.810069,30.242003,-1.271954
1650623803.003101,5118.000000,1650623803.002916,0.000000,0.000000,1.000000,0.000000,0.000000,0.000000,0.000000,0.806619,30.240652,-1.269001
1650623803.103101,5119.000000,1650623803.102925,0.000000,0.000000,1.000000,0.000000,0.000000,0.000000,0.000000,0.802224,30.240472,-1.271595
1650623803.203321,5120.000000,1650623803.203113,0.000000,0.000000,1.000000,0.000000,0.000000,0.000000,0.000000,0.798043,30.241399,-1.277905
1650623803.303100,5121.000000,1650623803.302898,0.000000,0.000000,1.000000,0.000000,0.000000,0.000000,0.000000,0.795169,30.240098,-1.274069
1650623803.403090,5122.000000,1650623803.402873,0.000000,0.000000,1.000000,0.000000,0.000000,0.000000,0.000000,0.794630,30.238876,-1.252448
1650623803.503021,5123.000000,1650623803.502838,0.000000,0.000000,1.000000,0.000000,0.000000,0.000000,0.000000,0.794121,30.238821,-1.237997
1650623803.603042,5124.000000,1650623803.602855,0.000000,0.000000,1.000000,0.000000,0.000000,0.000000,0.000000,0.794732,30.238779,-1.229652
1650623803.703001,5125.000000,1650623803.702818,0.000000,0.000000,1.000000,0.000000,0.000000,0.000000,0.000000,0.787677,30.240931,-1.179605
1650623803.803039,5126.000000,1650623803.802862,0.000000,0.000000,1.000000,0.000000,0.000000,0.000000,0.000000,0.782119,30.244058,-1.147690
1650623803.903049,5127.000000,1650623803.902877,0.000000,0.000000,1.000000,0.000000,0.000000,0.000000,0.000000,0.776902,30.245918,-1.109037
1650623804.003646,5128.000000,1650623804.003392,0.000000,0.000000,1.000000,0.000000,0.000000,0.000000,0.000000,0.775292,30.246572,-1.065596
1650623804.103066,5129.000000,1650623804.102842,0.000000,0.000000,1.000000,0.000000,0.000000,0.000000,0.000000,0.774915,30.248268,-1.042629
1650623804.203063,5130.000000,1650623804.202875,0.000000,0.000000,1.000000,0.000000,0.000000,0.000000,0.000000,0.773521,30.249852,-1.028857
1650623804.303042,5131.000000,1650623804.302884,0.000000,0.000000,1.000000,0.000000,0.000000,0.000000,0.000000,0.734093,30.250237,-0.969086
1650623804.403080,5132.000000,1650623804.402922,0.000000,0.000000,1.000000,0.000000,0.000000,0.000000,0.000000,0.706801,30.250579,-0.931392
1650623804.503122,5133.000000,1650623804.502957,0.000000,0.000000,1.000000,0.000000,0.000000,0.000000,0.000000,0.689970,30.250879,-0.910097
1650623804.603032,5134.000000,1650623804.602875,0.000000,0.000000,1.000000,0.000000,0.000000,0.000000,0.000000,0.650357,30.251142,-0.844076
1650623804.703061,5135.000000,1650623804.702885,0.000000,0.000000,1.000000,0.000000,0.000000,0.000000,0.000000,0.627473,30.250278,-0.802970
1650623804.803268,5136.000000,1650623804.802992,0.000000,0.000000,1.000000,0.000000,0.000000,0.000000,0.000000,0.612825,30.248353,-0.772922
1650623804.903064,5137.000000,1650623804.902889,0.000000,0.000000,1.000000,0.000000,0.000000,0.000000,0.000000,0.589629,30.246523,-0.726094
1650623805.003019,5138.000000,1650623805.002838,0.000000,0.000000,1.000000,0.000000,0.000000,0.000000,0.000000,0.575841,30.243698,-0.696284
1650623805.103043,5139.000000,1650623805.102859,0.000000,0.000000,1.000000,0.000000,0.000000,0.000000,0.000000,0.570964,30.242122,-0.683637
1650623805.203051,5140.000000,1650623805.202893,0.000000,0.000000,1.000000,0.000000,0.000000,0.000000,0.000000,0.538515,30.240642,-0.629391
1650623805.303057,5141.000000,1650623805.302843,0.000000,0.000000,1.000000,0.000000,0.000000,0.000000,0.000000,0.518231,30.240346,-0.602224
1650623805.402995,5142.000000,1650623805.402816,0.000000,0.000000,1.000000,0.000000,0.000000,0.000000,0.000000,0.506208,30.240081,-0.594609
1650623805.503251,5143.000000,1650623805.503033,0.000000,0.000000,1.000000,0.000000,0.000000,0.000000,0.000000,0.482373,30.239844,-0.542839
1650623805.603321,5144.000000,1650623805.603100,0.000000,0.000000,1.000000,0.000000,0.000000,0.000000,0.000000,0.472487,30.237453,-0.507621
1650623805.703088,5145.000000,1650623805.702921,0.000000,0.000000,1.000000,0.000000,0.000000,0.000000,0.000000,0.471422,30.236303,-0.494769
1650623805.803135,5146.000000,1650623805.802937,0.000000,0.000000,1.000000,0.000000,0.000000,0.000000,0.000000,0.456855,30.236330,-0.442079
1650623805.903113,5147.000000,1650623805.902920,0.000000,0.000000,1.000000,0.000000,0.000000,0.000000,0.000000,0.452431,30.236376,-0.416536
1650623806.003128,5148.000000,1650623806.002934,0.000000,0.000000,1.000000,0.000000,0.000000,0.000000,0.000000,0.454303,30.236441,-0.410604
1650623806.103111,5149.000000,1650623806.102922,0.000000,0.000000,1.000000,0.000000,0.000000,0.000000,0.000000,0.426106,30.237611,-0.366208
1650623806.203083,5150.000000,1650623806.202899,0.000000,0.000000,1.000000,0.000000,0.000000,0.000000,0.000000,0.414238,30.237641,-0.344618
1650623806.303107,5151.000000,1650623806.302918,0.000000,0.000000,1.000000,0.000000,0.000000,0.000000,0.000000,0.413452,30.238773,-0.327173
1650623806.403166,5152.000000,1650623806.402982,0.000000,0.000000,1.000000,0.000000,0.000000,0.000000,0.000000,0.388217,30.238762,-0.279021
1650623806.503089,5153.000000,1650623806.502884,0.000000,0.000000,1.000000,0.000000,0.000000,0.000000,0.000000,0.376984,30.239850,-0.265963
1650623806.603098,5154.000000,1650623806.602903,0.000000,0.000000,1.000000,0.000000,0.000000,0.000000,0.000000,0.378989,30.240884,-0.275279
1650623806.703142,5155.000000,1650623806.702940,0.000000,0.000000,1.000000,0.000000,0.000000,0.000000,0.000000,0.354214,30.240771,-0.247949
1650623806.803053,5156.000000,1650623806.802881,0.000000,0.000000,1.000000,0.000000,0.000000,0.000000,0.000000,0.346688,30.240666,-0.247559
1650623806.903069,5157.000000,1650623806.902914,0.000000,0.000000,1.000000,0.000000,0.000000,0.000000,0.000000,0.352185,30.241659,-0.268956
1650623807.003109,5158.000000,1650623807.002920,0.000000,0.000000,1.000000,0.000000,0.000000,0.000000,0.000000,0.365584,30.241506,-0.298289
1650623807.103426,5159.000000,1650623807.103210,0.000000,0.000000,1.000000,0.000000,0.000000,0.000000,0.000000,0.385287,30.241360,-0.339996
1650623807.203339,5160.000000,1650623807.203107,0.000000,0.000000,1.000000,0.000000,0.000000,0.000000,0.000000,0.408680,30.242311,-0.387835
1650623807.303113,5161.000000,1650623807.302907,0.000000,0.000000,1.000000,0.000000,0.000000,0.000000,0.000000,0.436556,30.242117,-0.435003
1650623807.403097,5162.000000,1650623807.402915,0.000000,0.000000,1.000000,0.000000,0.000000,0.000000,0.000000,0.466384,30.243021,-0.487073
1650623807.503135,5163.000000,1650623807.502926,0.000000,0.000000,1.000000,0.000000,0.000000,0.000000,0.000000,0.494682,30.243871,-0.544551
1650623807.603063,5164.000000,1650623807.602894,0.000000,0.000000,1.000000,0.000000,0.000000,0.000000,0.000000,0.522528,30.245757,-0.602272
1650623807.703033,5165.000000,1650623807.702894,0.000000,0.000000,1.000000,0.000000,0.000000,0.000000,0.000000,0.550950,30.247526,-0.661736
1650623807.803074,5166.000000,1650623807.802925,0.000000,0.000000,1.000000,0.000000,0.000000,0.000000,0.000000,0.583103,30.249182,-0.713092
1650623807.903029,5167.000000,1650623807.902876,0.000000,0.000000,1.000000,0.000000,0.000000,0.000000,0.000000,0.609970,30.250725,-0.763035
1650623808.003375,5168.000000,1650623808.003085,0.000000,0.000000,1.000000,0.000000,0.000000,0.000000,0.000000,0.636131,30.251067,-0.802672
1650623808.103092,5169.000000,1650623808.102919,0.000000,0.000000,1.000000,0.000000,0.000000,0.000000,0.000000,0.661561,30.251366,-0.845264
1650623808.203176,5170.000000,1650623808.202925,0.000000,0.000000,1.000000,0.000000,0.000000,0.000000,0.000000,0.685152,30.251623,-0.889019
1650623808.303101,5171.000000,1650623808.302924,0.000000,0.000000,1.000000,0.000000,0.000000,0.000000,0.000000,0.706956,30.251842,-0.930605
1650623808.403073,5172.000000,1650623808.402902,0.000000,0.000000,1.000000,0.000000,0.000000,0.000000,0.000000,0.724850,30.252026,-0.973282
1650623808.503073,5173.000000,1650623808.502888,0.000000,0.000000,1.000000,0.000000,0.000000,0.000000,0.000000,0.741204,30.252177,-1.015339
1650623808.603019,5174.000000,1650623808.602847,0.000000,0.000000,1.000000,0.000000,0.000000,0.000000,0.000000,0.746267,30.255569,-0.996267
1650623808.703034,5175.000000,1650623808.702870,0.000000,0.000000,1.000000,0.000000,0.000000,0.000000,0.000000,0.751578,30.257654,-0.971006
1650623808.803287,5176.000000,1650623808.803016,0.000000,0.000000,1.000000,0.000000,0.000000,0.000000,0.000000,0.757138,30.258499,-0.960838
1650623808.903069,5177.000000,1650623808.902856,0.000000,0.000000,1.000000,0.000000,0.000000,0.000000,0.000000,0.765130,30.259262,-0.965996
1650623809.003074,5178.000000,1650623809.002900,0.000000,0.000000,1.000000,0.000000,0.000000,0.000000,0.000000,0.773245,30.258856,-0.977806
1650623809.103017,5179.000000,1650623809.102842,0.000000,0.000000,1.000000,0.000000,0.000000,0.000000,0.000000,0.772760,30.261709,-0.937932
1650623809.202943,5180.000000,1650623809.202773,0.000000,0.000000,1.000000,0.000000,0.000000,0.000000,0.000000,0.761993,30.268728,-0.859833
1650623809.303064,5181.000000,1650623809.302907,0.000000,0.000000,1.000000,0.000000,0.000000,0.000000,0.000000,0.757923,30.272033,-0.808903
1650623809.403069,5182.000000,1650623809.402906,0.000000,0.000000,1.000000,0.000000,0.000000,0.000000,0.000000,0.759133,30.274000,-0.781724
1650623809.503086,5183.000000,1650623809.502915,0.000000,0.000000,1.000000,0.000000,0.000000,0.000000,0.000000,0.762082,30.275791,-0.776579
1650623809.603417,5184.000000,1650623809.603215,0.000000,0.000000,1.000000,0.000000,0.000000,0.000000,0.000000,0.765598,30.277413,-0.787753
1650623809.703078,5185.000000,1650623809.702878,0.000000,0.000000,1.000000,0.000000,0.000000,0.000000,0.000000,0.770751,30.277784,-0.808924
1650623809.803102,5186.000000,1650623809.802897,0.000000,0.000000,1.000000,0.000000,0.000000,0.000000,0.000000,0.777454,30.275884,-0.829171
1650623809.903099,5187.000000,1650623809.902892,0.000000,0.000000,1.000000,0.000000,0.000000,0.000000,0.000000,0.783443,30.275120,-0.858177
1650623810.003003,5188.000000,1650623810.002826,0.000000,0.000000,1.000000,0.000000,0.000000,0.000000,0.000000,0.789848,30.273253,-0.882642
1650623810.102971,5189.000000,1650623810.102829,0.000000,0.000000,1.000000,0.000000,0.000000,0.000000,0.000000,0.794465,30.270353,-0.903518
1650623810.202993,5190.000000,1650623810.202824,0.000000,0.000000,1.000000,0.000000,0.000000,0.000000,0.000000,0.799577,30.267578,-0.903989
1650623810.302995,5191.000000,1650623810.302843,0.000000,0.000000,1.000000,0.000000,0.000000,0.000000,0.000000,0.802982,30.266023,-0.917142
1650623810.403248,5192.000000,1650623810.403049,0.000000,0.000000,1.000000,0.000000,0.000000,0.000000,0.000000,0.804780,30.262355,-0.925516
1650623810.503032,5193.000000,1650623810.502843,0.000000,0.000000,1.000000,0.000000,0.000000,0.000000,0.000000,0.805073,30.259975,-0.943010
1650623810.603040,5194.000000,1650623810.602848,0.000000,0.000000,1.000000,0.000000,0.000000,0.000000,0.000000,0.806141,30.256637,-0.961976
1650623810.703080,5195.000000,1650623810.702915,0.000000,0.000000,1.000000,0.000000,0.000000,0.000000,0.000000,0.804684,30.255677,-0.987173
1650623810.803083,5196.000000,1650623810.802931,0.000000,0.000000,1.000000,0.000000,0.000000,0.000000,0.000000,0.804133,30.253696,-1.006221
1650623810.903078,5197.000000,1650623810.902923,0.000000,0.000000,1.000000,0.000000,0.000000,0.000000,0.000000,0.805544,30.250754,-1.008863
1650623811.003115,5198.000000,1650623811.002964,0.000000,0.000000,1.000000,0.000000,0.000000,0.000000,0.000000,0.808822,30.248002,-1.015931
1650623811.103037,5199.000000,1650623811.102878,0.000000,0.000000,1.000000,0.000000,0.000000,0.000000,0.000000,0.809506,30.245437,-1.026442
1650623811.203677,5200.000000,1650623811.203434,0.000000,0.000000,1.000000,0.000000,0.000000,0.000000,0.000000,0.811020,30.244144,-1.043477
1650623811.303471,5201.000000,1650623811.303229,0.000000,0.000000,1.000000,0.000000,0.000000,0.000000,0.000000,0.811146,30.241877,-1.057079
1650623811.403462,5202.000000,1650623811.403224,0.000000,0.000000,1.000000,0.000000,0.000000,0.000000,0.000000,0.813244,30.239782,-1.072218
1650623811.503407,5203.000000,1650623811.503200,0.000000,0.000000,1.000000,0.000000,0.000000,0.000000,0.000000,0.816119,30.238944,-1.093657
1650623811.603404,5204.000000,1650623811.603210,0.000000,0.000000,1.000000,0.000000,0.000000,0.000000,0.000000,0.815372,30.238204,-1.117090
1650623811.703467,5205.000000,1650623811.703254,0.000000,0.000000,1.000000,0.000000,0.000000,0.000000,0.000000,0.814483,30.237556,-1.139184
1650623811.803437,5206.000000,1650623811.803210,0.000000,0.000000,1.000000,0.000000,0.000000,0.000000,0.000000,0.811294,30.236994,-1.156749
1650623811.903429,5207.000000,1650623811.903238,0.000000,0.000000,1.000000,0.000000,0.000000,0.000000,0.000000,0.808129,30.236512,-1.171566
1650623812.003584,5208.000000,1650623812.003389,0.000000,0.000000,1.000000,0.000000,0.000000,0.000000,0.000000,0.807188,30.236105,-1.185353
1650623812.103716,5209.000000,1650623812.103520,0.000000,0.000000,1.000000,0.000000,0.000000,0.000000,0.000000,0.768014,30.235767,-1.147338
1650623812.203449,5210.000000,1650623812.203226,0.000000,0.000000,1.000000,0.000000,0.000000,0.000000,0.000000,0.740799,30.236582,-1.125016
1650623812.303450,5211.000000,1650623812.303223,0.000000,0.000000,1.000000,0.000000,0.000000,0.000000,0.000000,0.721704,30.237393,-1.111356
1650623812.403068,5212.000000,1650623812.402910,0.000000,0.000000,1.000000,0.000000,0.000000,0.000000,0.000000,0.673268,30.239286,-1.049591
1650623812.503066,5213.000000,1650623812.502912,0.000000,0.000000,1.000000,0.000000,0.000000,0.000000,0.000000,0.640850,30.240012,-1.013552
1650623812.603148,5214.000000,1650623812.602952,0.000000,0.000000,1.000000,0.000000,0.000000,0.000000,0.000000,0.620390,30.240721,-0.990172
1650623812.703092,5215.000000,1650623812.702916,0.000000,0.000000,1.000000,0.000000,0.000000,0.000000,0.000000,0.573116,30.241412,-0.922533
1650623812.803514,5216.000000,1650623812.803298,0.000000,0.000000,1.000000,0.000000,0.000000,0.000000,0.000000,0.543139,30.243172,-0.881889
1650623812.903095,5217.000000,1650623812.902921,0.000000,0.000000,1.000000,0.000000,0.000000,0.000000,0.000000,0.527398,30.244846,-0.863993
1650623813.003048,5218.000000,1650623813.002888,0.000000,0.000000,1.000000,0.000000,0.000000,0.000000,0.000000,0.484788,30.245342,-0.825209
1650623813.103074,5219.000000,1650623813.102909,0.000000,0.000000,1.000000,0.000000,0.000000,0.000000,0.000000,0.460487,30.245813,-0.809988
1650623813.203064,5220.000000,1650623813.202901,0.000000,0.000000,1.000000,0.000000,0.000000,0.000000,0.000000,0.451350,30.245170,-0.809332
1650623813.303145,5221.000000,1650623813.302985,0.000000,0.000000,1.000000,0.000000,0.000000,0.000000,0.000000,0.412922,30.244563,-0.761353
1650623813.403033,5222.000000,1650623813.402849,0.000000,0.000000,1.000000,0.000000,0.000000,0.000000,0.000000,0.393763,30.245085,-0.713192
1650623813.503103,5223.000000,1650623813.502948,0.000000,0.000000,1.000000,0.000000,0.000000,0.000000,0.000000,0.388475,30.244490,-0.687507
1650623813.603257,5224.000000,1650623813.603074,0.000000,0.000000,1.000000,0.000000,0.000000,0.000000,0.000000,0.351565,30.243932,-0.625353
1650623813.703058,5225.000000,1650623813.702877,0.000000,0.000000,1.000000,0.000000,0.000000,0.000000,0.000000,0.336073,30.243410,-0.590388
1650623813.803081,5226.000000,1650623813.802909,0.000000,0.000000,1.000000,0.000000,0.000000,0.000000,0.000000,0.332109,30.244013,-0.579941
1650623813.903093,5227.000000,1650623813.902924,0.000000,0.000000,1.000000,0.000000,0.000000,0.000000,0.000000,0.318289,30.243499,-0.545437
1650623814.003081,5228.000000,1650623814.002927,0.000000,0.000000,1.000000,0.000000,0.000000,0.000000,0.000000,0.319135,30.243018,-0.529014
1650623814.103070,5229.000000,1650623814.102913,0.000000,0.000000,1.000000,0.000000,0.000000,0.000000,0.000000,0.332706,30.242571,-0.513816
1650623814.203054,5230.000000,1650623814.202895,0.000000,0.000000,1.000000,0.000000,0.000000,0.000000,0.000000,0.323329,30.242156,-0.475604
1650623814.303097,5231.000000,1650623814.302933,0.000000,0.000000,1.000000,0.000000,0.000000,0.000000,0.000000,0.327137,30.242863,-0.464539
1650623814.403462,5232.000000,1650623814.403296,0.000000,0.000000,1.000000,0.000000,0.000000,0.000000,0.000000,0.342270,30.242448,-0.466617
1650623814.503097,5233.000000,1650623814.502926,0.000000,0.000000,1.000000,0.000000,0.000000,0.000000,0.000000,0.330953,30.243153,-0.428054
1650623814.603115,5234.000000,1650623814.602935,0.000000,0.000000,1.000000,0.000000,0.000000,0.000000,0.000000,0.332796,30.242734,-0.410207
1650623814.703111,5235.000000,1650623814.702933,0.000000,0.000000,1.000000,0.000000,0.000000,0.000000,0.000000,0.347044,30.240163,-0.388052
1650623814.802994,5236.000000,1650623814.802821,0.000000,0.000000,1.000000,0.000000,0.000000,0.000000,0.000000,0.328241,30.238835,-0.335160
1650623814.903095,5237.000000,1650623814.902931,0.000000,0.000000,1.000000,0.000000,0.000000,0.000000,0.000000,0.327288,30.237597,-0.312513
1650623815.003101,5238.000000,1650623815.002928,0.000000,0.000000,1.000000,0.000000,0.000000,0.000000,0.000000,0.335557,30.235355,-0.309221
1650623815.103137,5239.000000,1650623815.102967,0.000000,0.000000,1.000000,0.000000,0.000000,0.000000,0.000000,0.329596,30.233261,-0.285773
1650623815.203132,5240.000000,1650623815.202914,0.000000,0.000000,1.000000,0.000000,0.000000,0.000000,0.000000,0.337434,30.231313,-0.283313
1650623815.303031,5241.000000,1650623815.302887,0.000000,0.000000,1.000000,0.000000,0.000000,0.000000,0.000000,0.351732,30.230595,-0.301778
1650623815.403079,5242.000000,1650623815.402915,0.000000,0.000000,1.000000,0.000000,0.000000,0.000000,0.000000,0.337179,30.231043,-0.276556
1650623815.503437,5243.000000,1650623815.503231,0.000000,0.000000,1.000000,0.000000,0.000000,0.000000,0.000000,0.340084,30.231498,-0.275553
1650623815.603434,5244.000000,1650623815.603261,0.000000,0.000000,1.000000,0.000000,0.000000,0.000000,0.000000,0.350744,30.231957,-0.292124
1650623815.703404,5245.000000,1650623815.703243,0.000000,0.000000,1.000000,0.000000,0.000000,0.000000,0.000000,0.353422,30.231326,-0.287604
1650623815.803396,5246.000000,1650623815.803210,0.000000,0.000000,1.000000,0.000000,0.000000,0.000000,0.000000,0.363798,30.231847,-0.303151
1650623815.903475,5247.000000,1650623815.903257,0.000000,0.000000,1.000000,0.000000,0.000000,0.000000,0.000000,0.382496,30.232361,-0.334681
1650623816.003669,5248.000000,1650623816.003436,0.000000,0.000000,1.000000,0.000000,0.000000,0.000000,0.000000,0.374103,30.233958,-0.318573
1650623816.103404,5249.000000,1650623816.103168,0.000000,0.000000,1.000000,0.000000,0.000000,0.000000,0.000000,0.377189,30.236572,-0.271273
1650623816.203422,5250.000000,1650623816.203223,0.000000,0.000000,1.000000,0.000000,0.000000,0.000000,0.000000,0.390021,30.236868,-0.257005
1650623816.303327,5251.000000,1650623816.303127,0.000000,0.000000,1.000000,0.000000,0.000000,0.000000,0.000000,0.382582,30.237151,-0.220409
1650623816.403398,5252.000000,1650623816.403193,0.000000,0.000000,1.000000,0.000000,0.000000,0.000000,0.000000,0.386527,30.238512,-0.217265
1650623816.503410,5253.000000,1650623816.503222,0.000000,0.000000,1.000000,0.000000,0.000000,0.000000,0.000000,0.399038,30.239797,-0.235725
1650623816.603405,5254.000000,1650623816.603212,0.000000,0.000000,1.000000,0.000000,0.000000,0.000000,0.000000,0.398890,30.238825,-0.236155
1650623816.703380,5255.000000,1650623816.703181,0.000000,0.000000,1.000000,0.000000,0.000000,0.000000,0.000000,0.409668,30.235722,-0.242650
1650623816.803281,5256.000000,1650623816.803018,0.000000,0.000000,1.000000,0.000000,0.000000,0.000000,0.000000,0.427472,30.233887,-0.271064
1650623816.903111,5257.000000,1650623816.902920,0.000000,0.000000,1.000000,0.000000,0.000000,0.000000,0.000000,0.449684,30.233254,-0.308352
1650623817.003093,5258.000000,1650623817.002898,0.000000,0.000000,1.000000,0.000000,0.000000,0.000000,0.000000,0.474907,30.233761,-0.356498
1650623817.103389,5259.000000,1650623817.103229,0.000000,0.000000,1.000000,0.000000,0.000000,0.000000,0.000000,0.501816,30.235342,-0.408520
1650623817.203158,5260.000000,1650623817.202957,0.000000,0.000000,1.000000,0.000000,0.000000,0.000000,0.000000,0.502986,30.236842,-0.410134
1650623817.303101,5261.000000,1650623817.302929,0.000000,0.000000,1.000000,0.000000,0.000000,0.000000,0.000000,0.512544,30.237172,-0.427076
1650623817.403078,5262.000000,1650623817.402911,0.000000,0.000000,1.000000,0.000000,0.000000,0.000000,0.000000,0.527838,30.237483,-0.453050
1650623817.503111,5263.000000,1650623817.502946,0.000000,0.000000,1.000000,0.000000,0.000000,0.000000,0.000000,0.512541,30.237777,-0.434422
1650623817.603369,5264.000000,1650623817.603012,0.000000,0.000000,1.000000,0.000000,0.000000,0.000000,0.000000,0.509821,30.239142,-0.443183
1650623817.703125,5265.000000,1650623817.702947,0.000000,0.000000,1.000000,0.000000,0.000000,0.000000,0.000000,0.502659,30.244789,-0.410469
1650623817.803094,5266.000000,1650623817.802819,0.000000,0.000000,1.000000,0.000000,0.000000,0.000000,0.000000,0.488062,30.247924,-0.372687
1650623817.903107,5267.000000,1650623817.902935,0.000000,0.000000,1.000000,0.000000,0.000000,0.000000,0.000000,0.486119,30.249765,-0.362359
1650623818.003118,5268.000000,1650623818.002968,0.000000,0.000000,1.000000,0.000000,0.000000,0.000000,0.000000,0.496156,30.250380,-0.355810
1650623818.102944,5269.000000,1650623818.102787,0.000000,0.000000,1.000000,0.000000,0.000000,0.000000,0.000000,0.468426,30.250925,-0.317410
1650623818.203025,5270.000000,1650623818.202872,0.000000,0.000000,1.000000,0.000000,0.000000,0.000000,0.000000,0.456332,30.252495,-0.312212
1650623818.303062,5271.000000,1650623818.302911,0.000000,0.000000,1.000000,0.000000,0.000000,0.000000,0.000000,0.455791,30.253941,-0.329199
1650623818.403477,5272.000000,1650623818.403034,0.000000,0.000000,1.000000,0.000000,0.000000,0.000000,0.000000,0.445460,30.254178,-0.304537
1650623818.503112,5273.000000,1650623818.502926,0.000000,0.000000,1.000000,0.000000,0.000000,0.000000,0.000000,0.444440,30.256543,-0.308489
1650623818.603167,5274.000000,1650623818.602967,0.000000,0.000000,1.000000,0.000000,0.000000,0.000000,0.000000,0.453317,30.258735,-0.335853
1650623818.703064,5275.000000,1650623818.702896,0.000000,0.000000,1.000000,0.000000,0.000000,0.000000,0.000000,0.454075,30.259668,-0.336439
1650623818.803105,5276.000000,1650623818.802939,0.000000,0.000000,1.000000,0.000000,0.000000,0.000000,0.000000,0.461331,30.260502,-0.355673
1650623818.903074,5277.000000,1650623818.902918,0.000000,0.000000,1.000000,0.000000,0.000000,0.000000,0.000000,0.473617,30.260151,-0.384702
1650623819.003051,5278.000000,1650623819.002896,0.000000,0.000000,1.000000,0.000000,0.000000,0.000000,0.000000,0.490621,30.257594,-0.406143
1650623819.103058,5279.000000,1650623819.102912,0.000000,0.000000,1.000000,0.000000,0.000000,0.000000,0.000000,0.510947,30.255142,-0.440425
1650623819.203637,5280.000000,1650623819.203434,0.000000,0.000000,1.000000,0.000000,0.000000,0.000000,0.000000,0.536537,30.253890,-0.486167
1650623819.303517,5281.000000,1650623819.303250,0.000000,0.000000,1.000000,0.000000,0.000000,0.000000,0.000000,0.562672,30.252686,-0.535572
1650623819.403459,5282.000000,1650623819.403244,0.000000,0.000000,1.000000,0.000000,0.000000,0.000000,0.000000,0.588164,30.251534,-0.583578
1650623819.503454,5283.000000,1650623819.503215,0.000000,0.000000,1.000000,0.000000,0.000000,0.000000,0.000000,0.611894,30.249345,-0.627748
1650623819.603445,5284.000000,1650623819.603224,0.000000,0.000000,1.000000,0.000000,0.000000,0.000000,0.000000,0.633906,30.247273,-0.672207
1650623819.703395,5285.000000,1650623819.703213,0.000000,0.000000,1.000000,0.000000,0.000000,0.000000,0.000000,0.656429,30.245318,-0.721721
1650623819.803473,5286.000000,1650623819.803237,0.000000,0.000000,1.000000,0.000000,0.000000,0.000000,0.000000,0.678301,30.243480,-0.769568
1650623819.903394,5287.000000,1650623819.903199,0.000000,0.000000,1.000000,0.000000,0.000000,0.000000,0.000000,0.698428,30.241757,-0.814141
1650623820.004013,5288.000000,1650623820.003700,0.000000,0.000000,1.000000,0.000000,0.000000,0.000000,0.000000,0.714693,30.240148,-0.857133
1650623820.103437,5289.000000,1650623820.103194,0.000000,0.000000,1.000000,0.000000,0.000000,0.000000,0.000000,0.730560,30.237561,-0.890493
1650623820.203403,5290.000000,1650623820.203207,0.000000,0.000000,1.000000,0.000000,0.000000,0.000000,0.000000,0.746036,30.234054,-0.911356
1650623820.303395,5291.000000,1650623820.303218,0.000000,0.000000,1.000000,0.000000,0.000000,0.000000,0.000000,0.757857,30.231869,-0.933927
1650623820.403400,5292.000000,1650623820.403202,0.000000,0.000000,1.000000,0.000000,0.000000,0.000000,0.000000,0.768403,30.230938,-0.962160
1650623820.503355,5293.000000,1650623820.503200,0.000000,0.000000,1.000000,0.000000,0.000000,0.000000,0.000000,0.776655,30.231193,-0.996614
1650623820.603397,5294.000000,1650623820.603218,0.000000,0.000000,1.000000,0.000000,0.000000,0.000000,0.000000,0.787111,30.230385,-1.028945
1650623820.703454,5295.000000,1650623820.703223,0.000000,0.000000,1.000000,0.000000,0.000000,0.000000,0.000000,0.797473,30.229663,-1.057602
1650623820.803283,5296.000000,1650623820.803053,0.000000,0.000000,1.000000,0.000000,0.000000,0.000000,0.000000,0.804477,30.230112,-1.089167
1650623820.903081,5297.000000,1650623820.902914,0.000000,0.000000,1.000000,0.000000,0.000000,0.000000,0.000000,0.812681,30.231665,-1.122696
1650623821.003057,5298.000000,1650623821.002891,0.000000,0.000000,1.000000,0.000000,0.000000,0.000000,0.000000,0.817667,30.232073,-1.137926
1650623821.103109,5299.000000,1650623821.102937,0.000000,0.000000,1.000000,0.000000,0.000000,0.000000,0.000000,0.822900,30.232487,-1.157376
1650623821.203076,5300.000000,1650623821.202926,0.000000,0.000000,1.000000,0.000000,0.000000,0.000000,0.000000,0.826202,30.233993,-1.179265
1650623821.303005,5301.000000,1650623821.302837,0.000000,0.000000,1.000000,0.000000,0.000000,0.000000,0.000000,0.829880,30.235436,-1.201072
1650623821.403002,5302.000000,1650623821.402840,0.000000,0.000000,1.000000,0.000000,0.000000,0.000000,0.000000,0.835025,30.236813,-1.226023
1650623821.503028,5303.000000,1650623821.502897,0.000000,0.000000,1.000000,0.000000,0.000000,0.000000,0.000000,0.837207,30.237033,-1.245113
1650623821.603256,5304.000000,1650623821.603094,0.000000,0.000000,1.000000,0.000000,0.000000,0.000000,0.000000,0.842062,30.236157,-1.266644
1650623821.703173,5305.000000,1650623821.703012,0.000000,0.000000,1.000000,0.000000,0.000000,0.000000,0.000000,0.846187,30.236428,-1.286484
1650623821.803121,5306.000000,1650623821.802984,0.000000,0.000000,1.000000,0.000000,0.000000,0.000000,0.000000,0.851814,30.235601,-1.301477
1650623821.903214,5307.000000,1650623821.903027,0.000000,0.000000,1.000000,0.000000,0.000000,0.000000,0.000000,0.852329,30.233740,-1.306987
1650623822.003090,5308.000000,1650623822.002927,0.000000,0.000000,1.000000,0.000000,0.000000,0.000000,0.000000,0.852396,30.231994,-1.309067
1650623822.103411,5309.000000,1650623822.103220,0.000000,0.000000,1.000000,0.000000,0.000000,0.000000,0.000000,0.852063,30.231454,-1.317563
1650623822.203084,5310.000000,1650623822.202904,0.000000,0.000000,1.000000,0.000000,0.000000,0.000000,0.000000,0.850285,30.233144,-1.332234
1650623822.303093,5311.000000,1650623822.302933,0.000000,0.000000,1.000000,0.000000,0.000000,0.000000,0.000000,0.848259,30.233666,-1.343965
1650623822.403423,5312.000000,1650623822.403194,0.000000,0.000000,1.000000,0.000000,0.000000,0.000000,0.000000,0.843844,30.234171,-1.356112
1650623822.503140,5313.000000,1650623822.502970,0.000000,0.000000,1.000000,0.000000,0.000000,0.000000,0.000000,0.840472,30.234657,-1.357378
1650623822.603207,5314.000000,1650623822.603017,0.000000,0.000000,1.000000,0.000000,0.000000,0.000000,0.000000,0.835935,30.236215,-1.364359
1650623822.703212,5315.000000,1650623822.703004,0.000000,0.000000,1.000000,0.000000,0.000000,0.000000,0.000000,0.829233,30.237689,-1.366356
1650623822.803171,5316.000000,1650623822.802976,0.000000,0.000000,1.000000,0.000000,0.000000,0.000000,0.000000,0.824882,30.239080,-1.367628
1650623822.903211,5317.000000,1650623822.903004,0.000000,0.000000,1.000000,0.000000,0.000000,0.000000,0.000000,0.822777,30.240388,-1.370649
1650623823.003204,5318.000000,1650623823.002991,0.000000,0.000000,1.000000,0.000000,0.000000,0.000000,0.000000,0.820633,30.240523,-1.370531
1650623823.103549,5319.000000,1650623823.103343,0.000000,0.000000,1.000000,0.000000,0.000000,0.000000,0.000000,0.818467,30.240641,-1.375488
1650623823.203408,5320.000000,1650623823.203185,0.000000,0.000000,1.000000,0.000000,0.000000,0.000000,0.000000,0.817386,30.241832,-1.382915
1650623823.303200,5321.000000,1650623823.303009,0.000000,0.000000,1.000000,0.000000,0.000000,0.000000,0.000000,0.815159,30.241854,-1.383850
1650623823.403142,5322.000000,1650623823.402995,0.000000,0.000000,1.000000,0.000000,0.000000,0.000000,0.000000,0.812954,30.240772,-1.376964
1650623823.503167,5323.000000,1650623823.502985,0.000000,0.000000,1.000000,0.000000,0.000000,0.000000,0.000000,0.811873,30.239740,-1.377928
1650623823.603175,5324.000000,1650623823.603010,0.000000,0.000000,1.000000,0.000000,0.000000,0.000000,0.000000,0.810772,30.239849,-1.383219
1650623823.703070,5325.000000,1650623823.702913,0.000000,0.000000,1.000000,0.000000,0.000000,0.000000,0.000000,0.809660,30.239948,-1.368481
1650623823.803008,5326.000000,1650623823.802842,0.000000,0.000000,1.000000,0.000000,0.000000,0.000000,0.000000,0.808546,30.238945,-1.353920
1650623823.903110,5327.000000,1650623823.902943,0.000000,0.000000,1.000000,0.000000,0.000000,0.000000,0.000000,0.796532,30.242358,-1.286344
1650623824.003377,5328.000000,1650623824.003083,0.000000,0.000000,1.000000,0.000000,0.000000,0.000000,0.000000,0.787339,30.244481,-1.213183
1650623824.103108,5329.000000,1650623824.102922,0.000000,0.000000,1.000000,0.000000,0.000000,0.000000,0.000000,0.780843,30.246471,-1.164634
1650623824.203089,5330.000000,1650623824.202897,0.000000,0.000000,1.000000,0.000000,0.000000,0.000000,0.000000,0.774735,30.249420,-1.119631
1650623824.303053,5331.000000,1650623824.302892,0.000000,0.000000,1.000000,0.000000,0.000000,0.000000,0.000000,0.770102,30.249995,-1.085368
1650623824.403112,5332.000000,1650623824.402926,0.000000,0.000000,1.000000,0.000000,0.000000,0.000000,0.000000,0.769055,30.249418,-1.063079
1650623824.503115,5333.000000,1650623824.502938,0.000000,0.000000,1.000000,0.000000,0.000000,0.000000,0.000000,0.768129,30.248844,-1.043444
1650623824.603177,5334.000000,1650623824.603007,0.000000,0.000000,1.000000,0.000000,0.000000,0.000000,0.000000,0.766225,30.248277,-1.032835
1650623824.703166,5335.000000,1650623824.702976,0.000000,0.000000,1.000000,0.000000,0.000000,0.000000,0.000000,0.766671,30.246630,-1.027673
1650623824.803407,5336.000000,1650623824.803222,0.000000,0.000000,1.000000,0.000000,0.000000,0.000000,0.000000,0.766061,30.245057,-1.021289
