__time,/dwm1001/id_458E/pose_kf/header/seq,/dwm1001/id_458E/pose_kf/header/stamp,/dwm1001/id_458E/pose_kf/pose/orientation/pitch_deg,/dwm1001/id_458E/pose_kf/pose/orientation/roll_deg,/dwm1001/id_458E/pose_kf/pose/orientation/w,/dwm1001/id_458E/pose_kf/pose/orientation/x,/dwm1001/id_458E/pose_kf/pose/orientation/y,/dwm1001/id_458E/pose_kf/pose/orientation/yaw_deg,/dwm1001/id_458E/pose_kf/pose/orientation/z,/dwm1001/id_458E/pose_kf/pose/position/x,/dwm1001/id_458E/pose_kf/pose/position/y,/dwm1001/id_458E/pose_kf/pose/position/z
1650623038.502245,710.000000,1650623038.501953,0.000000,0.000000,1.000000,0.000000,0.000000,0.000000,0.000000,3.532549,6.099308,-0.847862
1650623038.602160,711.000000,1650623038.601960,0.000000,0.000000,1.000000,0.000000,0.000000,0.000000,0.000000,3.533281,6.100858,-0.832558
1650623038.701939,712.000000,1650623038.701749,0.000000,0.000000,1.000000,0.000000,0.000000,0.000000,0.000000,3.531858,6.103388,-0.823549
1650623038.801670,713.000000,1650623038.801524,0.000000,0.000000,1.000000,0.000000,0.000000,0.000000,0.000000,3.531669,6.105746,-0.811724
1650623038.901874,714.000000,1650623038.901663,0.000000,0.000000,1.000000,0.000000,0.000000,0.000000,0.000000,3.532643,6.107937,-0.800439
1650623039.001805,715.000000,1650623039.001640,0.000000,0.000000,1.000000,0.000000,0.000000,0.000000,0.000000,3.532530,6.109964,-0.800980
1650623039.101956,716.000000,1650623039.101772,0.000000,0.000000,1.000000,0.000000,0.000000,0.000000,0.000000,3.531385,6.111834,-0.791093
1650623039.201813,717.000000,1650623039.201660,0.000000,0.000000,1.000000,0.000000,0.000000,0.000000,0.000000,3.529267,6.113552,-0.776048
1650623039.301874,718.000000,1650623039.301702,0.000000,0.000000,1.000000,0.000000,0.000000,0.000000,0.000000,3.528411,6.115122,-0.765755
1650623039.401810,719.000000,1650623039.401611,0.000000,0.000000,1.000000,0.000000,0.000000,0.000000,0.000000,3.527659,6.115462,-0.753581
1650623039.501838,720.000000,1650623039.501656,0.000000,0.000000,1.000000,0.000000,0.000000,0.000000,0.000000,3.527004,6.114640,-0.702521
1650623039.601766,721.000000,1650623039.601608,0.000000,0.000000,1.000000,0.000000,0.000000,0.000000,0.000000,3.526439,6.113815,-0.664224
1650623039.701893,722.000000,1650623039.701719,0.000000,0.000000,1.000000,0.000000,0.000000,0.000000,0.000000,3.525957,6.112994,-0.635812
1650623039.801699,723.000000,1650623039.801552,0.000000,0.000000,1.000000,0.000000,0.000000,0.000000,0.000000,3.525554,6.112180,-0.629825
1650623039.901788,724.000000,1650623039.901629,0.000000,0.000000,1.000000,0.000000,0.000000,0.000000,0.000000,3.525223,6.112469,-0.612293
1650623040.001845,725.000000,1650623040.001649,0.000000,0.000000,1.000000,0.000000,0.000000,0.000000,0.000000,3.523868,6.112710,-0.594987
1650623040.101966,726.000000,1650623040.101768,0.000000,0.000000,1.000000,0.000000,0.000000,0.000000,0.000000,3.523726,6.112908,-0.594044
1650623040.201768,727.000000,1650623040.201603,0.000000,0.000000,1.000000,0.000000,0.000000,0.000000,0.000000,3.524730,6.113067,-0.591855
1650623040.301870,728.000000,1650623040.301684,0.000000,0.000000,1.000000,0.000000,0.000000,0.000000,0.000000,3.527901,6.112098,-0.552977
1650623040.401739,729.000000,1650623040.401553,0.000000,0.000000,1.000000,0.000000,0.000000,0.000000,0.000000,3.526566,6.112249,-0.518457
1650623040.501725,730.000000,1650623040.501572,0.000000,0.000000,1.000000,0.000000,0.000000,0.000000,0.000000,3.526427,6.111280,-0.509131
1650623040.601740,731.000000,1650623040.601570,0.000000,0.000000,1.000000,0.000000,0.000000,0.000000,0.000000,3.525234,6.110345,-0.519141
1650623040.701819,732.000000,1650623040.701647,0.000000,0.000000,1.000000,0.000000,0.000000,0.000000,0.000000,3.525230,6.110537,-0.537192
1650623040.801794,733.000000,1650623040.801624,0.000000,0.000000,1.000000,0.000000,0.000000,0.000000,0.000000,3.527436,6.110705,-0.566944
1650623040.901792,734.000000,1650623040.901609,0.000000,0.000000,1.000000,0.000000,0.000000,0.000000,0.000000,3.528453,6.111940,-0.600604
1650623041.001786,735.000000,1650623041.001598,0.000000,0.000000,1.000000,0.000000,0.000000,0.000000,0.000000,3.528342,6.113092,-0.623429
1650623041.101765,736.000000,1650623041.101598,0.000000,0.000000,1.000000,0.000000,0.000000,0.000000,0.000000,3.527163,6.113071,-0.637421
1650623041.201687,737.000000,1650623041.201535,0.000000,0.000000,1.000000,0.000000,0.000000,0.000000,0.000000,3.524977,6.111943,-0.663876
1650623041.301867,738.000000,1650623041.301688,0.000000,0.000000,1.000000,0.000000,0.000000,0.000000,0.000000,3.524026,6.111952,-0.693368
1650623041.401673,739.000000,1650623041.401510,0.000000,0.000000,1.000000,0.000000,0.000000,0.000000,0.000000,3.518791,6.109768,-0.672498
1650623041.501761,740.000000,1650623041.501584,0.000000,0.000000,1.000000,0.000000,0.000000,0.000000,0.000000,3.516064,6.108788,-0.660587
1650623041.601774,741.000000,1650623041.601563,0.000000,0.000000,1.000000,0.000000,0.000000,0.000000,0.000000,3.520076,6.105679,-0.621808
1650623041.701772,742.000000,1650623041.701604,0.000000,0.000000,1.000000,0.000000,0.000000,0.000000,0.000000,3.522810,6.102747,-0.608920
1650623041.801746,743.000000,1650623041.801571,0.000000,0.000000,1.000000,0.000000,0.000000,0.000000,0.000000,3.524328,6.101082,-0.595090
1650623041.901772,744.000000,1650623041.901595,0.000000,0.000000,1.000000,0.000000,0.000000,0.000000,0.000000,3.527959,6.099529,-0.595694
1650623042.001762,745.000000,1650623042.001566,0.000000,0.000000,1.000000,0.000000,0.000000,0.000000,0.000000,3.529215,6.098085,-0.610950
1650623042.102618,746.000000,1650623042.102407,0.000000,0.000000,1.000000,0.000000,0.000000,0.000000,0.000000,3.529312,6.096748,-0.636202
1650623042.202079,747.000000,1650623042.201794,0.000000,0.000000,1.000000,0.000000,0.000000,0.000000,0.000000,3.530493,6.096605,-0.649225
1650623042.302112,748.000000,1650623042.301875,0.000000,0.000000,1.000000,0.000000,0.000000,0.000000,0.000000,3.530515,6.097589,-0.652906
1650623042.402080,749.000000,1650623042.401907,0.000000,0.000000,1.000000,0.000000,0.000000,0.000000,0.000000,3.530531,6.098543,-0.670193
1650623042.502114,750.000000,1650623042.501841,0.000000,0.000000,1.000000,0.000000,0.000000,0.000000,0.000000,3.530541,6.098376,-0.691636
1650623042.602033,751.000000,1650623042.601837,0.000000,0.000000,1.000000,0.000000,0.000000,0.000000,0.000000,3.531638,6.098237,-0.718643
1650623042.702127,752.000000,1650623042.701946,0.000000,0.000000,1.000000,0.000000,0.000000,0.000000,0.000000,3.532668,6.099214,-0.750946
1650623042.802011,753.000000,1650623042.801823,0.000000,0.000000,1.000000,0.000000,0.000000,0.000000,0.000000,3.532541,6.099062,-0.777794
1650623042.901970,754.000000,1650623042.901793,0.000000,0.000000,1.000000,0.000000,0.000000,0.000000,0.000000,3.533503,6.097843,-0.809852
1650623043.001923,755.000000,1650623043.001768,0.000000,0.000000,1.000000,0.000000,0.000000,0.000000,0.000000,3.533310,6.095617,-0.846055
1650623043.102043,756.000000,1650623043.101880,0.000000,0.000000,1.000000,0.000000,0.000000,0.000000,0.000000,3.530936,6.094625,-0.866828
1650623043.202051,757.000000,1650623043.201869,0.000000,0.000000,1.000000,0.000000,0.000000,0.000000,0.000000,3.530871,6.093713,-0.879221
1650623043.302016,758.000000,1650623043.301851,0.000000,0.000000,1.000000,0.000000,0.000000,0.000000,0.000000,3.529716,6.091786,-0.893240
1650623043.402065,759.000000,1650623043.401899,0.000000,0.000000,1.000000,0.000000,0.000000,0.000000,0.000000,3.526446,6.089995,-0.903970
1650623043.502131,760.000000,1650623043.501896,0.000000,0.000000,1.000000,0.000000,0.000000,0.000000,0.000000,3.524456,6.089427,-0.901053
1650623043.602032,761.000000,1650623043.601810,0.000000,0.000000,1.000000,0.000000,0.000000,0.000000,0.000000,3.525863,6.088925,-0.897960
1650623043.701715,762.000000,1650623043.701554,0.000000,0.000000,1.000000,0.000000,0.000000,0.000000,0.000000,3.525025,6.089574,-0.901169
1650623043.801642,763.000000,1650623043.801487,0.000000,0.000000,1.000000,0.000000,0.000000,0.000000,0.000000,3.526428,6.090218,-0.911238
1650623043.901762,764.000000,1650623043.901601,0.000000,0.000000,1.000000,0.000000,0.000000,0.000000,0.000000,3.526673,6.089764,-0.930304
1650623044.001761,765.000000,1650623044.001593,0.000000,0.000000,1.000000,0.000000,0.000000,0.000000,0.000000,3.526912,6.089360,-0.954757
1650623044.101809,766.000000,1650623044.101635,0.000000,0.000000,1.000000,0.000000,0.000000,0.000000,0.000000,3.527144,6.087914,-0.983545
1650623044.201778,767.000000,1650623044.201608,0.000000,0.000000,1.000000,0.000000,0.000000,0.000000,0.000000,3.525188,6.087666,-1.014846
1650623044.301821,768.000000,1650623044.301641,0.000000,0.000000,1.000000,0.000000,0.000000,0.000000,0.000000,3.525531,6.089641,-1.040454
1650623044.401722,769.000000,1650623044.401581,0.000000,0.000000,1.000000,0.000000,0.000000,0.000000,0.000000,3.525864,6.089347,-1.060574
1650623044.501688,770.000000,1650623044.501538,0.000000,0.000000,1.000000,0.000000,0.000000,0.000000,0.000000,3.527277,6.089090,-1.083475
1650623044.601688,771.000000,1650623044.601529,0.000000,0.000000,1.000000,0.000000,0.000000,0.000000,0.000000,3.527526,6.089957,-1.093701
1650623044.701736,772.000000,1650623044.701569,0.000000,0.000000,1.000000,0.000000,0.000000,0.000000,0.000000,3.525583,6.090793,-1.107089
1650623044.801757,773.000000,1650623044.801593,0.000000,0.000000,1.000000,0.000000,0.000000,0.000000,0.000000,3.525934,6.091595,-1.124313
1650623044.901802,774.000000,1650623044.901637,0.000000,0.000000,1.000000,0.000000,0.000000,0.000000,0.000000,3.525183,6.091273,-1.146016
1650623045.001743,775.000000,1650623045.001573,0.000000,0.000000,1.000000,0.000000,0.000000,0.000000,0.000000,3.526661,6.090977,-1.166355
1650623045.101781,776.000000,1650623045.101589,0.000000,0.000000,1.000000,0.000000,0.000000,0.000000,0.000000,3.529152,6.090708,-1.187791
1650623045.201722,777.000000,1650623045.201545,0.000000,0.000000,1.000000,0.000000,0.000000,0.000000,0.000000,3.532594,6.092644,-1.203812
1650623045.301840,778.000000,1650623045.301642,0.000000,0.000000,1.000000,0.000000,0.000000,0.000000,0.000000,3.535832,6.094479,-1.217051
1650623045.401730,779.000000,1650623045.401533,0.000000,0.000000,1.000000,0.000000,0.000000,0.000000,0.000000,3.538870,6.095120,-1.230845
1650623045.501851,780.000000,1650623045.501628,0.000000,0.000000,1.000000,0.000000,0.000000,0.000000,0.000000,3.541709,6.095723,-1.242751
1650623045.602174,781.000000,1650623045.601964,0.000000,0.000000,1.000000,0.000000,0.000000,0.000000,0.000000,3.543263,6.095196,-1.251235
1650623045.702172,782.000000,1650623045.701926,0.000000,0.000000,1.000000,0.000000,0.000000,0.000000,0.000000,3.543600,6.096875,-1.253216
1650623045.802171,783.000000,1650623045.801949,0.000000,0.000000,1.000000,0.000000,0.000000,0.000000,0.000000,3.541697,6.098453,-1.257038
1650623045.902181,784.000000,1650623045.901967,0.000000,0.000000,1.000000,0.000000,0.000000,0.000000,0.000000,3.538774,6.099932,-1.245707
1650623046.002086,785.000000,1650623046.001826,0.000000,0.000000,1.000000,0.000000,0.000000,0.000000,0.000000,3.538170,6.100223,-1.241647
1650623046.102107,786.000000,1650623046.101855,0.000000,0.000000,1.000000,0.000000,0.000000,0.000000,0.000000,3.536490,6.100480,-1.242978
1650623046.202077,787.000000,1650623046.201837,0.000000,0.000000,1.000000,0.000000,0.000000,0.000000,0.000000,3.534889,6.101797,-1.224498
1650623046.302178,788.000000,1650623046.301934,0.000000,0.000000,1.000000,0.000000,0.000000,0.000000,0.000000,3.532279,6.103022,-1.203988
1650623046.402123,789.000000,1650623046.401887,0.000000,0.000000,1.000000,0.000000,0.000000,0.000000,0.000000,3.529813,6.104157,-1.193678
1650623046.502077,790.000000,1650623046.501883,0.000000,0.000000,1.000000,0.000000,0.000000,0.000000,0.000000,3.528582,6.104115,-1.189960
1650623046.602063,791.000000,1650623046.601888,0.000000,0.000000,1.000000,0.000000,0.000000,0.000000,0.000000,3.528521,6.104051,-1.193394
1650623046.702230,792.000000,1650623046.701985,0.000000,0.000000,1.000000,0.000000,0.000000,0.000000,0.000000,3.528477,6.103969,-1.190792
1650623046.802056,793.000000,1650623046.801811,0.000000,0.000000,1.000000,0.000000,0.000000,0.000000,0.000000,3.528446,6.103871,-1.193704
1650623046.902050,794.000000,1650623046.901830,0.000000,0.000000,1.000000,0.000000,0.000000,0.000000,0.000000,3.529520,6.103759,-1.193847
1650623047.002079,795.000000,1650623047.001817,0.000000,0.000000,1.000000,0.000000,0.000000,0.000000,0.000000,3.530542,6.103636,-1.189730
1650623047.102475,796.000000,1650623047.102231,0.000000,0.000000,1.000000,0.000000,0.000000,0.000000,0.000000,3.532602,6.103503,-1.190412
1650623047.202162,797.000000,1650623047.201918,0.000000,0.000000,1.000000,0.000000,0.000000,0.000000,0.000000,3.532367,6.104454,-1.180384
1650623047.302145,798.000000,1650623047.301909,0.000000,0.000000,1.000000,0.000000,0.000000,0.000000,0.000000,3.531052,6.104245,-1.164135
1650623047.402161,799.000000,1650623047.401915,0.000000,0.000000,1.000000,0.000000,0.000000,0.000000,0.000000,3.530901,6.104032,-1.143565
1650623047.502255,800.000000,1650623047.501993,0.000000,0.000000,1.000000,0.000000,0.000000,0.000000,0.000000,3.534032,6.104907,-1.130984
1650623047.602122,801.000000,1650623047.601879,0.000000,0.000000,1.000000,0.000000,0.000000,0.000000,0.000000,3.535895,6.104629,-1.118838
1650623047.702091,802.000000,1650623047.701848,0.000000,0.000000,1.000000,0.000000,0.000000,0.000000,0.000000,3.546366,6.101080,-1.064391
1650623047.802102,803.000000,1650623047.801858,0.000000,0.000000,1.000000,0.000000,0.000000,0.000000,0.000000,3.550771,6.097723,-1.018636
1650623047.902194,804.000000,1650623047.901933,0.000000,0.000000,1.000000,0.000000,0.000000,0.000000,0.000000,3.554878,6.094558,-0.991782
1650623048.002135,805.000000,1650623048.001902,0.000000,0.000000,1.000000,0.000000,0.000000,0.000000,0.000000,3.557606,6.092673,-0.978269
1650623048.102203,806.000000,1650623048.101936,0.000000,0.000000,1.000000,0.000000,0.000000,0.000000,0.000000,3.557933,6.090915,-0.975156
1650623048.202273,807.000000,1650623048.202081,0.000000,0.000000,1.000000,0.000000,0.000000,0.000000,0.000000,3.557085,6.090369,-0.980410
1650623048.302307,808.000000,1650623048.302030,0.000000,0.000000,1.000000,0.000000,0.000000,0.000000,0.000000,3.555131,6.089881,-0.980772
1650623048.402059,809.000000,1650623048.401823,0.000000,0.000000,1.000000,0.000000,0.000000,0.000000,0.000000,3.552141,6.089447,-0.976434
1650623048.502145,810.000000,1650623048.501914,0.000000,0.000000,1.000000,0.000000,0.000000,0.000000,0.000000,3.546004,6.089064,-0.965165
1650623048.602049,811.000000,1650623048.601821,0.000000,0.000000,1.000000,0.000000,0.000000,0.000000,0.000000,3.541275,6.087638,-0.966613
1650623048.702127,812.000000,1650623048.701948,0.000000,0.000000,1.000000,0.000000,0.000000,0.000000,0.000000,3.537891,6.087410,-0.957676
1650623048.802086,813.000000,1650623048.801887,0.000000,0.000000,1.000000,0.000000,0.000000,0.000000,0.000000,3.534701,6.088313,-0.951683
1650623048.902085,814.000000,1650623048.901900,0.000000,0.000000,1.000000,0.000000,0.000000,0.000000,0.000000,3.531704,6.089191,-0.936422
1650623049.002200,815.000000,1650623049.001947,0.000000,0.000000,1.000000,0.000000,0.000000,0.000000,0.000000,3.529987,6.088952,-0.934867
1650623049.102221,816.000000,1650623049.101943,0.000000,0.000000,1.000000,0.000000,0.000000,0.000000,0.000000,3.528394,6.088745,-0.943234
1650623049.201908,817.000000,1650623049.201686,0.000000,0.000000,1.000000,0.000000,0.000000,0.000000,0.000000,3.528013,6.089658,-0.953036
1650623049.301825,818.000000,1650623049.301624,0.000000,0.000000,1.000000,0.000000,0.000000,0.000000,0.000000,3.527685,6.090538,-0.946451
1650623049.401803,819.000000,1650623049.401613,0.000000,0.000000,1.000000,0.000000,0.000000,0.000000,0.000000,3.527408,6.092471,-0.934628
1650623049.501858,820.000000,1650623049.501663,0.000000,0.000000,1.000000,0.000000,0.000000,0.000000,0.000000,3.526088,6.094304,-0.933922
1650623049.601837,821.000000,1650623049.601638,0.000000,0.000000,1.000000,0.000000,0.000000,0.000000,0.000000,3.528144,6.094945,-0.939847
1650623049.701810,822.000000,1650623049.701607,0.000000,0.000000,1.000000,0.000000,0.000000,0.000000,0.000000,3.527932,6.096639,-0.929538
1650623049.801818,823.000000,1650623049.801637,0.000000,0.000000,1.000000,0.000000,0.000000,0.000000,0.000000,3.527757,6.097142,-0.931888
1650623049.901755,824.000000,1650623049.901577,0.000000,0.000000,1.000000,0.000000,0.000000,0.000000,0.000000,3.527615,6.097607,-0.937505
1650623050.001702,825.000000,1650623050.001534,0.000000,0.000000,1.000000,0.000000,0.000000,0.000000,0.000000,3.527503,6.099128,-0.933339
1650623050.101809,826.000000,1650623050.101631,0.000000,0.000000,1.000000,0.000000,0.000000,0.000000,0.000000,3.525239,6.100551,-0.921399
1650623050.201752,827.000000,1650623050.201580,0.000000,0.000000,1.000000,0.000000,0.000000,0.000000,0.000000,3.527487,6.105150,-0.910078
1650623050.301829,828.000000,1650623050.301619,0.000000,0.000000,1.000000,0.000000,0.000000,0.000000,0.000000,3.530722,6.108376,-0.890494
1650623050.401817,829.000000,1650623050.401642,0.000000,0.000000,1.000000,0.000000,0.000000,0.000000,0.000000,3.532698,6.111386,-0.867846
1650623050.501867,830.000000,1650623050.501693,0.000000,0.000000,1.000000,0.000000,0.000000,0.000000,0.000000,3.532386,6.114185,-0.840673
1650623050.601897,831.000000,1650623050.601678,0.000000,0.000000,1.000000,0.000000,0.000000,0.000000,0.000000,3.532094,6.117869,-0.818069
1650623050.701843,832.000000,1650623050.701637,0.000000,0.000000,1.000000,0.000000,0.000000,0.000000,0.000000,3.530730,6.121291,-0.799875
1650623050.801824,833.000000,1650623050.801629,0.000000,0.000000,1.000000,0.000000,0.000000,0.000000,0.000000,3.528357,6.123366,-0.781902
1650623050.901858,834.000000,1650623050.901661,0.000000,0.000000,1.000000,0.000000,0.000000,0.000000,0.000000,3.529398,6.124167,-0.777062
1650623051.001756,835.000000,1650623051.001565,0.000000,0.000000,1.000000,0.000000,0.000000,0.000000,0.000000,3.530393,6.124854,-0.764660
1650623051.101860,836.000000,1650623051.101663,0.000000,0.000000,1.000000,0.000000,0.000000,0.000000,0.000000,3.532429,6.123255,-0.757104
1650623051.202173,837.000000,1650623051.201971,0.000000,0.000000,1.000000,0.000000,0.000000,0.000000,0.000000,3.533264,6.122775,-0.741297
1650623051.302121,838.000000,1650623051.301949,0.000000,0.000000,1.000000,0.000000,0.000000,0.000000,0.000000,3.534051,6.122266,-0.740165
1650623051.402146,839.000000,1650623051.401973,0.000000,0.000000,1.000000,0.000000,0.000000,0.000000,0.000000,3.533698,6.119555,-0.751491
1650623051.502172,840.000000,1650623051.501968,0.000000,0.000000,1.000000,0.000000,0.000000,0.000000,0.000000,3.532270,6.115863,-0.715065
1650623051.601783,841.000000,1650623051.601601,0.000000,0.000000,1.000000,0.000000,0.000000,0.000000,0.000000,3.530921,6.112348,-0.698181
1650623051.701735,842.000000,1650623051.701556,0.000000,0.000000,1.000000,0.000000,0.000000,0.000000,0.000000,3.530741,6.109013,-0.698456
1650623051.801691,843.000000,1650623051.801522,0.000000,0.000000,1.000000,0.000000,0.000000,0.000000,0.000000,3.527304,6.106949,-0.690988
1650623051.901735,844.000000,1650623051.901557,0.000000,0.000000,1.000000,0.000000,0.000000,0.000000,0.000000,3.526251,6.105004,-0.685766
1650623052.001737,845.000000,1650623052.001569,0.000000,0.000000,1.000000,0.000000,0.000000,0.000000,0.000000,3.526364,6.103176,-0.690759
1650623052.102082,846.000000,1650623052.101926,0.000000,0.000000,1.000000,0.000000,0.000000,0.000000,0.000000,3.531940,6.099284,-0.658758
1650623052.201771,847.000000,1650623052.201584,0.000000,0.000000,1.000000,0.000000,0.000000,0.000000,0.000000,3.538300,6.096722,-0.643715
1650623052.301845,848.000000,1650623052.301687,0.000000,0.000000,1.000000,0.000000,0.000000,0.000000,0.000000,3.543202,6.094335,-0.646571
1650623052.402011,849.000000,1650623052.401846,0.000000,0.000000,1.000000,0.000000,0.000000,0.000000,0.000000,3.546710,6.093208,-0.660939
1650623052.502036,850.000000,1650623052.501822,0.000000,0.000000,1.000000,0.000000,0.000000,0.000000,0.000000,3.548892,6.093274,-0.670189
1650623052.602089,851.000000,1650623052.601884,0.000000,0.000000,1.000000,0.000000,0.000000,0.000000,0.000000,3.549816,6.093375,-0.688206
1650623052.702160,852.000000,1650623052.701900,0.000000,0.000000,1.000000,0.000000,0.000000,0.000000,0.000000,3.550640,6.094598,-0.707339
1650623052.802129,853.000000,1650623052.801915,0.000000,0.000000,1.000000,0.000000,0.000000,0.000000,0.000000,3.552461,6.095783,-0.733952
1650623052.902121,854.000000,1650623052.901876,0.000000,0.000000,1.000000,0.000000,0.000000,0.000000,0.000000,3.554130,6.096929,-0.762851
1650623053.002124,855.000000,1650623053.001872,0.000000,0.000000,1.000000,0.000000,0.000000,0.000000,0.000000,3.553474,6.096942,-0.740664
1650623053.102190,856.000000,1650623053.101999,0.000000,0.000000,1.000000,0.000000,0.000000,0.000000,0.000000,3.553895,6.096973,-0.718678
1650623053.202112,857.000000,1650623053.201867,0.000000,0.000000,1.000000,0.000000,0.000000,0.000000,0.000000,3.554245,6.098110,-0.713047
1650623053.302122,858.000000,1650623053.301921,0.000000,0.000000,1.000000,0.000000,0.000000,0.000000,0.000000,3.553440,6.098107,-0.722307
1650623053.402000,859.000000,1650623053.401842,0.000000,0.000000,1.000000,0.000000,0.000000,0.000000,0.000000,3.567904,6.098117,-0.688580
1650623053.502185,860.000000,1650623053.501899,0.000000,0.000000,1.000000,0.000000,0.000000,0.000000,0.000000,3.578225,6.098137,-0.662035
1650623053.602216,861.000000,1650623053.601916,0.000000,0.000000,1.000000,0.000000,0.000000,0.000000,0.000000,3.586781,6.098167,-0.640810
1650623053.702105,862.000000,1650623053.701866,0.000000,0.000000,1.000000,0.000000,0.000000,0.000000,0.000000,3.593650,6.098205,-0.636006
1650623053.802114,863.000000,1650623053.801861,0.000000,0.000000,1.000000,0.000000,0.000000,0.000000,0.000000,3.598907,6.099341,-0.625185
1650623053.902213,864.000000,1650623053.901963,0.000000,0.000000,1.000000,0.000000,0.000000,0.000000,0.000000,3.600453,6.099329,-0.632791
1650623054.002180,865.000000,1650623054.001917,0.000000,0.000000,1.000000,0.000000,0.000000,0.000000,0.000000,3.599584,6.099323,-0.650801
1650623054.102097,866.000000,1650623054.101872,0.000000,0.000000,1.000000,0.000000,0.000000,0.000000,0.000000,3.596443,6.099322,-0.674723
1650623054.202081,867.000000,1650623054.201829,0.000000,0.000000,1.000000,0.000000,0.000000,0.000000,0.000000,3.599894,6.097145,-0.653464
1650623054.302253,868.000000,1650623054.301933,0.000000,0.000000,1.000000,0.000000,0.000000,0.000000,0.000000,3.600852,6.096187,-0.632422
1650623054.402212,869.000000,1650623054.401947,0.000000,0.000000,1.000000,0.000000,0.000000,0.000000,0.000000,3.597275,6.096385,-0.631780
1650623054.502103,870.000000,1650623054.501866,0.000000,0.000000,1.000000,0.000000,0.000000,0.000000,0.000000,3.592701,6.096585,-0.646676
1650623054.602096,871.000000,1650623054.601864,0.000000,0.000000,1.000000,0.000000,0.000000,0.000000,0.000000,3.589384,6.096784,-0.665967
1650623054.702197,872.000000,1650623054.701937,0.000000,0.000000,1.000000,0.000000,0.000000,0.000000,0.000000,3.587271,6.098072,-0.689435
1650623054.802102,873.000000,1650623054.801902,0.000000,0.000000,1.000000,0.000000,0.000000,0.000000,0.000000,3.584127,6.100385,-0.696708
1650623054.902125,874.000000,1650623054.901905,0.000000,0.000000,1.000000,0.000000,0.000000,0.000000,0.000000,3.578930,6.101479,-0.714228
1650623055.002149,875.000000,1650623055.001951,0.000000,0.000000,1.000000,0.000000,0.000000,0.000000,0.000000,3.575082,6.102507,-0.727034
1650623055.102109,876.000000,1650623055.101911,0.000000,0.000000,1.000000,0.000000,0.000000,0.000000,0.000000,3.571433,6.104561,-0.725616
1650623055.202084,877.000000,1650623055.201896,0.000000,0.000000,1.000000,0.000000,0.000000,0.000000,0.000000,3.569075,6.106488,-0.737163
1650623055.302111,878.000000,1650623055.301916,0.000000,0.000000,1.000000,0.000000,0.000000,0.000000,0.000000,3.569034,6.108290,-0.738551
1650623055.402067,879.000000,1650623055.401888,0.000000,0.000000,1.000000,0.000000,0.000000,0.000000,0.000000,3.567914,6.109969,-0.733415
1650623055.502293,880.000000,1650623055.501952,0.000000,0.000000,1.000000,0.000000,0.000000,0.000000,0.000000,3.564685,6.111528,-0.722833
1650623055.602224,881.000000,1650623055.601972,0.000000,0.000000,1.000000,0.000000,0.000000,0.000000,0.000000,3.562743,6.111880,-0.729623
1650623055.702179,882.000000,1650623055.701947,0.000000,0.000000,1.000000,0.000000,0.000000,0.000000,0.000000,3.562023,6.112182,-0.746622
1650623055.802121,883.000000,1650623055.801881,0.000000,0.000000,1.000000,0.000000,0.000000,0.000000,0.000000,3.560279,6.112437,-0.768551
1650623055.902297,884.000000,1650623055.902104,0.000000,0.000000,1.000000,0.000000,0.000000,0.000000,0.000000,3.555389,6.113739,-0.775820
1650623056.002158,885.000000,1650623056.001945,0.000000,0.000000,1.000000,0.000000,0.000000,0.000000,0.000000,3.550809,6.114939,-0.773043
1650623056.102162,886.000000,1650623056.101932,0.000000,0.000000,1.000000,0.000000,0.000000,0.000000,0.000000,3.551987,6.112769,-0.728375
1650623056.202149,887.000000,1650623056.201949,0.000000,0.000000,1.000000,0.000000,0.000000,0.000000,0.000000,3.550969,6.110692,-0.691969
1650623056.301980,888.000000,1650623056.301790,0.000000,0.000000,1.000000,0.000000,0.000000,0.000000,0.000000,3.550056,6.109801,-0.678071
1650623056.401989,889.000000,1650623056.401803,0.000000,0.000000,1.000000,0.000000,0.000000,0.000000,0.000000,3.549242,6.108946,-0.680148
1650623056.501795,890.000000,1650623056.501627,0.000000,0.000000,1.000000,0.000000,0.000000,0.000000,0.000000,3.552883,6.107038,-0.643517
1650623056.601702,891.000000,1650623056.601551,0.000000,0.000000,1.000000,0.000000,0.000000,0.000000,0.000000,3.556361,6.105230,-0.631086
1650623056.701744,892.000000,1650623056.701587,0.000000,0.000000,1.000000,0.000000,0.000000,0.000000,0.000000,3.556400,6.103524,-0.636251
1650623056.801788,893.000000,1650623056.801626,0.000000,0.000000,1.000000,0.000000,0.000000,0.000000,0.000000,3.554276,6.103009,-0.649416
1650623056.901754,894.000000,1650623056.901587,0.000000,0.000000,1.000000,0.000000,0.000000,0.000000,0.000000,3.552295,6.102532,-0.652487
1650623057.001736,895.000000,1650623057.001581,0.000000,0.000000,1.000000,0.000000,0.000000,0.000000,0.000000,3.550452,6.102090,-0.670056
1650623057.102104,896.000000,1650623057.101913,0.000000,0.000000,1.000000,0.000000,0.000000,0.000000,0.000000,3.548744,6.100593,-0.683762
1650623057.201709,897.000000,1650623057.201539,0.000000,0.000000,1.000000,0.000000,0.000000,0.000000,0.000000,3.548258,6.100283,-0.700992
1650623057.301798,898.000000,1650623057.301615,0.000000,0.000000,1.000000,0.000000,0.000000,0.000000,0.000000,3.545655,6.100005,-0.711090
1650623057.401722,899.000000,1650623057.401546,0.000000,0.000000,1.000000,0.000000,0.000000,0.000000,0.000000,3.543237,6.100848,-0.719969
1650623057.501779,900.000000,1650623057.501598,0.000000,0.000000,1.000000,0.000000,0.000000,0.000000,0.000000,3.543181,6.100566,-0.740569
1650623057.601761,901.000000,1650623057.601575,0.000000,0.000000,1.000000,0.000000,0.000000,0.000000,0.000000,3.540992,6.102492,-0.762705
1650623057.701813,902.000000,1650623057.701627,0.000000,0.000000,1.000000,0.000000,0.000000,0.000000,0.000000,3.540064,6.103227,-0.790311
1650623057.801831,903.000000,1650623057.801600,0.000000,0.000000,1.000000,0.000000,0.000000,0.000000,0.000000,3.546869,6.101745,-0.777157
1650623057.901769,904.000000,1650623057.901581,0.000000,0.000000,1.000000,0.000000,0.000000,0.000000,0.000000,3.553329,6.102531,-0.757171
1650623058.001801,905.000000,1650623058.001599,0.000000,0.000000,1.000000,0.000000,0.000000,0.000000,0.000000,3.559442,6.104368,-0.750022
1650623058.101736,906.000000,1650623058.101563,0.000000,0.000000,1.000000,0.000000,0.000000,0.000000,0.000000,3.564116,6.106104,-0.751981
1650623058.201789,907.000000,1650623058.201629,0.000000,0.000000,1.000000,0.000000,0.000000,0.000000,0.000000,3.567415,6.106647,-0.767520
1650623058.301744,908.000000,1650623058.301569,0.000000,0.000000,1.000000,0.000000,0.000000,0.000000,0.000000,3.568316,6.107153,-0.788001
1650623058.401853,909.000000,1650623058.401664,0.000000,0.000000,1.000000,0.000000,0.000000,0.000000,0.000000,3.566949,6.106530,-0.815613
1650623058.501785,910.000000,1650623058.501586,0.000000,0.000000,1.000000,0.000000,0.000000,0.000000,0.000000,3.564534,6.105935,-0.828254
1650623058.601781,911.000000,1650623058.601546,0.000000,0.000000,1.000000,0.000000,0.000000,0.000000,0.000000,3.562228,6.105367,-0.849090
1650623058.701823,912.000000,1650623058.701624,0.000000,0.000000,1.000000,0.000000,0.000000,0.000000,0.000000,3.561123,6.105917,-0.857603
1650623058.801890,913.000000,1650623058.801718,0.000000,0.000000,1.000000,0.000000,0.000000,0.000000,0.000000,3.558979,6.105343,-0.875251
1650623058.901855,914.000000,1650623058.901673,0.000000,0.000000,1.000000,0.000000,0.000000,0.000000,0.000000,3.555859,6.105888,-0.878257
1650623059.001745,915.000000,1650623059.001583,0.000000,0.000000,1.000000,0.000000,0.000000,0.000000,0.000000,3.554006,6.105310,-0.893021
1650623059.101821,916.000000,1650623059.101644,0.000000,0.000000,1.000000,0.000000,0.000000,0.000000,0.000000,3.553358,6.103670,-0.915828
1650623059.201786,917.000000,1650623059.201617,0.000000,0.000000,1.000000,0.000000,0.000000,0.000000,0.000000,3.551669,6.102124,-0.932616
1650623059.301742,918.000000,1650623059.301534,0.000000,0.000000,1.000000,0.000000,0.000000,0.000000,0.000000,3.550091,6.099579,-0.956512
1650623059.401760,919.000000,1650623059.401591,0.000000,0.000000,1.000000,0.000000,0.000000,0.000000,0.000000,3.547531,6.098279,-0.967040
1650623059.501776,920.000000,1650623059.501601,0.000000,0.000000,1.000000,0.000000,0.000000,0.000000,0.000000,3.546230,6.099249,-0.962314
1650623059.601769,921.000000,1650623059.601561,0.000000,0.000000,1.000000,0.000000,0.000000,0.000000,0.000000,3.545032,6.100181,-0.951842
1650623059.701853,922.000000,1650623059.701657,0.000000,0.000000,1.000000,0.000000,0.000000,0.000000,0.000000,3.542842,6.101074,-0.941530
1650623059.802153,923.000000,1650623059.801883,0.000000,0.000000,1.000000,0.000000,0.000000,0.000000,0.000000,3.540811,6.100835,-0.945111
1650623059.902138,924.000000,1650623059.901937,0.000000,0.000000,1.000000,0.000000,0.000000,0.000000,0.000000,3.538932,6.101707,-0.937027
1650623060.002127,925.000000,1650623060.001927,0.000000,0.000000,1.000000,0.000000,0.000000,0.000000,0.000000,3.536113,6.102536,-0.925837
1650623060.102103,926.000000,1650623060.101916,0.000000,0.000000,1.000000,0.000000,0.000000,0.000000,0.000000,3.534589,6.103321,-0.924597
1650623060.202099,927.000000,1650623060.201882,0.000000,0.000000,1.000000,0.000000,0.000000,0.000000,0.000000,3.533203,6.102973,-0.921625
1650623060.301823,928.000000,1650623060.301625,0.000000,0.000000,1.000000,0.000000,0.000000,0.000000,0.000000,3.530857,6.103734,-0.925874
1650623060.401870,929.000000,1650623060.401679,0.000000,0.000000,1.000000,0.000000,0.000000,0.000000,0.000000,3.528699,6.104452,-0.912858
1650623060.501830,930.000000,1650623060.501635,0.000000,0.000000,1.000000,0.000000,0.000000,0.000000,0.000000,3.526721,6.104036,-0.901045
1650623060.601805,931.000000,1650623060.601607,0.000000,0.000000,1.000000,0.000000,0.000000,0.000000,0.000000,3.524917,6.102550,-0.889605
1650623060.701797,932.000000,1650623060.701594,0.000000,0.000000,1.000000,0.000000,0.000000,0.000000,0.000000,3.523279,6.102237,-0.889031
1650623060.801797,933.000000,1650623060.801617,0.000000,0.000000,1.000000,0.000000,0.000000,0.000000,0.000000,3.521798,6.103034,-0.896468
1650623060.901827,934.000000,1650623060.901615,0.000000,0.000000,1.000000,0.000000,0.000000,0.000000,0.000000,3.520468,6.102698,-0.911586
1650623061.001856,935.000000,1650623061.001639,0.000000,0.000000,1.000000,0.000000,0.000000,0.000000,0.000000,3.521460,6.103472,-0.929214
1650623061.101746,936.000000,1650623061.101593,0.000000,0.000000,1.000000,0.000000,0.000000,0.000000,0.000000,3.524642,6.104203,-0.950838
1650623061.201888,937.000000,1650623061.201732,0.000000,0.000000,1.000000,0.000000,0.000000,0.000000,0.000000,3.527699,6.104891,-0.973846
1650623061.301697,938.000000,1650623061.301516,0.000000,0.000000,1.000000,0.000000,0.000000,0.000000,0.000000,3.529536,6.105535,-0.978796
1650623061.401730,939.000000,1650623061.401536,0.000000,0.000000,1.000000,0.000000,0.000000,0.000000,0.000000,3.531302,6.106138,-0.989803
1650623061.501889,940.000000,1650623061.501684,0.000000,0.000000,1.000000,0.000000,0.000000,0.000000,0.000000,3.531902,6.105609,-0.993708
1650623061.601732,941.000000,1650623061.601551,0.000000,0.000000,1.000000,0.000000,0.000000,0.000000,0.000000,3.531397,6.105102,-0.997252
1650623061.701763,942.000000,1650623061.701571,0.000000,0.000000,1.000000,0.000000,0.000000,0.000000,0.000000,3.532029,6.104618,-1.009322
1650623061.801745,943.000000,1650623061.801590,0.000000,0.000000,1.000000,0.000000,0.000000,0.000000,0.000000,3.531552,6.103068,-1.027144
1650623061.901763,944.000000,1650623061.901587,0.000000,0.000000,1.000000,0.000000,0.000000,0.000000,0.000000,3.533297,6.101604,-1.048852
1650623062.001751,945.000000,1650623062.001598,0.000000,0.000000,1.000000,0.000000,0.000000,0.000000,0.000000,3.532777,6.101317,-1.069424
1650623062.102067,946.000000,1650623062.101919,0.000000,0.000000,1.000000,0.000000,0.000000,0.000000,0.000000,3.531206,6.102144,-1.087268
1650623062.201733,947.000000,1650623062.201578,0.000000,0.000000,1.000000,0.000000,0.000000,0.000000,0.000000,3.528645,6.104021,-1.101669
1650623062.301744,948.000000,1650623062.301589,0.000000,0.000000,1.000000,0.000000,0.000000,0.000000,0.000000,3.526246,6.105793,-1.115175
1650623062.401787,949.000000,1650623062.401629,0.000000,0.000000,1.000000,0.000000,0.000000,0.000000,0.000000,3.524006,6.107461,-1.127005
1650623062.501840,950.000000,1650623062.501628,0.000000,0.000000,1.000000,0.000000,0.000000,0.000000,0.000000,3.524103,6.107936,-1.140445
1650623062.601802,951.000000,1650623062.601645,0.000000,0.000000,1.000000,0.000000,0.000000,0.000000,0.000000,3.523137,6.108373,-1.157036
1650623062.701845,952.000000,1650623062.701668,0.000000,0.000000,1.000000,0.000000,0.000000,0.000000,0.000000,3.522256,6.107681,-1.175831
1650623062.801832,953.000000,1650623062.801644,0.000000,0.000000,1.000000,0.000000,0.000000,0.000000,0.000000,3.520366,6.108107,-1.179786
1650623062.901804,954.000000,1650623062.901626,0.000000,0.000000,1.000000,0.000000,0.000000,0.000000,0.000000,3.517527,6.109589,-1.167091
1650623063.001785,955.000000,1650623063.001613,0.000000,0.000000,1.000000,0.000000,0.000000,0.000000,0.000000,3.515978,6.110975,-1.140066
1650623063.101812,956.000000,1650623063.101618,0.000000,0.000000,1.000000,0.000000,0.000000,0.000000,0.000000,3.514559,6.112266,-1.123542
1650623063.201881,957.000000,1650623063.201697,0.000000,0.000000,1.000000,0.000000,0.000000,0.000000,0.000000,3.515448,6.112375,-1.117940
1650623063.301819,958.000000,1650623063.301639,0.000000,0.000000,1.000000,0.000000,0.000000,0.000000,0.000000,3.516331,6.111367,-1.119615
1650623063.401794,959.000000,1650623063.401614,0.000000,0.000000,1.000000,0.000000,0.000000,0.000000,0.000000,3.517204,6.111488,-1.109730
1650623063.501829,960.000000,1650623063.501650,0.000000,0.000000,1.000000,0.000000,0.000000,0.000000,0.000000,3.518063,6.111586,-1.104100
1650623063.601753,961.000000,1650623063.601602,0.000000,0.000000,1.000000,0.000000,0.000000,0.000000,0.000000,3.518902,6.112753,-1.105794
1650623063.701789,962.000000,1650623063.701638,0.000000,0.000000,1.000000,0.000000,0.000000,0.000000,0.000000,3.519721,6.111659,-1.104039
1650623063.801741,963.000000,1650623063.801565,0.000000,0.000000,1.000000,0.000000,0.000000,0.000000,0.000000,3.520514,6.111700,-1.089305
1650623063.901805,964.000000,1650623063.901610,0.000000,0.000000,1.000000,0.000000,0.000000,0.000000,0.000000,3.521281,6.111727,-1.063759
1650623064.001824,965.000000,1650623064.001628,0.000000,0.000000,1.000000,0.000000,0.000000,0.000000,0.000000,3.523109,6.109558,-1.052079
1650623064.101827,966.000000,1650623064.101627,0.000000,0.000000,1.000000,0.000000,0.000000,0.000000,0.000000,3.525935,6.108594,-1.040825
1650623064.201778,967.000000,1650623064.201584,0.000000,0.000000,1.000000,0.000000,0.000000,0.000000,0.000000,3.535146,6.106590,-0.992905
1650623064.301804,968.000000,1650623064.301614,0.000000,0.000000,1.000000,0.000000,0.000000,0.000000,0.000000,3.542734,6.105791,-0.961491
1650623064.401813,969.000000,1650623064.401581,0.000000,0.000000,1.000000,0.000000,0.000000,0.000000,0.000000,3.547674,6.105043,-0.945969
1650623064.501768,970.000000,1650623064.501553,0.000000,0.000000,1.000000,0.000000,0.000000,0.000000,0.000000,3.552278,6.105434,-0.927978
1650623064.601752,971.000000,1650623064.601536,0.000000,0.000000,1.000000,0.000000,0.000000,0.000000,0.000000,3.552194,6.106902,-0.898772
1650623064.701802,972.000000,1650623064.701612,0.000000,0.000000,1.000000,0.000000,0.000000,0.000000,0.000000,3.553132,6.108293,-0.862878
1650623064.801770,973.000000,1650623064.801591,0.000000,0.000000,1.000000,0.000000,0.000000,0.000000,0.000000,3.555039,6.111786,-0.837553
1650623064.901757,974.000000,1650623064.901590,0.000000,0.000000,1.000000,0.000000,0.000000,0.000000,0.000000,3.554588,6.113986,-0.815952
1650623065.001764,975.000000,1650623065.001575,0.000000,0.000000,1.000000,0.000000,0.000000,0.000000,0.000000,3.556275,6.114956,-0.809241
1650623065.101751,976.000000,1650623065.101538,0.000000,0.000000,1.000000,0.000000,0.000000,0.000000,0.000000,3.556712,6.113671,-0.810365
1650623065.201840,977.000000,1650623065.201630,0.000000,0.000000,1.000000,0.000000,0.000000,0.000000,0.000000,3.557058,6.111350,-0.823027
1650623065.301690,978.000000,1650623065.301536,0.000000,0.000000,1.000000,0.000000,0.000000,0.000000,0.000000,3.556232,6.110238,-0.838663
1650623065.401667,979.000000,1650623065.401504,0.000000,0.000000,1.000000,0.000000,0.000000,0.000000,0.000000,3.554304,6.108093,-0.861148
1650623065.502177,980.000000,1650623065.501949,0.000000,0.000000,1.000000,0.000000,0.000000,0.000000,0.000000,3.553523,6.106067,-0.886126
1650623065.601809,981.000000,1650623065.601612,0.000000,0.000000,1.000000,0.000000,0.000000,0.000000,0.000000,3.550562,6.103071,-0.914254
1650623065.701813,982.000000,1650623065.701668,0.000000,0.000000,1.000000,0.000000,0.000000,0.000000,0.000000,3.546640,6.102437,-0.934868
1650623065.802122,983.000000,1650623065.801918,0.000000,0.000000,1.000000,0.000000,0.000000,0.000000,0.000000,3.541826,6.101857,-0.958717
1650623065.902153,984.000000,1650623065.901977,0.000000,0.000000,1.000000,0.000000,0.000000,0.000000,0.000000,3.538363,6.101329,-0.964661
1650623066.002221,985.000000,1650623066.002004,0.000000,0.000000,1.000000,0.000000,0.000000,0.000000,0.000000,3.536190,6.103031,-0.957443
1650623066.102236,986.000000,1650623066.101991,0.000000,0.000000,1.000000,0.000000,0.000000,0.000000,0.000000,3.535243,6.103563,-0.948092
1650623066.202247,987.000000,1650623066.201942,0.000000,0.000000,1.000000,0.000000,0.000000,0.000000,0.000000,3.535456,6.104078,-0.929451
1650623066.302210,988.000000,1650623066.301991,0.000000,0.000000,1.000000,0.000000,0.000000,0.000000,0.000000,3.535674,6.104574,-0.909184
1650623066.401808,989.000000,1650623066.401622,0.000000,0.000000,1.000000,0.000000,0.000000,0.000000,0.000000,3.534806,6.105050,-0.902711
1650623066.501883,990.000000,1650623066.501694,0.000000,0.000000,1.000000,0.000000,0.000000,0.000000,0.000000,3.532911,6.105505,-0.905453
1650623066.601811,991.000000,1650623066.601623,0.000000,0.000000,1.000000,0.000000,0.000000,0.000000,0.000000,3.532233,6.105939,-0.893642
1650623066.701788,992.000000,1650623066.701606,0.000000,0.000000,1.000000,0.000000,0.000000,0.000000,0.000000,3.533795,6.107442,-0.874334
1650623066.802211,993.000000,1650623066.802022,0.000000,0.000000,1.000000,0.000000,0.000000,0.000000,0.000000,3.535288,6.108860,-0.853506
1650623066.902097,994.000000,1650623066.901888,0.000000,0.000000,1.000000,0.000000,0.000000,0.000000,0.000000,3.537802,6.110193,-0.847376
1650623067.002121,995.000000,1650623067.001872,0.000000,0.000000,1.000000,0.000000,0.000000,0.000000,0.000000,3.538001,6.111442,-0.831971
1650623067.102499,996.000000,1650623067.102291,0.000000,0.000000,1.000000,0.000000,0.000000,0.000000,0.000000,3.539281,6.112610,-0.810909
1650623067.202139,997.000000,1650623067.201897,0.000000,0.000000,1.000000,0.000000,0.000000,0.000000,0.000000,3.538308,6.113696,-0.786866
1650623067.302131,998.000000,1650623067.301892,0.000000,0.000000,1.000000,0.000000,0.000000,0.000000,0.000000,3.535208,6.113613,-0.769672
1650623067.402176,999.000000,1650623067.401882,0.000000,0.000000,1.000000,0.000000,0.000000,0.000000,0.000000,3.533377,6.112427,-0.768748
1650623067.502258,1000.000000,1650623067.502001,0.000000,0.000000,1.000000,0.000000,0.000000,0.000000,0.000000,3.532753,6.110201,-0.770525
1650623067.602268,1001.000000,1650623067.602034,0.000000,0.000000,1.000000,0.000000,0.000000,0.000000,0.000000,3.532179,6.108090,-0.783753
1650623067.701888,1002.000000,1650623067.701697,0.000000,0.000000,1.000000,0.000000,0.000000,0.000000,0.000000,3.529474,6.107186,-0.784550
1650623067.801753,1003.000000,1650623067.801517,0.000000,0.000000,1.000000,0.000000,0.000000,0.000000,0.000000,3.526941,6.106336,-0.783086
1650623067.901849,1004.000000,1650623067.901641,0.000000,0.000000,1.000000,0.000000,0.000000,0.000000,0.000000,3.524577,6.105538,-0.792348
1650623068.001861,1005.000000,1650623068.001687,0.000000,0.000000,1.000000,0.000000,0.000000,0.000000,0.000000,3.524560,6.103703,-0.803011
1650623068.101824,1006.000000,1650623068.101652,0.000000,0.000000,1.000000,0.000000,0.000000,0.000000,0.000000,3.522399,6.101981,-0.820638
1650623068.201754,1007.000000,1650623068.201589,0.000000,0.000000,1.000000,0.000000,0.000000,0.000000,0.000000,3.521486,6.101462,-0.830397
1650623068.301813,1008.000000,1650623068.301626,0.000000,0.000000,1.000000,0.000000,0.000000,0.000000,0.000000,3.521753,6.100990,-0.845488
1650623068.401866,1009.000000,1650623068.401654,0.000000,0.000000,1.000000,0.000000,0.000000,0.000000,0.000000,3.519862,6.100563,-0.868085
1650623068.502025,1010.000000,1650623068.501803,0.000000,0.000000,1.000000,0.000000,0.000000,0.000000,0.000000,3.524658,6.097999,-0.845427
1650623068.602130,1011.000000,1650623068.601853,0.000000,0.000000,1.000000,0.000000,0.000000,0.000000,0.000000,3.528125,6.096691,-0.821311
1650623068.702194,1012.000000,1650623068.701962,0.000000,0.000000,1.000000,0.000000,0.000000,0.000000,0.000000,3.528144,6.095484,-0.811963
1650623068.802212,1013.000000,1650623068.801971,0.000000,0.000000,1.000000,0.000000,0.000000,0.000000,0.000000,3.529263,6.095465,-0.813576
1650623068.902179,1014.000000,1650623068.901961,0.000000,0.000000,1.000000,0.000000,0.000000,0.000000,0.000000,3.530328,6.095476,-0.825699
1650623069.002196,1015.000000,1650623069.001935,0.000000,0.000000,1.000000,0.000000,0.000000,0.000000,0.000000,3.530247,6.095514,-0.845467
1650623069.102217,1016.000000,1650623069.101944,0.000000,0.000000,1.000000,0.000000,0.000000,0.000000,0.000000,3.531263,6.093396,-0.861243
1650623069.202152,1017.000000,1650623069.201932,0.000000,0.000000,1.000000,0.000000,0.000000,0.000000,0.000000,3.532224,6.091424,-0.876387
1650623069.302218,1018.000000,1650623069.301956,0.000000,0.000000,1.000000,0.000000,0.000000,0.000000,0.000000,3.535310,6.090686,-0.879608
1650623069.402180,1019.000000,1650623069.401881,0.000000,0.000000,1.000000,0.000000,0.000000,0.000000,0.000000,3.537124,6.090024,-0.890737
1650623069.502068,1020.000000,1650623069.501780,0.000000,0.000000,1.000000,0.000000,0.000000,0.000000,0.000000,3.537731,6.090524,-0.906211
1650623069.601979,1021.000000,1650623069.601742,0.000000,0.000000,1.000000,0.000000,0.000000,0.000000,0.000000,3.539376,6.091029,-0.904864
1650623069.701760,1022.000000,1650623069.701536,0.000000,0.000000,1.000000,0.000000,0.000000,0.000000,0.000000,3.539819,6.090446,-0.914797
1650623069.801791,1023.000000,1650623069.801594,0.000000,0.000000,1.000000,0.000000,0.000000,0.000000,0.000000,3.539124,6.091013,-0.927478
1650623069.901846,1024.000000,1650623069.901618,0.000000,0.000000,1.000000,0.000000,0.000000,0.000000,0.000000,3.539538,6.091576,-0.947616
1650623070.001841,1025.000000,1650623070.001610,0.000000,0.000000,1.000000,0.000000,0.000000,0.000000,0.000000,3.539909,6.093220,-0.949881
1650623070.101830,1026.000000,1650623070.101614,0.000000,0.000000,1.000000,0.000000,0.000000,0.000000,0.000000,3.541331,6.093700,-0.949510
1650623070.201819,1027.000000,1650623070.201611,0.000000,0.000000,1.000000,0.000000,0.000000,0.000000,0.000000,3.542653,6.094168,-0.959519
1650623070.301871,1028.000000,1650623070.301655,0.000000,0.000000,1.000000,0.000000,0.000000,0.000000,0.000000,3.543877,6.093531,-0.965767
1650623070.401812,1029.000000,1650623070.401627,0.000000,0.000000,1.000000,0.000000,0.000000,0.000000,0.000000,3.543915,6.094031,-0.954693
1650623070.501868,1030.000000,1650623070.501675,0.000000,0.000000,1.000000,0.000000,0.000000,0.000000,0.000000,3.543924,6.093424,-0.942340
1650623070.601846,1031.000000,1650623070.601651,0.000000,0.000000,1.000000,0.000000,0.000000,0.000000,0.000000,3.544999,6.095043,-0.936851
1650623070.701852,1032.000000,1650623070.701663,0.000000,0.000000,1.000000,0.000000,0.000000,0.000000,0.000000,3.543806,6.096579,-0.915381
1650623070.802038,1033.000000,1650623070.801737,0.000000,0.000000,1.000000,0.000000,0.000000,0.000000,0.000000,3.541567,6.098032,-0.909259
1650623070.901812,1034.000000,1650623070.901605,0.000000,0.000000,1.000000,0.000000,0.000000,0.000000,0.000000,3.539436,6.100493,-0.891265
1650623071.001798,1035.000000,1650623071.001626,0.000000,0.000000,1.000000,0.000000,0.000000,0.000000,0.000000,3.540686,6.099536,-0.833684
1650623071.101834,1036.000000,1650623071.101624,0.000000,0.000000,1.000000,0.000000,0.000000,0.000000,0.000000,3.540768,6.099715,-0.797078
1650623071.201958,1037.000000,1650623071.201740,0.000000,0.000000,1.000000,0.000000,0.000000,0.000000,0.000000,3.540837,6.100966,-0.779855
1650623071.301836,1038.000000,1650623071.301663,0.000000,0.000000,1.000000,0.000000,0.000000,0.000000,0.000000,3.540892,6.102137,-0.774803
1650623071.401808,1039.000000,1650623071.401640,0.000000,0.000000,1.000000,0.000000,0.000000,0.000000,0.000000,3.539846,6.102140,-0.783045
1650623071.501826,1040.000000,1650623071.501660,0.000000,0.000000,1.000000,0.000000,0.000000,0.000000,0.000000,3.539942,6.102129,-0.800798
1650623071.601900,1041.000000,1650623071.601705,0.000000,0.000000,1.000000,0.000000,0.000000,0.000000,0.000000,3.547660,6.098835,-0.775222
1650623071.701799,1042.000000,1650623071.701597,0.000000,0.000000,1.000000,0.000000,0.000000,0.000000,0.000000,3.551659,6.097899,-0.744392
1650623071.801784,1043.000000,1650623071.801611,0.000000,0.000000,1.000000,0.000000,0.000000,0.000000,0.000000,3.555399,6.097016,-0.732758
1650623071.901829,1044.000000,1650623071.901639,0.000000,0.000000,1.000000,0.000000,0.000000,0.000000,0.000000,3.557796,6.096184,-0.721816
1650623072.001809,1045.000000,1650623072.001627,0.000000,0.000000,1.000000,0.000000,0.000000,0.000000,0.000000,3.558918,6.096495,-0.722837
1650623072.102241,1046.000000,1650623072.102072,0.000000,0.000000,1.000000,0.000000,0.000000,0.000000,0.000000,3.559925,6.096794,-0.735328
1650623072.201917,1047.000000,1650623072.201720,0.000000,0.000000,1.000000,0.000000,0.000000,0.000000,0.000000,3.560822,6.097081,-0.739441
1650623072.301913,1048.000000,1650623072.301718,0.000000,0.000000,1.000000,0.000000,0.000000,0.000000,0.000000,3.569249,6.095174,-0.704047
1650623072.401826,1049.000000,1650623072.401633,0.000000,0.000000,1.000000,0.000000,0.000000,0.000000,0.000000,3.573869,6.093379,-0.690468
1650623072.502172,1050.000000,1650623072.501971,0.000000,0.000000,1.000000,0.000000,0.000000,0.000000,0.000000,3.578149,6.092786,-0.693806
1650623072.602101,1051.000000,1650623072.601925,0.000000,0.000000,1.000000,0.000000,0.000000,0.000000,0.000000,3.581009,6.093331,-0.699655
1650623072.702210,1052.000000,1650623072.701991,0.000000,0.000000,1.000000,0.000000,0.000000,0.000000,0.000000,3.582524,6.094949,-0.694184
1650623072.801955,1053.000000,1650623072.801735,0.000000,0.000000,1.000000,0.000000,0.000000,0.000000,0.000000,3.581677,6.096485,-0.698010
1650623072.901760,1054.000000,1650623072.901561,0.000000,0.000000,1.000000,0.000000,0.000000,0.000000,0.000000,3.579695,6.097938,-0.711552
1650623073.001803,1055.000000,1650623073.001631,0.000000,0.000000,1.000000,0.000000,0.000000,0.000000,0.000000,3.579924,6.098219,-0.734385
1650623073.102009,1056.000000,1650623073.101802,0.000000,0.000000,1.000000,0.000000,0.000000,0.000000,0.000000,3.578974,6.098480,-0.761252
1650623073.201799,1057.000000,1650623073.201635,0.000000,0.000000,1.000000,0.000000,0.000000,0.000000,0.000000,3.576919,6.098723,-0.781455
1650623073.301789,1058.000000,1650623073.301623,0.000000,0.000000,1.000000,0.000000,0.000000,0.000000,0.000000,3.573828,6.098947,-0.805710
1650623073.401820,1059.000000,1650623073.401649,0.000000,0.000000,1.000000,0.000000,0.000000,0.000000,0.000000,3.571951,6.100243,-0.830586
1650623073.501868,1060.000000,1650623073.501698,0.000000,0.000000,1.000000,0.000000,0.000000,0.000000,0.000000,3.567960,6.100369,-0.846338
1650623073.601831,1061.000000,1650623073.601633,0.000000,0.000000,1.000000,0.000000,0.000000,0.000000,0.000000,3.564165,6.099389,-0.869439
1650623073.701915,1062.000000,1650623073.701719,0.000000,0.000000,1.000000,0.000000,0.000000,0.000000,0.000000,3.561660,6.100637,-0.891493
1650623073.801893,1063.000000,1650623073.801696,0.000000,0.000000,1.000000,0.000000,0.000000,0.000000,0.000000,3.559291,6.100718,-0.912509
1650623073.901892,1064.000000,1650623073.901697,0.000000,0.000000,1.000000,0.000000,0.000000,0.000000,0.000000,3.557060,6.101876,-0.925242
1650623074.001841,1065.000000,1650623074.001646,0.000000,0.000000,1.000000,0.000000,0.000000,0.000000,0.000000,3.554964,6.102958,-0.943720
1650623074.101836,1066.000000,1650623074.101639,0.000000,0.000000,1.000000,0.000000,0.000000,0.000000,0.000000,3.559545,6.101786,-0.924948
1650623074.201990,1067.000000,1650623074.201805,0.000000,0.000000,1.000000,0.000000,0.000000,0.000000,0.000000,3.563881,6.100668,-0.922080
1650623074.301903,1068.000000,1650623074.301717,0.000000,0.000000,1.000000,0.000000,0.000000,0.000000,0.000000,3.564700,6.100695,-0.913520
1650623074.401850,1069.000000,1650623074.401671,0.000000,0.000000,1.000000,0.000000,0.000000,0.000000,0.000000,3.563283,6.100715,-0.916454
1650623074.501877,1070.000000,1650623074.501705,0.000000,0.000000,1.000000,0.000000,0.000000,0.000000,0.000000,3.563027,6.101818,-0.907839
1650623074.601941,1071.000000,1650623074.601759,0.000000,0.000000,1.000000,0.000000,0.000000,0.000000,0.000000,3.561689,6.102853,-0.909936
1650623074.701967,1072.000000,1650623074.701745,0.000000,0.000000,1.000000,0.000000,0.000000,0.000000,0.000000,3.558243,6.103819,-0.919894
1650623074.801932,1073.000000,1650623074.801693,0.000000,0.000000,1.000000,0.000000,0.000000,0.000000,0.000000,3.554995,6.105810,-0.930128
1650623074.901952,1074.000000,1650623074.901752,0.000000,0.000000,1.000000,0.000000,0.000000,0.000000,0.000000,3.550854,6.108763,-0.924484
1650623075.001893,1075.000000,1650623075.001664,0.000000,0.000000,1.000000,0.000000,0.000000,0.000000,0.000000,3.549150,6.109347,-0.922167
1650623075.101858,1076.000000,1650623075.101668,0.000000,0.000000,1.000000,0.000000,0.000000,0.000000,0.000000,3.548666,6.108781,-0.914987
1650623075.202012,1077.000000,1650623075.201798,0.000000,0.000000,1.000000,0.000000,0.000000,0.000000,0.000000,3.548242,6.108222,-0.917674
1650623075.301843,1078.000000,1650623075.301614,0.000000,0.000000,1.000000,0.000000,0.000000,0.000000,0.000000,3.546785,6.107672,-0.927411
1650623075.401791,1079.000000,1650623075.401634,0.000000,0.000000,1.000000,0.000000,0.000000,0.000000,0.000000,3.544354,6.107133,-0.943093
1650623075.501944,1080.000000,1650623075.501766,0.000000,0.000000,1.000000,0.000000,0.000000,0.000000,0.000000,3.542098,6.106609,-0.945106
1650623075.602015,1081.000000,1650623075.601770,0.000000,0.000000,1.000000,0.000000,0.000000,0.000000,0.000000,3.540012,6.106100,-0.956583
1650623075.702239,1082.000000,1650623075.701966,0.000000,0.000000,1.000000,0.000000,0.000000,0.000000,0.000000,3.535909,6.105608,-0.958579
1650623075.802180,1083.000000,1650623075.801960,0.000000,0.000000,1.000000,0.000000,0.000000,0.000000,0.000000,3.532091,6.106224,-0.942610
1650623075.901900,1084.000000,1650623075.901669,0.000000,0.000000,1.000000,0.000000,0.000000,0.000000,0.000000,3.532912,6.106798,-0.941690
1650623076.001875,1085.000000,1650623076.001669,0.000000,0.000000,1.000000,0.000000,0.000000,0.000000,0.000000,3.532660,6.106238,-0.950381
1650623076.101937,1086.000000,1650623076.101704,0.000000,0.000000,1.000000,0.000000,0.000000,0.000000,0.000000,3.530301,6.106791,-0.946510
1650623076.201931,1087.000000,1650623076.201695,0.000000,0.000000,1.000000,0.000000,0.000000,0.000000,0.000000,3.529225,6.106213,-0.952369
1650623076.305289,1088.000000,1650623076.303282,0.000000,0.000000,1.000000,0.000000,0.000000,0.000000,0.000000,3.529361,6.106750,-0.944980
1650623076.401894,1089.000000,1650623076.401633,0.000000,0.000000,1.000000,0.000000,0.000000,0.000000,0.000000,3.529550,6.107248,-0.930539
1650623076.501866,1090.000000,1650623076.501598,0.000000,0.000000,1.000000,0.000000,0.000000,0.000000,0.000000,3.537416,6.105529,-0.882745
1650623076.601873,1091.000000,1650623076.601679,0.000000,0.000000,1.000000,0.000000,0.000000,0.000000,0.000000,3.544882,6.103899,-0.857866
1650623076.701864,1092.000000,1650623076.701685,0.000000,0.000000,1.000000,0.000000,0.000000,0.000000,0.000000,3.550853,6.103450,-0.834051
1650623076.801850,1093.000000,1650623076.801675,0.000000,0.000000,1.000000,0.000000,0.000000,0.000000,0.000000,3.555391,6.103029,-0.814522
1650623076.901810,1094.000000,1650623076.901622,0.000000,0.000000,1.000000,0.000000,0.000000,0.000000,0.000000,3.559653,6.102634,-0.810424
1650623077.001855,1095.000000,1650623077.001684,0.000000,0.000000,1.000000,0.000000,0.000000,0.000000,0.000000,3.561460,6.102266,-0.812267
1650623077.102222,1096.000000,1650623077.102038,0.000000,0.000000,1.000000,0.000000,0.000000,0.000000,0.000000,3.563124,6.101923,-0.825447
1650623077.201931,1097.000000,1650623077.201723,0.000000,0.000000,1.000000,0.000000,0.000000,0.000000,0.000000,3.564649,6.100516,-0.845448
1650623077.301914,1098.000000,1650623077.301713,0.000000,0.000000,1.000000,0.000000,0.000000,0.000000,0.000000,3.566042,6.100286,-0.852602
1650623077.401833,1099.000000,1650623077.401647,0.000000,0.000000,1.000000,0.000000,0.000000,0.000000,0.000000,3.566218,6.100079,-0.853864
1650623077.501889,1100.000000,1650623077.501657,0.000000,0.000000,1.000000,0.000000,0.000000,0.000000,0.000000,3.566335,6.100985,-0.863177
1650623077.601874,1101.000000,1650623077.601688,0.000000,0.000000,1.000000,0.000000,0.000000,0.000000,0.000000,3.566400,6.100758,-0.881006
1650623077.701961,1102.000000,1650623077.701726,0.000000,0.000000,1.000000,0.000000,0.000000,0.000000,0.000000,3.565327,6.101642,-0.887622
1650623077.801898,1103.000000,1650623077.801696,0.000000,0.000000,1.000000,0.000000,0.000000,0.000000,0.000000,3.565365,6.103572,-0.880241
1650623077.901852,1104.000000,1650623077.901691,0.000000,0.000000,1.000000,0.000000,0.000000,0.000000,0.000000,3.563184,6.105396,-0.866696
1650623078.001981,1105.000000,1650623078.001772,0.000000,0.000000,1.000000,0.000000,0.000000,0.000000,0.000000,3.562185,6.108202,-0.844842
1650623078.101949,1106.000000,1650623078.101778,0.000000,0.000000,1.000000,0.000000,0.000000,0.000000,0.000000,3.559038,6.110840,-0.820695
1650623078.201800,1107.000000,1650623078.201650,0.000000,0.000000,1.000000,0.000000,0.000000,0.000000,0.000000,3.554961,6.111130,-0.815353
1650623078.301890,1108.000000,1650623078.301692,0.000000,0.000000,1.000000,0.000000,0.000000,0.000000,0.000000,3.550018,6.111381,-0.809516
1650623078.401899,1109.000000,1650623078.401685,0.000000,0.000000,1.000000,0.000000,0.000000,0.000000,0.000000,3.545363,6.110506,-0.808048
1650623078.501881,1110.000000,1650623078.501703,0.000000,0.000000,1.000000,0.000000,0.000000,0.000000,0.000000,3.543173,6.109660,-0.818835
1650623078.601879,1111.000000,1650623078.601700,0.000000,0.000000,1.000000,0.000000,0.000000,0.000000,0.000000,3.542229,6.108846,-0.835717
1650623078.702016,1112.000000,1650623078.701792,0.000000,0.000000,1.000000,0.000000,0.000000,0.000000,0.000000,3.539194,6.108065,-0.841479
1650623078.801904,1113.000000,1650623078.801649,0.000000,0.000000,1.000000,0.000000,0.000000,0.000000,0.000000,3.536369,6.107318,-0.854302
1650623078.901994,1114.000000,1650623078.901678,0.000000,0.000000,1.000000,0.000000,0.000000,0.000000,0.000000,3.532658,6.107697,-0.859360
1650623079.002070,1115.000000,1650623079.001813,0.000000,0.000000,1.000000,0.000000,0.000000,0.000000,0.000000,3.529209,6.108049,-0.856151
1650623079.101939,1116.000000,1650623079.101747,0.000000,0.000000,1.000000,0.000000,0.000000,0.000000,0.000000,3.527106,6.108375,-0.865175
1650623079.201988,1117.000000,1650623079.201821,0.000000,0.000000,1.000000,0.000000,0.000000,0.000000,0.000000,3.526278,6.107585,-0.881891
1650623079.301902,1118.000000,1650623079.301696,0.000000,0.000000,1.000000,0.000000,0.000000,0.000000,0.000000,3.525564,6.107924,-0.885800
1650623079.401809,1119.000000,1650623079.401646,0.000000,0.000000,1.000000,0.000000,0.000000,0.000000,0.000000,3.526046,6.107149,-0.885477
1650623079.501859,1120.000000,1650623079.501672,0.000000,0.000000,1.000000,0.000000,0.000000,0.000000,0.000000,3.526563,6.107503,-0.897225
1650623079.601804,1121.000000,1650623079.601610,0.000000,0.000000,1.000000,0.000000,0.000000,0.000000,0.000000,3.526018,6.107835,-0.913281
1650623079.701888,1122.000000,1650623079.701694,0.000000,0.000000,1.000000,0.000000,0.000000,0.000000,0.000000,3.525557,6.108144,-0.913284
1650623079.801917,1123.000000,1650623079.801729,0.000000,0.000000,1.000000,0.000000,0.000000,0.000000,0.000000,3.526265,6.108432,-0.906756
1650623079.902049,1124.000000,1650623079.901824,0.000000,0.000000,1.000000,0.000000,0.000000,0.000000,0.000000,3.528073,6.109788,-0.908491
1650623080.001899,1125.000000,1650623080.001693,0.000000,0.000000,1.000000,0.000000,0.000000,0.000000,0.000000,3.528731,6.112150,-0.914930
1650623080.101894,1126.000000,1650623080.101661,0.000000,0.000000,1.000000,0.000000,0.000000,0.000000,0.000000,3.537021,6.110006,-0.878295
1650623080.201916,1127.000000,1650623080.201695,0.000000,0.000000,1.000000,0.000000,0.000000,0.000000,0.000000,3.542685,6.109061,-0.843128
1650623080.301843,1128.000000,1650623080.301671,0.000000,0.000000,1.000000,0.000000,0.000000,0.000000,0.000000,3.546939,6.109251,-0.805398
1650623080.401893,1129.000000,1650623080.401712,0.000000,0.000000,1.000000,0.000000,0.000000,0.000000,0.000000,3.549847,6.108336,-0.789464
1650623080.502033,1130.000000,1650623080.501866,0.000000,0.000000,1.000000,0.000000,0.000000,0.000000,0.000000,3.552565,6.107467,-0.790438
1650623080.601775,1131.000000,1650623080.601610,0.000000,0.000000,1.000000,0.000000,0.000000,0.000000,0.000000,3.554006,6.107737,-0.799566
1650623080.701927,1132.000000,1650623080.701767,0.000000,0.000000,1.000000,0.000000,0.000000,0.000000,0.000000,3.555327,6.107992,-0.805207
1650623080.801807,1133.000000,1650623080.801631,0.000000,0.000000,1.000000,0.000000,0.000000,0.000000,0.000000,3.554353,6.107141,-0.819587
1650623080.901870,1134.000000,1650623080.901709,0.000000,0.000000,1.000000,0.000000,0.000000,0.000000,0.000000,3.554485,6.105247,-0.835871
1650623081.001772,1135.000000,1650623081.001623,0.000000,0.000000,1.000000,0.000000,0.000000,0.000000,0.000000,3.554575,6.103464,-0.857179
1650623081.102046,1136.000000,1650623081.101886,0.000000,0.000000,1.000000,0.000000,0.000000,0.000000,0.000000,3.553535,6.101791,-0.864723
1650623081.201950,1137.000000,1650623081.201692,0.000000,0.000000,1.000000,0.000000,0.000000,0.000000,0.000000,3.559066,6.099136,-0.837270
1650623081.301840,1138.000000,1650623081.301681,0.000000,0.000000,1.000000,0.000000,0.000000,0.000000,0.000000,3.558800,6.098830,-0.805310
