__time,/dwm1001/id_458E/pose_kf/header/seq,/dwm1001/id_458E/pose_kf/header/stamp,/dwm1001/id_458E/pose_kf/pose/orientation/pitch_deg,/dwm1001/id_458E/pose_kf/pose/orientation/roll_deg,/dwm1001/id_458E/pose_kf/pose/orientation/w,/dwm1001/id_458E/pose_kf/pose/orientation/x,/dwm1001/id_458E/pose_kf/pose/orientation/y,/dwm1001/id_458E/pose_kf/pose/orientation/yaw_deg,/dwm1001/id_458E/pose_kf/pose/orientation/z,/dwm1001/id_458E/pose_kf/pose/position/x,/dwm1001/id_458E/pose_kf/pose/position/y,/dwm1001/id_458E/pose_kf/pose/position/z
1650623721.703000,4313.000000,1650623721.702783,0.000000,0.000000,1.000000,0.000000,0.000000,0.000000,0.000000,0.785040,30.238974,-1.033675
1650623721.803190,4314.000000,1650623721.802776,0.000000,0.000000,1.000000,0.000000,0.000000,0.000000,0.000000,0.781727,30.239513,-1.047340
1650623721.902920,4315.000000,1650623721.902740,0.000000,0.000000,1.000000,0.000000,0.000000,0.000000,0.000000,0.781847,30.238969,-1.059547
1650623722.002997,4316.000000,1650623722.002809,0.000000,0.000000,1.000000,0.000000,0.000000,0.000000,0.000000,0.784123,30.238490,-1.070337
1650623722.103235,4317.000000,1650623722.103052,0.000000,0.000000,1.000000,0.000000,0.000000,0.000000,0.000000,0.787340,30.239164,-1.085400
1650623722.203001,4318.000000,1650623722.202775,0.000000,0.000000,1.000000,0.000000,0.000000,0.000000,0.000000,0.790350,30.238742,-1.103736
1650623722.302876,4319.000000,1650623722.302690,0.000000,0.000000,1.000000,0.000000,0.000000,0.000000,0.000000,0.794246,30.238373,-1.103415
1650623722.403138,4320.000000,1650623722.402779,0.000000,0.000000,1.000000,0.000000,0.000000,0.000000,0.000000,0.795698,30.239146,-1.111004
1650623722.502912,4321.000000,1650623722.502709,0.000000,0.000000,1.000000,0.000000,0.000000,0.000000,0.000000,0.795928,30.238812,-1.105210
1650623722.602913,4322.000000,1650623722.602713,0.000000,0.000000,1.000000,0.000000,0.000000,0.000000,0.000000,0.795006,30.238522,-1.104331
1650623722.702927,4323.000000,1650623722.702735,0.000000,0.000000,1.000000,0.000000,0.000000,0.000000,0.000000,0.795180,30.238273,-1.092048
1650623722.802909,4324.000000,1650623722.802726,0.000000,0.000000,1.000000,0.000000,0.000000,0.000000,0.000000,0.795302,30.238062,-1.090623
1650623722.902925,4325.000000,1650623722.902755,0.000000,0.000000,1.000000,0.000000,0.000000,0.000000,0.000000,0.794288,30.240067,-1.098818
1650623723.002909,4326.000000,1650623723.002725,0.000000,0.000000,1.000000,0.000000,0.000000,0.000000,0.000000,0.793294,30.240889,-1.108173
1650623723.102887,4327.000000,1650623723.102685,0.000000,0.000000,1.000000,0.000000,0.000000,0.000000,0.000000,0.792325,30.241678,-1.118630
1650623723.203009,4328.000000,1650623723.202776,0.000000,0.000000,1.000000,0.000000,0.000000,0.000000,0.000000,0.791384,30.242434,-1.130132
1650623723.302956,4329.000000,1650623723.302743,0.000000,0.000000,1.000000,0.000000,0.000000,0.000000,0.000000,0.789383,30.242064,-1.140205
1650623723.402883,4330.000000,1650623723.402689,0.000000,0.000000,1.000000,0.000000,0.000000,0.000000,0.000000,0.791840,30.241722,-1.137606
1650623723.502982,4331.000000,1650623723.502794,0.000000,0.000000,1.000000,0.000000,0.000000,0.000000,0.000000,0.793054,30.241406,-1.138178
1650623723.602880,4332.000000,1650623723.602693,0.000000,0.000000,1.000000,0.000000,0.000000,0.000000,0.000000,0.794178,30.241116,-1.140188
1650623723.702877,4333.000000,1650623723.702694,0.000000,0.000000,1.000000,0.000000,0.000000,0.000000,0.000000,0.794126,30.240850,-1.148420
1650623723.802860,4334.000000,1650623723.802689,0.000000,0.000000,1.000000,0.000000,0.000000,0.000000,0.000000,0.779879,30.246060,-1.099710
1650623723.902893,4335.000000,1650623723.902720,0.000000,0.000000,1.000000,0.000000,0.000000,0.000000,0.000000,0.771883,30.249888,-1.057734
1650623724.003125,4336.000000,1650623724.002770,0.000000,0.000000,1.000000,0.000000,0.000000,0.000000,0.000000,0.764370,30.253488,-1.036005
1650623724.102959,4337.000000,1650623724.102749,0.000000,0.000000,1.000000,0.000000,0.000000,0.000000,0.000000,0.758424,30.255772,-1.028097
1650623724.202874,4338.000000,1650623724.202683,0.000000,0.000000,1.000000,0.000000,0.000000,0.000000,0.000000,0.757246,30.257896,-1.031046
1650623724.302883,4339.000000,1650623724.302681,0.000000,0.000000,1.000000,0.000000,0.000000,0.000000,0.000000,0.756214,30.259865,-1.039569
1650623724.402887,4340.000000,1650623724.402696,0.000000,0.000000,1.000000,0.000000,0.000000,0.000000,0.000000,0.754227,30.260593,-1.055036
1650623724.502854,4341.000000,1650623724.502676,0.000000,0.000000,1.000000,0.000000,0.000000,0.000000,0.000000,0.753522,30.262328,-1.070690
1650623724.602845,4342.000000,1650623724.602668,0.000000,0.000000,1.000000,0.000000,0.000000,0.000000,0.000000,0.751843,30.263922,-1.090528
1650623724.702881,4343.000000,1650623724.702707,0.000000,0.000000,1.000000,0.000000,0.000000,0.000000,0.000000,0.749246,30.265381,-1.111123
1650623724.803061,4344.000000,1650623724.802830,0.000000,0.000000,1.000000,0.000000,0.000000,0.000000,0.000000,0.746873,30.265619,-1.117089
1650623724.902985,4345.000000,1650623724.902788,0.000000,0.000000,1.000000,0.000000,0.000000,0.000000,0.000000,0.745807,30.265796,-1.124333
1650623725.002875,4346.000000,1650623725.002692,0.000000,0.000000,1.000000,0.000000,0.000000,0.000000,0.000000,0.744883,30.267007,-1.136020
1650623725.102847,4347.000000,1650623725.102677,0.000000,0.000000,1.000000,0.000000,0.000000,0.000000,0.000000,0.726646,30.267015,-1.100342
1650623725.202845,4348.000000,1650623725.202668,0.000000,0.000000,1.000000,0.000000,0.000000,0.000000,0.000000,0.713899,30.266978,-1.074920
1650623725.302835,4349.000000,1650623725.302647,0.000000,0.000000,1.000000,0.000000,0.000000,0.000000,0.000000,0.706375,30.265810,-1.057773
1650623725.403004,4350.000000,1650623725.402783,0.000000,0.000000,1.000000,0.000000,0.000000,0.000000,0.000000,0.703805,30.263580,-1.051822
1650623725.502960,4351.000000,1650623725.502784,0.000000,0.000000,1.000000,0.000000,0.000000,0.000000,0.000000,0.703734,30.260355,-1.044528
1650623725.603331,4352.000000,1650623725.602914,0.000000,0.000000,1.000000,0.000000,0.000000,0.000000,0.000000,0.703837,30.258380,-1.044828
1650623725.702876,4353.000000,1650623725.702686,0.000000,0.000000,1.000000,0.000000,0.000000,0.000000,0.000000,0.706274,30.255415,-1.043542
1650623725.802901,4354.000000,1650623725.802718,0.000000,0.000000,1.000000,0.000000,0.000000,0.000000,0.000000,0.710901,30.252613,-1.046380
1650623725.902857,4355.000000,1650623725.902682,0.000000,0.000000,1.000000,0.000000,0.000000,0.000000,0.000000,0.715395,30.249974,-1.046718
1650623726.002889,4356.000000,1650623726.002725,0.000000,0.000000,1.000000,0.000000,0.000000,0.000000,0.000000,0.721924,30.248588,-1.051913
1650623726.103289,4357.000000,1650623726.103064,0.000000,0.000000,1.000000,0.000000,0.000000,0.000000,0.000000,0.729259,30.246209,-1.053693
1650623726.203392,4358.000000,1650623726.203185,0.000000,0.000000,1.000000,0.000000,0.000000,0.000000,0.000000,0.736240,30.243986,-1.058645
1650623726.302922,4359.000000,1650623726.302757,0.000000,0.000000,1.000000,0.000000,0.000000,0.000000,0.000000,0.741771,30.244099,-1.070664
1650623726.403168,4360.000000,1650623726.402884,0.000000,0.000000,1.000000,0.000000,0.000000,0.000000,0.000000,0.748092,30.244237,-1.087830
1650623726.503315,4361.000000,1650623726.503062,0.000000,0.000000,1.000000,0.000000,0.000000,0.000000,0.000000,0.751870,30.245487,-1.108297
1650623726.603442,4362.000000,1650623726.603266,0.000000,0.000000,1.000000,0.000000,0.000000,0.000000,0.000000,0.756504,30.246691,-1.131090
1650623726.703207,4363.000000,1650623726.703001,0.000000,0.000000,1.000000,0.000000,0.000000,0.000000,0.000000,0.764114,30.247848,-1.152048
1650623726.803229,4364.000000,1650623726.803007,0.000000,0.000000,1.000000,0.000000,0.000000,0.000000,0.000000,0.765794,30.250046,-1.122827
1650623726.903266,4365.000000,1650623726.903047,0.000000,0.000000,1.000000,0.000000,0.000000,0.000000,0.000000,0.758594,30.255400,-1.047119
1650623727.003186,4366.000000,1650623727.003017,0.000000,0.000000,1.000000,0.000000,0.000000,0.000000,0.000000,0.753929,30.260452,-1.001928
1650623727.103525,4367.000000,1650623727.103351,0.000000,0.000000,1.000000,0.000000,0.000000,0.000000,0.000000,0.751676,30.263021,-0.974808
1650623727.203570,4368.000000,1650623727.203314,0.000000,0.000000,1.000000,0.000000,0.000000,0.000000,0.000000,0.751714,30.263236,-0.957816
1650623727.303262,4369.000000,1650623727.303065,0.000000,0.000000,1.000000,0.000000,0.000000,0.000000,0.000000,0.752827,30.262316,-0.948144
1650623727.403503,4370.000000,1650623727.403321,0.000000,0.000000,1.000000,0.000000,0.000000,0.000000,0.000000,0.754954,30.260329,-0.939862
1650623727.503284,4371.000000,1650623727.503043,0.000000,0.000000,1.000000,0.000000,0.000000,0.000000,0.000000,0.756944,30.258431,-0.939370
1650623727.603238,4372.000000,1650623727.603034,0.000000,0.000000,1.000000,0.000000,0.000000,0.000000,0.000000,0.758799,30.256624,-0.948768
1650623727.703205,4373.000000,1650623727.703003,0.000000,0.000000,1.000000,0.000000,0.000000,0.000000,0.000000,0.762703,30.253818,-0.955534
1650623727.803211,4374.000000,1650623727.803020,0.000000,0.000000,1.000000,0.000000,0.000000,0.000000,0.000000,0.766353,30.250079,-0.942822
1650623727.903292,4375.000000,1650623727.903074,0.000000,0.000000,1.000000,0.000000,0.000000,0.000000,0.000000,0.771935,30.246558,-0.934819
1650623728.003687,4376.000000,1650623728.003349,0.000000,0.000000,1.000000,0.000000,0.000000,0.000000,0.000000,0.772786,30.243253,-0.930535
1650623728.103282,4377.000000,1650623728.103049,0.000000,0.000000,1.000000,0.000000,0.000000,0.000000,0.000000,0.773527,30.241253,-0.937885
1650623728.202886,4378.000000,1650623728.202666,0.000000,0.000000,1.000000,0.000000,0.000000,0.000000,0.000000,0.775255,30.239401,-0.944284
1650623728.303015,4379.000000,1650623728.302830,0.000000,0.000000,1.000000,0.000000,0.000000,0.000000,0.000000,0.776824,30.238781,-0.956204
1650623728.402880,4380.000000,1650623728.402695,0.000000,0.000000,1.000000,0.000000,0.000000,0.000000,0.000000,0.767339,30.242599,-0.914526
1650623728.503028,4381.000000,1650623728.502799,0.000000,0.000000,1.000000,0.000000,0.000000,0.000000,0.000000,0.762700,30.245145,-0.892445
1650623728.602900,4382.000000,1650623728.602714,0.000000,0.000000,1.000000,0.000000,0.000000,0.000000,0.000000,0.760478,30.246479,-0.883554
1650623728.702904,4383.000000,1650623728.702715,0.000000,0.000000,1.000000,0.000000,0.000000,0.000000,0.000000,0.758371,30.247753,-0.884104
1650623728.803054,4384.000000,1650623728.802840,0.000000,0.000000,1.000000,0.000000,0.000000,0.000000,0.000000,0.757467,30.248965,-0.894511
1650623728.902935,4385.000000,1650623728.902739,0.000000,0.000000,1.000000,0.000000,0.000000,0.000000,0.000000,0.757706,30.249024,-0.907092
1650623729.002907,4386.000000,1650623729.002711,0.000000,0.000000,1.000000,0.000000,0.000000,0.000000,0.000000,0.760114,30.247993,-0.908022
1650623729.102884,4387.000000,1650623729.102703,0.000000,0.000000,1.000000,0.000000,0.000000,0.000000,0.000000,0.764565,30.248114,-0.908248
1650623729.202903,4388.000000,1650623729.202725,0.000000,0.000000,1.000000,0.000000,0.000000,0.000000,0.000000,0.768754,30.246052,-0.906177
1650623729.302966,4389.000000,1650623729.302775,0.000000,0.000000,1.000000,0.000000,0.000000,0.000000,0.000000,0.769411,30.244115,-0.910771
1650623729.402855,4390.000000,1650623729.402686,0.000000,0.000000,1.000000,0.000000,0.000000,0.000000,0.000000,0.771091,30.242300,-0.917717
1650623729.502850,4391.000000,1650623729.502624,0.000000,0.000000,1.000000,0.000000,0.000000,0.000000,0.000000,0.769373,30.242786,-0.879322
1650623729.603066,4392.000000,1650623729.602784,0.000000,0.000000,1.000000,0.000000,0.000000,0.000000,0.000000,0.767720,30.242175,-0.855539
1650623729.702884,4393.000000,1650623729.702646,0.000000,0.000000,1.000000,0.000000,0.000000,0.000000,0.000000,0.769407,30.241616,-0.846619
1650623729.802999,4394.000000,1650623729.802795,0.000000,0.000000,1.000000,0.000000,0.000000,0.000000,0.000000,0.770976,30.243289,-0.851971
1650623729.902836,4395.000000,1650623729.902642,0.000000,0.000000,1.000000,0.000000,0.000000,0.000000,0.000000,0.772432,30.243794,-0.841161
1650623730.003258,4396.000000,1650623730.003056,0.000000,0.000000,1.000000,0.000000,0.000000,0.000000,0.000000,0.775957,30.244283,-0.839854
1650623730.103251,4397.000000,1650623730.103039,0.000000,0.000000,1.000000,0.000000,0.000000,0.000000,0.000000,0.774887,30.243665,-0.840400
1650623730.203331,4398.000000,1650623730.203096,0.000000,0.000000,1.000000,0.000000,0.000000,0.000000,0.000000,0.772750,30.243090,-0.842718
1650623730.303249,4399.000000,1650623730.303026,0.000000,0.000000,1.000000,0.000000,0.000000,0.000000,0.000000,0.773974,30.242559,-0.853981
1650623730.403622,4400.000000,1650623730.403326,0.000000,0.000000,1.000000,0.000000,0.000000,0.000000,0.000000,0.776193,30.242070,-0.871385
1650623730.503325,4401.000000,1650623730.503061,0.000000,0.000000,1.000000,0.000000,0.000000,0.000000,0.000000,0.778257,30.241621,-0.892226
1650623730.603467,4402.000000,1650623730.603279,0.000000,0.000000,1.000000,0.000000,0.000000,0.000000,0.000000,0.781260,30.242301,-0.918746
1650623730.703253,4403.000000,1650623730.703019,0.000000,0.000000,1.000000,0.000000,0.000000,0.000000,0.000000,0.781873,30.242956,-0.944216
1650623730.803269,4404.000000,1650623730.803015,0.000000,0.000000,1.000000,0.000000,0.000000,0.000000,0.000000,0.782407,30.243583,-0.968635
1650623730.903259,4405.000000,1650623730.903038,0.000000,0.000000,1.000000,0.000000,0.000000,0.000000,0.000000,0.782867,30.245273,-0.998456
1650623731.003257,4406.000000,1650623731.003051,0.000000,0.000000,1.000000,0.000000,0.000000,0.000000,0.000000,0.784350,30.246871,-1.030995
1650623731.103262,4407.000000,1650623731.103037,0.000000,0.000000,1.000000,0.000000,0.000000,0.000000,0.000000,0.784617,30.248378,-1.062058
1650623731.203461,4408.000000,1650623731.203167,0.000000,0.000000,1.000000,0.000000,0.000000,0.000000,0.000000,0.784825,30.249793,-1.077145
1650623731.303335,4409.000000,1650623731.303104,0.000000,0.000000,1.000000,0.000000,0.000000,0.000000,0.000000,0.783890,30.250028,-1.090590
1650623731.403276,4410.000000,1650623731.403032,0.000000,0.000000,1.000000,0.000000,0.000000,0.000000,0.000000,0.782969,30.250237,-1.102448
1650623731.503268,4411.000000,1650623731.503032,0.000000,0.000000,1.000000,0.000000,0.000000,0.000000,0.000000,0.779886,30.251513,-1.120031
1650623731.603237,4412.000000,1650623731.603034,0.000000,0.000000,1.000000,0.000000,0.000000,0.000000,0.000000,0.775861,30.252702,-1.135829
1650623731.703203,4413.000000,1650623731.703007,0.000000,0.000000,1.000000,0.000000,0.000000,0.000000,0.000000,0.769869,30.253808,-1.151513
1650623731.802861,4414.000000,1650623731.802703,0.000000,0.000000,1.000000,0.000000,0.000000,0.000000,0.000000,0.765306,30.255923,-1.171912
1650623731.902880,4415.000000,1650623731.902723,0.000000,0.000000,1.000000,0.000000,0.000000,0.000000,0.000000,0.761019,30.258986,-1.194393
1650623732.003261,4416.000000,1650623732.003030,0.000000,0.000000,1.000000,0.000000,0.000000,0.000000,0.000000,0.758095,30.261847,-1.217235
1650623732.103165,4417.000000,1650623732.102998,0.000000,0.000000,1.000000,0.000000,0.000000,0.000000,0.000000,0.755375,30.262329,-1.233142
1650623732.202875,4418.000000,1650623732.202705,0.000000,0.000000,1.000000,0.000000,0.000000,0.000000,0.000000,0.755036,30.262745,-1.248833
1650623732.302937,4419.000000,1650623732.302757,0.000000,0.000000,1.000000,0.000000,0.000000,0.000000,0.000000,0.750404,30.263098,-1.261080
1650623732.402918,4420.000000,1650623732.402743,0.000000,0.000000,1.000000,0.000000,0.000000,0.000000,0.000000,0.744995,30.264483,-1.277277
1650623732.502888,4421.000000,1650623732.502722,0.000000,0.000000,1.000000,0.000000,0.000000,0.000000,0.000000,0.744317,30.264662,-1.293220
1650623732.602934,4422.000000,1650623732.602723,0.000000,0.000000,1.000000,0.000000,0.000000,0.000000,0.000000,0.744839,30.264791,-1.308911
1650623732.702910,4423.000000,1650623732.702739,0.000000,0.000000,1.000000,0.000000,0.000000,0.000000,0.000000,0.745400,30.264877,-1.309027
1650623732.803269,4424.000000,1650623732.802968,0.000000,0.000000,1.000000,0.000000,0.000000,0.000000,0.000000,0.745991,30.266013,-1.314375
1650623732.902980,4425.000000,1650623732.902787,0.000000,0.000000,1.000000,0.000000,0.000000,0.000000,0.000000,0.745516,30.267050,-1.322334
1650623733.003054,4426.000000,1650623733.002847,0.000000,0.000000,1.000000,0.000000,0.000000,0.000000,0.000000,0.745121,30.265811,-1.327155
1650623733.102936,4427.000000,1650623733.102758,0.000000,0.000000,1.000000,0.000000,0.000000,0.000000,0.000000,0.744799,30.265699,-1.333814
1650623733.202966,4428.000000,1650623733.202778,0.000000,0.000000,1.000000,0.000000,0.000000,0.000000,0.000000,0.744546,30.265563,-1.340627
1650623733.302891,4429.000000,1650623733.302711,0.000000,0.000000,1.000000,0.000000,0.000000,0.000000,0.000000,0.743264,30.264317,-1.338722
1650623733.402858,4430.000000,1650623733.402613,0.000000,0.000000,1.000000,0.000000,0.000000,0.000000,0.000000,0.743191,30.263116,-1.338148
1650623733.502985,4431.000000,1650623733.502778,0.000000,0.000000,1.000000,0.000000,0.000000,0.000000,0.000000,0.744260,30.260873,-1.337253
1650623733.603034,4432.000000,1650623733.602832,0.000000,0.000000,1.000000,0.000000,0.000000,0.000000,0.000000,0.748582,30.259834,-1.340906
1650623733.702937,4433.000000,1650623733.702751,0.000000,0.000000,1.000000,0.000000,0.000000,0.000000,0.000000,0.750513,30.258847,-1.339252
1650623733.802919,4434.000000,1650623733.802744,0.000000,0.000000,1.000000,0.000000,0.000000,0.000000,0.000000,0.750175,30.259001,-1.340588
1650623733.902892,4435.000000,1650623733.902712,0.000000,0.000000,1.000000,0.000000,0.000000,0.000000,0.000000,0.750964,30.258055,-1.339157
1650623734.002890,4436.000000,1650623734.002713,0.000000,0.000000,1.000000,0.000000,0.000000,0.000000,0.000000,0.751723,30.257161,-1.342344
1650623734.102942,4437.000000,1650623734.102772,0.000000,0.000000,1.000000,0.000000,0.000000,0.000000,0.000000,0.751361,30.255230,-1.341098
1650623734.202921,4438.000000,1650623734.202746,0.000000,0.000000,1.000000,0.000000,0.000000,0.000000,0.000000,0.751030,30.254503,-1.345289
1650623734.302925,4439.000000,1650623734.302754,0.000000,0.000000,1.000000,0.000000,0.000000,0.000000,0.000000,0.750729,30.252737,-1.346637
1650623734.403131,4440.000000,1650623734.402904,0.000000,0.000000,1.000000,0.000000,0.000000,0.000000,0.000000,0.751546,30.251083,-1.352523
1650623734.502938,4441.000000,1650623734.502751,0.000000,0.000000,1.000000,0.000000,0.000000,0.000000,0.000000,0.754508,30.250631,-1.357926
1650623734.602945,4442.000000,1650623734.602759,0.000000,0.000000,1.000000,0.000000,0.000000,0.000000,0.000000,0.728958,30.258946,-1.313673
1650623734.702860,4443.000000,1650623734.702724,0.000000,0.000000,1.000000,0.000000,0.000000,0.000000,0.000000,0.711421,30.264622,-1.279914
1650623734.802962,4444.000000,1650623734.802809,0.000000,0.000000,1.000000,0.000000,0.000000,0.000000,0.000000,0.698240,30.266693,-1.250647
1650623734.902889,4445.000000,1650623734.902717,0.000000,0.000000,1.000000,0.000000,0.000000,0.000000,0.000000,0.691393,30.267531,-1.224936
1650623735.002846,4446.000000,1650623735.002702,0.000000,0.000000,1.000000,0.000000,0.000000,0.000000,0.000000,0.687276,30.268294,-1.189782
1650623735.102859,4447.000000,1650623735.102714,0.000000,0.000000,1.000000,0.000000,0.000000,0.000000,0.000000,0.686834,30.267894,-1.168204
1650623735.202964,4448.000000,1650623735.202796,0.000000,0.000000,1.000000,0.000000,0.000000,0.000000,0.000000,0.686585,30.268578,-1.154850
1650623735.302829,4449.000000,1650623735.302685,0.000000,0.000000,1.000000,0.000000,0.000000,0.000000,0.000000,0.687601,30.268106,-1.149409
1650623735.402840,4450.000000,1650623735.402700,0.000000,0.000000,1.000000,0.000000,0.000000,0.000000,0.000000,0.693072,30.267634,-1.146725
1650623735.502821,4451.000000,1650623735.502666,0.000000,0.000000,1.000000,0.000000,0.000000,0.000000,0.000000,0.699458,30.267166,-1.148302
1650623735.602800,4452.000000,1650623735.602637,0.000000,0.000000,1.000000,0.000000,0.000000,0.000000,0.000000,0.705591,30.266704,-1.154766
1650623735.702817,4453.000000,1650623735.702635,0.000000,0.000000,1.000000,0.000000,0.000000,0.000000,0.000000,0.712551,30.266250,-1.163484
1650623735.802816,4454.000000,1650623735.802636,0.000000,0.000000,1.000000,0.000000,0.000000,0.000000,0.000000,0.721358,30.265807,-1.175154
1650623735.902901,4455.000000,1650623735.902741,0.000000,0.000000,1.000000,0.000000,0.000000,0.000000,0.000000,0.719886,30.268646,-1.127536
1650623736.003161,4456.000000,1650623736.002836,0.000000,0.000000,1.000000,0.000000,0.000000,0.000000,0.000000,0.718512,30.270219,-1.097293
1650623736.102890,4457.000000,1650623736.102719,0.000000,0.000000,1.000000,0.000000,0.000000,0.000000,0.000000,0.718324,30.270593,-1.079738
1650623736.202852,4458.000000,1650623736.202692,0.000000,0.000000,1.000000,0.000000,0.000000,0.000000,0.000000,0.720349,30.270921,-1.072768
1650623736.302848,4459.000000,1650623736.302701,0.000000,0.000000,1.000000,0.000000,0.000000,0.000000,0.000000,0.725547,30.269028,-1.054186
1650623736.403042,4460.000000,1650623736.402894,0.000000,0.000000,1.000000,0.000000,0.000000,0.000000,0.000000,0.730459,30.267221,-1.041419
1650623736.502872,4461.000000,1650623736.502694,0.000000,0.000000,1.000000,0.000000,0.000000,0.000000,0.000000,0.736174,30.265503,-1.022954
1650623736.602893,4462.000000,1650623736.602733,0.000000,0.000000,1.000000,0.000000,0.000000,0.000000,0.000000,0.743722,30.262784,-1.012752
1650623736.702884,4463.000000,1650623736.702716,0.000000,0.000000,1.000000,0.000000,0.000000,0.000000,0.000000,0.749711,30.261309,-1.008872
1650623736.803031,4464.000000,1650623736.802792,0.000000,0.000000,1.000000,0.000000,0.000000,0.000000,0.000000,0.757482,30.261013,-1.007024
1650623736.902877,4465.000000,1650623736.902702,0.000000,0.000000,1.000000,0.000000,0.000000,0.000000,0.000000,0.765826,30.259653,-0.991794
1650623737.002912,4466.000000,1650623737.002722,0.000000,0.000000,1.000000,0.000000,0.000000,0.000000,0.000000,0.770330,30.259472,-0.990352
1650623737.103231,4467.000000,1650623737.103072,0.000000,0.000000,1.000000,0.000000,0.000000,0.000000,0.000000,0.776647,30.258222,-0.976324
1650623737.202886,4468.000000,1650623737.202688,0.000000,0.000000,1.000000,0.000000,0.000000,0.000000,0.000000,0.783576,30.258148,-0.975232
1650623737.302881,4469.000000,1650623737.302729,0.000000,0.000000,1.000000,0.000000,0.000000,0.000000,0.000000,0.791069,30.257003,-0.979286
1650623737.402883,4470.000000,1650623737.402722,0.000000,0.000000,1.000000,0.000000,0.000000,0.000000,0.000000,0.799080,30.253758,-0.979390
1650623737.502961,4471.000000,1650623737.502780,0.000000,0.000000,1.000000,0.000000,0.000000,0.000000,0.000000,0.806475,30.250718,-0.988596
1650623737.603058,4472.000000,1650623737.602835,0.000000,0.000000,1.000000,0.000000,0.000000,0.000000,0.000000,0.811094,30.248969,-1.004093
1650623737.702940,4473.000000,1650623737.702742,0.000000,0.000000,1.000000,0.000000,0.000000,0.000000,0.000000,0.808723,30.250625,-0.969945
1650623737.802931,4474.000000,1650623737.802772,0.000000,0.000000,1.000000,0.000000,0.000000,0.000000,0.000000,0.806304,30.251132,-0.951916
1650623737.902932,4475.000000,1650623737.902778,0.000000,0.000000,1.000000,0.000000,0.000000,0.000000,0.000000,0.806039,30.251640,-0.948568
1650623738.002874,4476.000000,1650623738.002712,0.000000,0.000000,1.000000,0.000000,0.000000,0.000000,0.000000,0.803457,30.251055,-0.948017
1650623738.102892,4477.000000,1650623738.102739,0.000000,0.000000,1.000000,0.000000,0.000000,0.000000,0.000000,0.803064,30.250527,-0.956592
1650623738.202919,4478.000000,1650623738.202729,0.000000,0.000000,1.000000,0.000000,0.000000,0.000000,0.000000,0.801479,30.248962,-0.959383
1650623738.302929,4479.000000,1650623738.302743,0.000000,0.000000,1.000000,0.000000,0.000000,0.000000,0.000000,0.799868,30.247512,-0.969515
1650623738.403318,4480.000000,1650623738.403079,0.000000,0.000000,1.000000,0.000000,0.000000,0.000000,0.000000,0.799336,30.245083,-0.959246
1650623738.502926,4481.000000,1650623738.502738,0.000000,0.000000,1.000000,0.000000,0.000000,0.000000,0.000000,0.802011,30.243913,-0.961668
1650623738.602914,4482.000000,1650623738.602716,0.000000,0.000000,1.000000,0.000000,0.000000,0.000000,0.000000,0.805535,30.243937,-0.974643
1650623738.702922,4483.000000,1650623738.702723,0.000000,0.000000,1.000000,0.000000,0.000000,0.000000,0.000000,0.809856,30.241816,-0.984009
1650623738.802894,4484.000000,1650623738.802708,0.000000,0.000000,1.000000,0.000000,0.000000,0.000000,0.000000,0.811652,30.240942,-0.999566
1650623738.902889,4485.000000,1650623738.902705,0.000000,0.000000,1.000000,0.000000,0.000000,0.000000,0.000000,0.812151,30.242338,-1.021033
1650623739.002913,4486.000000,1650623739.002719,0.000000,0.000000,1.000000,0.000000,0.000000,0.000000,0.000000,0.812520,30.242603,-1.042488
1650623739.102882,4487.000000,1650623739.102693,0.000000,0.000000,1.000000,0.000000,0.000000,0.000000,0.000000,0.810588,30.242886,-1.063085
1650623739.202965,4488.000000,1650623739.202744,0.000000,0.000000,1.000000,0.000000,0.000000,0.000000,0.000000,0.809766,30.244272,-1.088469
1650623739.302974,4489.000000,1650623739.302786,0.000000,0.000000,1.000000,0.000000,0.000000,0.000000,0.000000,0.809999,30.244517,-1.090986
1650623739.402842,4490.000000,1650623739.402698,0.000000,0.000000,1.000000,0.000000,0.000000,0.000000,0.000000,0.809053,30.244769,-1.094944
1650623739.502849,4491.000000,1650623739.502687,0.000000,0.000000,1.000000,0.000000,0.000000,0.000000,0.000000,0.807000,30.246116,-1.107539
1650623739.602893,4492.000000,1650623739.602694,0.000000,0.000000,1.000000,0.000000,0.000000,0.000000,0.000000,0.806091,30.247405,-1.121952
1650623739.702892,4493.000000,1650623739.702707,0.000000,0.000000,1.000000,0.000000,0.000000,0.000000,0.000000,0.803000,30.247541,-1.132445
1650623739.802894,4494.000000,1650623739.802720,0.000000,0.000000,1.000000,0.000000,0.000000,0.000000,0.000000,0.802218,30.245498,-1.140776
1650623739.902889,4495.000000,1650623739.902735,0.000000,0.000000,1.000000,0.000000,0.000000,0.000000,0.000000,0.798174,30.243580,-1.147829
1650623740.003590,4496.000000,1650623740.003357,0.000000,0.000000,1.000000,0.000000,0.000000,0.000000,0.000000,0.793240,30.242875,-1.153650
1650623740.103218,4497.000000,1650623740.103050,0.000000,0.000000,1.000000,0.000000,0.000000,0.000000,0.000000,0.780940,30.245501,-1.103446
1650623740.203448,4498.000000,1650623740.203150,0.000000,0.000000,1.000000,0.000000,0.000000,0.000000,0.000000,0.773707,30.246904,-1.066501
1650623740.303243,4499.000000,1650623740.303060,0.000000,0.000000,1.000000,0.000000,0.000000,0.000000,0.000000,0.771286,30.248237,-1.047991
1650623740.403272,4500.000000,1650623740.403070,0.000000,0.000000,1.000000,0.000000,0.000000,0.000000,0.000000,0.771239,30.249498,-1.043979
1650623740.503342,4501.000000,1650623740.503067,0.000000,0.000000,1.000000,0.000000,0.000000,0.000000,0.000000,0.772342,30.249598,-1.042594
1650623740.602906,4502.000000,1650623740.602734,0.000000,0.000000,1.000000,0.000000,0.000000,0.000000,0.000000,0.773437,30.250779,-1.050183
1650623740.702901,4503.000000,1650623740.702732,0.000000,0.000000,1.000000,0.000000,0.000000,0.000000,0.000000,0.774516,30.250800,-1.057499
1650623740.803064,4504.000000,1650623740.802782,0.000000,0.000000,1.000000,0.000000,0.000000,0.000000,0.000000,0.778846,30.249722,-1.044377
1650623740.902872,4505.000000,1650623740.902652,0.000000,0.000000,1.000000,0.000000,0.000000,0.000000,0.000000,0.780782,30.247611,-1.031017
1650623741.002850,4506.000000,1650623741.002662,0.000000,0.000000,1.000000,0.000000,0.000000,0.000000,0.000000,0.780448,30.245619,-1.025515
1650623741.103037,4507.000000,1650623741.102805,0.000000,0.000000,1.000000,0.000000,0.000000,0.000000,0.000000,0.779056,30.243746,-1.021915
1650623741.202910,4508.000000,1650623741.202713,0.000000,0.000000,1.000000,0.000000,0.000000,0.000000,0.000000,0.777759,30.241990,-1.024983
1650623741.302934,4509.000000,1650623741.302760,0.000000,0.000000,1.000000,0.000000,0.000000,0.000000,0.000000,0.775465,30.242532,-1.036860
1650623741.402911,4510.000000,1650623741.402725,0.000000,0.000000,1.000000,0.000000,0.000000,0.000000,0.000000,0.772233,30.243061,-1.048299
1650623741.502900,4511.000000,1650623741.502682,0.000000,0.000000,1.000000,0.000000,0.000000,0.000000,0.000000,0.771394,30.242486,-1.062522
1650623741.603005,4512.000000,1650623741.602812,0.000000,0.000000,1.000000,0.000000,0.000000,0.000000,0.000000,0.769548,30.244139,-1.080198
1650623741.702862,4513.000000,1650623741.702688,0.000000,0.000000,1.000000,0.000000,0.000000,0.000000,0.000000,0.768933,30.244621,-1.097126
1650623741.802861,4514.000000,1650623741.802705,0.000000,0.000000,1.000000,0.000000,0.000000,0.000000,0.000000,0.768392,30.245084,-1.090727
1650623741.902846,4515.000000,1650623741.902706,0.000000,0.000000,1.000000,0.000000,0.000000,0.000000,0.000000,0.769010,30.244437,-1.090183
1650623742.002876,4516.000000,1650623742.002690,0.000000,0.000000,1.000000,0.000000,0.000000,0.000000,0.000000,0.769630,30.244924,-1.095259
1650623742.103273,4517.000000,1650623742.103056,0.000000,0.000000,1.000000,0.000000,0.000000,0.000000,0.000000,0.768067,30.245389,-1.103303
1650623742.202899,4518.000000,1650623742.202730,0.000000,0.000000,1.000000,0.000000,0.000000,0.000000,0.000000,0.768805,30.244742,-1.111765
1650623742.302948,4519.000000,1650623742.302778,0.000000,0.000000,1.000000,0.000000,0.000000,0.000000,0.000000,0.769532,30.245226,-1.124648
1650623742.403573,4520.000000,1650623742.403306,0.000000,0.000000,1.000000,0.000000,0.000000,0.000000,0.000000,0.769156,30.245688,-1.134498
1650623742.503308,4521.000000,1650623742.503073,0.000000,0.000000,1.000000,0.000000,0.000000,0.000000,0.000000,0.772097,30.246126,-1.147876
1650623742.603266,4522.000000,1650623742.603076,0.000000,0.000000,1.000000,0.000000,0.000000,0.000000,0.000000,0.772712,30.246541,-1.160589
1650623742.703250,4523.000000,1650623742.703048,0.000000,0.000000,1.000000,0.000000,0.000000,0.000000,0.000000,0.775487,30.245842,-1.175066
1650623742.803255,4524.000000,1650623742.803098,0.000000,0.000000,1.000000,0.000000,0.000000,0.000000,0.000000,0.781385,30.244092,-1.188800
1650623742.903261,4525.000000,1650623742.903055,0.000000,0.000000,1.000000,0.000000,0.000000,0.000000,0.000000,0.785855,30.243534,-1.203416
1650623743.003254,4526.000000,1650623743.003069,0.000000,0.000000,1.000000,0.000000,0.000000,0.000000,0.000000,0.776968,30.248467,-1.161604
1650623743.103279,4527.000000,1650623743.103051,0.000000,0.000000,1.000000,0.000000,0.000000,0.000000,0.000000,0.769656,30.252033,-1.138296
1650623743.203520,4528.000000,1650623743.203330,0.000000,0.000000,1.000000,0.000000,0.000000,0.000000,0.000000,0.763856,30.253206,-1.117470
1650623743.303270,4529.000000,1650623743.303062,0.000000,0.000000,1.000000,0.000000,0.000000,0.000000,0.000000,0.759503,30.254293,-1.107129
1650623743.402970,4530.000000,1650623743.402809,0.000000,0.000000,1.000000,0.000000,0.000000,0.000000,0.000000,0.758711,30.254208,-1.104448
1650623743.502855,4531.000000,1650623743.502695,0.000000,0.000000,1.000000,0.000000,0.000000,0.000000,0.000000,0.758012,30.255195,-1.105899
1650623743.602983,4532.000000,1650623743.602755,0.000000,0.000000,1.000000,0.000000,0.000000,0.000000,0.000000,0.760674,30.253925,-1.109700
1650623743.702983,4533.000000,1650623743.702811,0.000000,0.000000,1.000000,0.000000,0.000000,0.000000,0.000000,0.764320,30.252705,-1.115751
1650623743.802998,4534.000000,1650623743.802821,0.000000,0.000000,1.000000,0.000000,0.000000,0.000000,0.000000,0.765613,30.251538,-1.123951
1650623743.902885,4535.000000,1650623743.902740,0.000000,0.000000,1.000000,0.000000,0.000000,0.000000,0.000000,0.767945,30.254788,-1.138232
1650623744.003177,4536.000000,1650623744.003026,0.000000,0.000000,1.000000,0.000000,0.000000,0.000000,0.000000,0.770162,30.256751,-1.151071
1650623744.102930,4537.000000,1650623744.102782,0.000000,0.000000,1.000000,0.000000,0.000000,0.000000,0.000000,0.768991,30.256403,-1.156052
1650623744.202886,4538.000000,1650623744.202726,0.000000,0.000000,1.000000,0.000000,0.000000,0.000000,0.000000,0.768981,30.256053,-1.164780
1650623744.302879,4539.000000,1650623744.302727,0.000000,0.000000,1.000000,0.000000,0.000000,0.000000,0.000000,0.770070,30.256793,-1.178703
1650623744.402859,4540.000000,1650623744.402722,0.000000,0.000000,1.000000,0.000000,0.000000,0.000000,0.000000,0.761288,30.261834,-1.135498
1650623744.502885,4541.000000,1650623744.502738,0.000000,0.000000,1.000000,0.000000,0.000000,0.000000,0.000000,0.754106,30.264385,-1.090769
1650623744.602849,4542.000000,1650623744.602723,0.000000,0.000000,1.000000,0.000000,0.000000,0.000000,0.000000,0.750638,30.265666,-1.065624
1650623744.702853,4543.000000,1650623744.702686,0.000000,0.000000,1.000000,0.000000,0.000000,0.000000,0.000000,0.749598,30.266834,-1.054476
1650623744.803192,4544.000000,1650623744.803006,0.000000,0.000000,1.000000,0.000000,0.000000,0.000000,0.000000,0.750856,30.267895,-1.041453
1650623744.902885,4545.000000,1650623744.902682,0.000000,0.000000,1.000000,0.000000,0.000000,0.000000,0.000000,0.753187,30.267762,-1.014552
1650623745.002861,4546.000000,1650623745.002695,0.000000,0.000000,1.000000,0.000000,0.000000,0.000000,0.000000,0.757613,30.266506,-1.002600
1650623745.102851,4547.000000,1650623745.102671,0.000000,0.000000,1.000000,0.000000,0.000000,0.000000,0.000000,0.762914,30.265282,-0.983234
1650623745.202892,4548.000000,1650623745.202731,0.000000,0.000000,1.000000,0.000000,0.000000,0.000000,0.000000,0.766843,30.265186,-0.977745
1650623745.302971,4549.000000,1650623745.302810,0.000000,0.000000,1.000000,0.000000,0.000000,0.000000,0.000000,0.766191,30.263977,-0.960576
1650623745.402913,4550.000000,1650623745.402736,0.000000,0.000000,1.000000,0.000000,0.000000,0.000000,0.000000,0.765570,30.260632,-0.947541
1650623745.502913,4551.000000,1650623745.502738,0.000000,0.000000,1.000000,0.000000,0.000000,0.000000,0.000000,0.767163,30.257458,-0.942518
1650623745.603069,4552.000000,1650623745.602798,0.000000,0.000000,1.000000,0.000000,0.000000,0.000000,0.000000,0.766483,30.255548,-0.945184
1650623745.702912,4553.000000,1650623745.702739,0.000000,0.000000,1.000000,0.000000,0.000000,0.000000,0.000000,0.763655,30.253749,-0.951182
1650623745.802891,4554.000000,1650623745.802723,0.000000,0.000000,1.000000,0.000000,0.000000,0.000000,0.000000,0.762077,30.252059,-0.963584
1650623745.902894,4555.000000,1650623745.902714,0.000000,0.000000,1.000000,0.000000,0.000000,0.000000,0.000000,0.762776,30.250478,-0.978072
1650623746.002957,4556.000000,1650623746.002799,0.000000,0.000000,1.000000,0.000000,0.000000,0.000000,0.000000,0.764534,30.249003,-0.993723
1650623746.102890,4557.000000,1650623746.102731,0.000000,0.000000,1.000000,0.000000,0.000000,0.000000,0.000000,0.764017,30.248723,-1.013683
1650623746.202922,4558.000000,1650623746.202750,0.000000,0.000000,1.000000,0.000000,0.000000,0.000000,0.000000,0.766803,30.248481,-1.011128
1650623746.302888,4559.000000,1650623746.302725,0.000000,0.000000,1.000000,0.000000,0.000000,0.000000,0.000000,0.772701,30.248275,-1.020032
1650623746.403147,4560.000000,1650623746.402915,0.000000,0.000000,1.000000,0.000000,0.000000,0.000000,0.000000,0.776074,30.245922,-1.027012
1650623746.502924,4561.000000,1650623746.502736,0.000000,0.000000,1.000000,0.000000,0.000000,0.000000,0.000000,0.781410,30.244815,-1.030518
1650623746.602995,4562.000000,1650623746.602823,0.000000,0.000000,1.000000,0.000000,0.000000,0.000000,0.000000,0.787498,30.244889,-1.041167
1650623746.702913,4563.000000,1650623746.702744,0.000000,0.000000,1.000000,0.000000,0.000000,0.000000,0.000000,0.792098,30.243897,-1.044943
1650623746.802882,4564.000000,1650623746.802732,0.000000,0.000000,1.000000,0.000000,0.000000,0.000000,0.000000,0.796373,30.244079,-1.042922
1650623746.902919,4565.000000,1650623746.902751,0.000000,0.000000,1.000000,0.000000,0.000000,0.000000,0.000000,0.797059,30.243188,-1.025663
1650623747.003149,4566.000000,1650623747.002977,0.000000,0.000000,1.000000,0.000000,0.000000,0.000000,0.000000,0.798717,30.242374,-1.000262
1650623747.103302,4567.000000,1650623747.103125,0.000000,0.000000,1.000000,0.000000,0.000000,0.000000,0.000000,0.800201,30.240544,-0.983217
1650623747.203091,4568.000000,1650623747.202862,0.000000,0.000000,1.000000,0.000000,0.000000,0.000000,0.000000,0.790619,30.243208,-0.919379
1650623747.302972,4569.000000,1650623747.302768,0.000000,0.000000,1.000000,0.000000,0.000000,0.000000,0.000000,0.784782,30.244660,-0.877673
1650623747.403021,4570.000000,1650623747.402777,0.000000,0.000000,1.000000,0.000000,0.000000,0.000000,0.000000,0.780328,30.246050,-0.856463
1650623747.502971,4571.000000,1650623747.502783,0.000000,0.000000,1.000000,0.000000,0.000000,0.000000,0.000000,0.777196,30.248467,-0.840432
1650623747.602946,4572.000000,1650623747.602777,0.000000,0.000000,1.000000,0.000000,0.000000,0.000000,0.000000,0.776414,30.249665,-0.819708
1650623747.703032,4573.000000,1650623747.702793,0.000000,0.000000,1.000000,0.000000,0.000000,0.000000,0.000000,0.774588,30.251889,-0.814664
1650623747.802918,4574.000000,1650623747.802738,0.000000,0.000000,1.000000,0.000000,0.000000,0.000000,0.000000,0.772869,30.253983,-0.821436
1650623747.902916,4575.000000,1650623747.902745,0.000000,0.000000,1.000000,0.000000,0.000000,0.000000,0.000000,0.772346,30.254860,-0.817750
1650623748.003313,4576.000000,1650623748.003132,0.000000,0.000000,1.000000,0.000000,0.000000,0.000000,0.000000,0.772956,30.254583,-0.798376
1650623748.102921,4577.000000,1650623748.102747,0.000000,0.000000,1.000000,0.000000,0.000000,0.000000,0.000000,0.773544,30.253217,-0.791385
1650623748.202950,4578.000000,1650623748.202774,0.000000,0.000000,1.000000,0.000000,0.000000,0.000000,0.000000,0.775199,30.251917,-0.797084
1650623748.302927,4579.000000,1650623748.302746,0.000000,0.000000,1.000000,0.000000,0.000000,0.000000,0.000000,0.776767,30.250683,-0.810100
1650623748.402857,4580.000000,1650623748.402716,0.000000,0.000000,1.000000,0.000000,0.000000,0.000000,0.000000,0.776066,30.250608,-0.830910
1650623748.502835,4581.000000,1650623748.502690,0.000000,0.000000,1.000000,0.000000,0.000000,0.000000,0.000000,0.776494,30.250536,-0.838993
1650623748.602836,4582.000000,1650623748.602701,0.000000,0.000000,1.000000,0.000000,0.000000,0.000000,0.000000,0.775807,30.250469,-0.851774
1650623748.702877,4583.000000,1650623748.702723,0.000000,0.000000,1.000000,0.000000,0.000000,0.000000,0.000000,0.775158,30.250407,-0.871455
1650623748.803104,4584.000000,1650623748.802944,0.000000,0.000000,1.000000,0.000000,0.000000,0.000000,0.000000,0.775638,30.250348,-0.892879
1650623748.902914,4585.000000,1650623748.902734,0.000000,0.000000,1.000000,0.000000,0.000000,0.000000,0.000000,0.776093,30.250294,-0.915127
1650623749.002936,4586.000000,1650623749.002741,0.000000,0.000000,1.000000,0.000000,0.000000,0.000000,0.000000,0.774342,30.250244,-0.936513
1650623749.102899,4587.000000,1650623749.102703,0.000000,0.000000,1.000000,0.000000,0.000000,0.000000,0.000000,0.772692,30.249108,-0.959452
1650623749.202889,4588.000000,1650623749.202681,0.000000,0.000000,1.000000,0.000000,0.000000,0.000000,0.000000,0.772232,30.249128,-0.985458
1650623749.302890,4589.000000,1650623749.302692,0.000000,0.000000,1.000000,0.000000,0.000000,0.000000,0.000000,0.760905,30.253513,-0.953072
1650623749.402887,4590.000000,1650623749.402733,0.000000,0.000000,1.000000,0.000000,0.000000,0.000000,0.000000,0.754602,30.255469,-0.937288
1650623749.502878,4591.000000,1650623749.502716,0.000000,0.000000,1.000000,0.000000,0.000000,0.000000,0.000000,0.753067,30.256213,-0.926981
1650623749.603199,4592.000000,1650623749.602906,0.000000,0.000000,1.000000,0.000000,0.000000,0.000000,0.000000,0.753861,30.255809,-0.925173
1650623749.702996,4593.000000,1650623749.702765,0.000000,0.000000,1.000000,0.000000,0.000000,0.000000,0.000000,0.756851,30.254322,-0.908137
1650623749.802896,4594.000000,1650623749.802730,0.000000,0.000000,1.000000,0.000000,0.000000,0.000000,0.000000,0.759724,30.252907,-0.903128
1650623749.902895,4595.000000,1650623749.902736,0.000000,0.000000,1.000000,0.000000,0.000000,0.000000,0.000000,0.761383,30.251565,-0.885473
1650623750.002923,4596.000000,1650623750.002773,0.000000,0.000000,1.000000,0.000000,0.000000,0.000000,0.000000,0.761888,30.250297,-0.879096
1650623750.102889,4597.000000,1650623750.102711,0.000000,0.000000,1.000000,0.000000,0.000000,0.000000,0.000000,0.762389,30.249102,-0.883552
1650623750.202914,4598.000000,1650623750.202758,0.000000,0.000000,1.000000,0.000000,0.000000,0.000000,0.000000,0.763974,30.249071,-0.897585
1650623750.302895,4599.000000,1650623750.302714,0.000000,0.000000,1.000000,0.000000,0.000000,0.000000,0.000000,0.764396,30.250139,-0.920782
1650623750.403056,4600.000000,1650623750.402831,0.000000,0.000000,1.000000,0.000000,0.000000,0.000000,0.000000,0.765899,30.250063,-0.941442
1650623750.502928,4601.000000,1650623750.502757,0.000000,0.000000,1.000000,0.000000,0.000000,0.000000,0.000000,0.737885,30.249994,-0.907212
1650623750.602945,4602.000000,1650623750.602783,0.000000,0.000000,1.000000,0.000000,0.000000,0.000000,0.000000,0.720215,30.251023,-0.878428
1650623750.702935,4603.000000,1650623750.702773,0.000000,0.000000,1.000000,0.000000,0.000000,0.000000,0.000000,0.709105,30.250907,-0.860563
1650623750.802885,4604.000000,1650623750.802721,0.000000,0.000000,1.000000,0.000000,0.000000,0.000000,0.000000,0.706403,30.249706,-0.840302
1650623750.902888,4605.000000,1650623750.902737,0.000000,0.000000,1.000000,0.000000,0.000000,0.000000,0.000000,0.707290,30.248576,-0.816963
1650623751.002891,4606.000000,1650623751.002730,0.000000,0.000000,1.000000,0.000000,0.000000,0.000000,0.000000,0.710467,30.248605,-0.814091
1650623751.102906,4607.000000,1650623751.102747,0.000000,0.000000,1.000000,0.000000,0.000000,0.000000,0.000000,0.714700,30.248640,-0.822796
1650623751.203119,4608.000000,1650623751.202941,0.000000,0.000000,1.000000,0.000000,0.000000,0.000000,0.000000,0.723181,30.247589,-0.840169
1650623751.302953,4609.000000,1650623751.302786,0.000000,0.000000,1.000000,0.000000,0.000000,0.000000,0.000000,0.730192,30.246605,-0.858566
1650623751.402887,4610.000000,1650623751.402745,0.000000,0.000000,1.000000,0.000000,0.000000,0.000000,0.000000,0.736879,30.245687,-0.881944
1650623751.502882,4611.000000,1650623751.502726,0.000000,0.000000,1.000000,0.000000,0.000000,0.000000,0.000000,0.743234,30.243743,-0.898767
1650623751.602947,4612.000000,1650623751.602797,0.000000,0.000000,1.000000,0.000000,0.000000,0.000000,0.000000,0.748162,30.239743,-0.907658
1650623751.702937,4613.000000,1650623751.702769,0.000000,0.000000,1.000000,0.000000,0.000000,0.000000,0.000000,0.754998,30.235993,-0.922630
1650623751.802981,4614.000000,1650623751.802806,0.000000,0.000000,1.000000,0.000000,0.000000,0.000000,0.000000,0.751620,30.236849,-0.901479
1650623751.902958,4615.000000,1650623751.902782,0.000000,0.000000,1.000000,0.000000,0.000000,0.000000,0.000000,0.750593,30.237695,-0.894083
1650623752.003300,4616.000000,1650623752.003081,0.000000,0.000000,1.000000,0.000000,0.000000,0.000000,0.000000,0.750701,30.239616,-0.901516
1650623752.103318,4617.000000,1650623752.103107,0.000000,0.000000,1.000000,0.000000,0.000000,0.000000,0.000000,0.750793,30.240366,-0.911875
1650623752.203186,4618.000000,1650623752.202954,0.000000,0.000000,1.000000,0.000000,0.000000,0.000000,0.000000,0.755232,30.241095,-0.929057
1650623752.302952,4619.000000,1650623752.302768,0.000000,0.000000,1.000000,0.000000,0.000000,0.000000,0.000000,0.759405,30.240709,-0.949532
1650623752.403015,4620.000000,1650623752.402819,0.000000,0.000000,1.000000,0.000000,0.000000,0.000000,0.000000,0.763316,30.239271,-0.969104
1650623752.502960,4621.000000,1650623752.502777,0.000000,0.000000,1.000000,0.000000,0.000000,0.000000,0.000000,0.765878,30.237932,-0.985360
1650623752.603011,4622.000000,1650623752.602822,0.000000,0.000000,1.000000,0.000000,0.000000,0.000000,0.000000,0.767159,30.237779,-1.005667
1650623752.702912,4623.000000,1650623752.702737,0.000000,0.000000,1.000000,0.000000,0.000000,0.000000,0.000000,0.768319,30.237656,-1.027415
1650623752.803173,4624.000000,1650623752.802936,0.000000,0.000000,1.000000,0.000000,0.000000,0.000000,0.000000,0.768272,30.235381,-1.046482
1650623752.903049,4625.000000,1650623752.902838,0.000000,0.000000,1.000000,0.000000,0.000000,0.000000,0.000000,0.769268,30.234348,-1.068599
1650623753.002902,4626.000000,1650623753.002709,0.000000,0.000000,1.000000,0.000000,0.000000,0.000000,0.000000,0.772342,30.232309,-1.071839
1650623753.102896,4627.000000,1650623753.102735,0.000000,0.000000,1.000000,0.000000,0.000000,0.000000,0.000000,0.776281,30.230416,-1.077935
1650623753.202986,4628.000000,1650623753.202815,0.000000,0.000000,1.000000,0.000000,0.000000,0.000000,0.000000,0.779941,30.228663,-1.089192
1650623753.303016,4629.000000,1650623753.302804,0.000000,0.000000,1.000000,0.000000,0.000000,0.000000,0.000000,0.785508,30.229228,-1.107006
1650623753.402941,4630.000000,1650623753.402781,0.000000,0.000000,1.000000,0.000000,0.000000,0.000000,0.000000,0.788505,30.229799,-1.102059
1650623753.502886,4631.000000,1650623753.502730,0.000000,0.000000,1.000000,0.000000,0.000000,0.000000,0.000000,0.791247,30.231462,-1.108354
1650623753.603104,4632.000000,1650623753.602929,0.000000,0.000000,1.000000,0.000000,0.000000,0.000000,0.000000,0.792655,30.231970,-1.113340
1650623753.703072,4633.000000,1650623753.702927,0.000000,0.000000,1.000000,0.000000,0.000000,0.000000,0.000000,0.794983,30.233563,-1.123525
1650623753.802946,4634.000000,1650623753.802789,0.000000,0.000000,1.000000,0.000000,0.000000,0.000000,0.000000,0.797088,30.233996,-1.134658
1650623753.902896,4635.000000,1650623753.902696,0.000000,0.000000,1.000000,0.000000,0.000000,0.000000,0.000000,0.800073,30.234420,-1.141856
1650623754.002993,4636.000000,1650623754.002813,0.000000,0.000000,1.000000,0.000000,0.000000,0.000000,0.000000,0.802795,30.234832,-1.150113
1650623754.102944,4637.000000,1650623754.102772,0.000000,0.000000,1.000000,0.000000,0.000000,0.000000,0.000000,0.805265,30.235232,-1.164224
1650623754.202938,4638.000000,1650623754.202768,0.000000,0.000000,1.000000,0.000000,0.000000,0.000000,0.000000,0.808587,30.235619,-1.179100
1650623754.302958,4639.000000,1650623754.302779,0.000000,0.000000,1.000000,0.000000,0.000000,0.000000,0.000000,0.810527,30.234900,-1.191472
1650623754.403091,4640.000000,1650623754.402861,0.000000,0.000000,1.000000,0.000000,0.000000,0.000000,0.000000,0.813343,30.234229,-1.183689
1650623754.502950,4641.000000,1650623754.502790,0.000000,0.000000,1.000000,0.000000,0.000000,0.000000,0.000000,0.812623,30.232514,-1.175946
1650623754.602989,4642.000000,1650623754.602812,0.000000,0.000000,1.000000,0.000000,0.000000,0.000000,0.000000,0.810748,30.231998,-1.177135
1650623754.702931,4643.000000,1650623754.702750,0.000000,0.000000,1.000000,0.000000,0.000000,0.000000,0.000000,0.809975,30.231525,-1.160293
1650623754.802915,4644.000000,1650623754.802757,0.000000,0.000000,1.000000,0.000000,0.000000,0.000000,0.000000,0.808070,30.232185,-1.156023
1650623754.902922,4645.000000,1650623754.902766,0.000000,0.000000,1.000000,0.000000,0.000000,0.000000,0.000000,0.806196,30.232822,-1.158190
1650623755.002949,4646.000000,1650623755.002761,0.000000,0.000000,1.000000,0.000000,0.000000,0.000000,0.000000,0.805452,30.233435,-1.168151
1650623755.102947,4647.000000,1650623755.102791,0.000000,0.000000,1.000000,0.000000,0.000000,0.000000,0.000000,0.804692,30.234022,-1.178325
1650623755.203131,4648.000000,1650623755.202972,0.000000,0.000000,1.000000,0.000000,0.000000,0.000000,0.000000,0.806103,30.233492,-1.185469
1650623755.303009,4649.000000,1650623755.302806,0.000000,0.000000,1.000000,0.000000,0.000000,0.000000,0.000000,0.809565,30.232999,-1.199377
1650623755.403068,4650.000000,1650623755.402840,0.000000,0.000000,1.000000,0.000000,0.000000,0.000000,0.000000,0.807327,30.233630,-1.214118
1650623755.503030,4651.000000,1650623755.502833,0.000000,0.000000,1.000000,0.000000,0.000000,0.000000,0.000000,0.806251,30.233143,-1.220771
1650623755.602966,4652.000000,1650623755.602823,0.000000,0.000000,1.000000,0.000000,0.000000,0.000000,0.000000,0.805190,30.231598,-1.222079
1650623755.703001,4653.000000,1650623755.702831,0.000000,0.000000,1.000000,0.000000,0.000000,0.000000,0.000000,0.806330,30.230149,-1.214235
1650623755.802984,4654.000000,1650623755.802813,0.000000,0.000000,1.000000,0.000000,0.000000,0.000000,0.000000,0.807369,30.229884,-1.213759
1650623755.902995,4655.000000,1650623755.902820,0.000000,0.000000,1.000000,0.000000,0.000000,0.000000,0.000000,0.807221,30.230740,-1.217137
1650623756.003303,4656.000000,1650623756.003045,0.000000,0.000000,1.000000,0.000000,0.000000,0.000000,0.000000,0.807043,30.231560,-1.224217
1650623756.102923,4657.000000,1650623756.102754,0.000000,0.000000,1.000000,0.000000,0.000000,0.000000,0.000000,0.806841,30.231253,-1.224362
1650623756.202961,4658.000000,1650623756.202778,0.000000,0.000000,1.000000,0.000000,0.000000,0.000000,0.000000,0.807708,30.232063,-1.228343
1650623756.302985,4659.000000,1650623756.302823,0.000000,0.000000,1.000000,0.000000,0.000000,0.000000,0.000000,0.809585,30.231744,-1.231168
1650623756.403008,4660.000000,1650623756.402840,0.000000,0.000000,1.000000,0.000000,0.000000,0.000000,0.000000,0.810232,30.232539,-1.220790
1650623756.502968,4661.000000,1650623756.502804,0.000000,0.000000,1.000000,0.000000,0.000000,0.000000,0.000000,0.808627,30.232204,-1.209864
1650623756.602998,4662.000000,1650623756.602838,0.000000,0.000000,1.000000,0.000000,0.000000,0.000000,0.000000,0.805989,30.232982,-1.184727
1650623756.702915,4663.000000,1650623756.702761,0.000000,0.000000,1.000000,0.000000,0.000000,0.000000,0.000000,0.803476,30.233719,-1.152452
1650623756.803354,4664.000000,1650623756.803158,0.000000,0.000000,1.000000,0.000000,0.000000,0.000000,0.000000,0.802179,30.234415,-1.135965
1650623756.902981,4665.000000,1650623756.902807,0.000000,0.000000,1.000000,0.000000,0.000000,0.000000,0.000000,0.802037,30.236161,-1.132241
1650623757.002972,4666.000000,1650623757.002805,0.000000,0.000000,1.000000,0.000000,0.000000,0.000000,0.000000,0.800807,30.236714,-1.127061
1650623757.103228,4667.000000,1650623757.103084,0.000000,0.000000,1.000000,0.000000,0.000000,0.000000,0.000000,0.799644,30.238317,-1.130169
1650623757.202923,4668.000000,1650623757.202761,0.000000,0.000000,1.000000,0.000000,0.000000,0.000000,0.000000,0.797456,30.240909,-1.139614
1650623757.302917,4669.000000,1650623757.302761,0.000000,0.000000,1.000000,0.000000,0.000000,0.000000,0.000000,0.795397,30.242249,-1.150284
1650623757.402944,4670.000000,1650623757.402784,0.000000,0.000000,1.000000,0.000000,0.000000,0.000000,0.000000,0.793466,30.242400,-1.155661
1650623757.502964,4671.000000,1650623757.502805,0.000000,0.000000,1.000000,0.000000,0.000000,0.000000,0.000000,0.789480,30.243611,-1.166433
1650623757.603234,4672.000000,1650623757.603020,0.000000,0.000000,1.000000,0.000000,0.000000,0.000000,0.000000,0.786833,30.245820,-1.182367
1650623757.702957,4673.000000,1650623757.702787,0.000000,0.000000,1.000000,0.000000,0.000000,0.000000,0.000000,0.785459,30.247877,-1.200003
1650623757.802950,4674.000000,1650623757.802785,0.000000,0.000000,1.000000,0.000000,0.000000,0.000000,0.000000,0.786382,30.248696,-1.215215
1650623757.902969,4675.000000,1650623757.902799,0.000000,0.000000,1.000000,0.000000,0.000000,0.000000,0.000000,0.786199,30.248344,-1.227271
1650623758.002987,4676.000000,1650623758.002814,0.000000,0.000000,1.000000,0.000000,0.000000,0.000000,0.000000,0.786060,30.249068,-1.241123
1650623758.102979,4677.000000,1650623758.102805,0.000000,0.000000,1.000000,0.000000,0.000000,0.000000,0.000000,0.785961,30.249718,-1.234099
1650623758.203036,4678.000000,1650623758.202886,0.000000,0.000000,1.000000,0.000000,0.000000,0.000000,0.000000,0.785898,30.251390,-1.234479
1650623758.302923,4679.000000,1650623758.302765,0.000000,0.000000,1.000000,0.000000,0.000000,0.000000,0.000000,0.788049,30.251844,-1.237130
1650623758.403105,4680.000000,1650623758.402915,0.000000,0.000000,1.000000,0.000000,0.000000,0.000000,0.000000,0.787922,30.252236,-1.241157
1650623758.503032,4681.000000,1650623758.502839,0.000000,0.000000,1.000000,0.000000,0.000000,0.000000,0.000000,0.787823,30.252572,-1.229566
1650623758.602970,4682.000000,1650623758.602774,0.000000,0.000000,1.000000,0.000000,0.000000,0.000000,0.000000,0.787748,30.251764,-1.219142
1650623758.702958,4683.000000,1650623758.702775,0.000000,0.000000,1.000000,0.000000,0.000000,0.000000,0.000000,0.788785,30.250970,-1.214698
1650623758.802964,4684.000000,1650623758.802783,0.000000,0.000000,1.000000,0.000000,0.000000,0.000000,0.000000,0.788690,30.250194,-1.211165
1650623758.902955,4685.000000,1650623758.902761,0.000000,0.000000,1.000000,0.000000,0.000000,0.000000,0.000000,0.788614,30.249439,-1.212549
1650623759.002984,4686.000000,1650623759.002809,0.000000,0.000000,1.000000,0.000000,0.000000,0.000000,0.000000,0.788554,30.248706,-1.212200
1650623759.102929,4687.000000,1650623759.102756,0.000000,0.000000,1.000000,0.000000,0.000000,0.000000,0.000000,0.764522,30.247999,-1.172287
1650623759.203258,4688.000000,1650623759.203046,0.000000,0.000000,1.000000,0.000000,0.000000,0.000000,0.000000,0.738614,30.249499,-1.099315
1650623759.302988,4689.000000,1650623759.302777,0.000000,0.000000,1.000000,0.000000,0.000000,0.000000,0.000000,0.723005,30.251992,-1.054416
1650623759.402937,4690.000000,1650623759.402750,0.000000,0.000000,1.000000,0.000000,0.000000,0.000000,0.000000,0.711721,30.254326,-1.022013
1650623759.502963,4691.000000,1650623759.502776,0.000000,0.000000,1.000000,0.000000,0.000000,0.000000,0.000000,0.704550,30.254324,-0.996005
1650623759.602964,4692.000000,1650623759.602779,0.000000,0.000000,1.000000,0.000000,0.000000,0.000000,0.000000,0.702368,30.252114,-0.976167
1650623759.702956,4693.000000,1650623759.702777,0.000000,0.000000,1.000000,0.000000,0.000000,0.000000,0.000000,0.701626,30.251096,-0.953401
1650623759.802939,4694.000000,1650623759.802781,0.000000,0.000000,1.000000,0.000000,0.000000,0.000000,0.000000,0.704413,30.249029,-0.938335
1650623759.902961,4695.000000,1650623759.902796,0.000000,0.000000,1.000000,0.000000,0.000000,0.000000,0.000000,0.709428,30.248158,-0.935508
1650623760.003183,4696.000000,1650623760.002982,0.000000,0.000000,1.000000,0.000000,0.000000,0.000000,0.000000,0.714340,30.248421,-0.939580
1650623760.102981,4697.000000,1650623760.102780,0.000000,0.000000,1.000000,0.000000,0.000000,0.000000,0.000000,0.716949,30.248666,-0.944606
1650623760.202984,4698.000000,1650623760.202774,0.000000,0.000000,1.000000,0.000000,0.000000,0.000000,0.000000,0.717363,30.247801,-0.945687
1650623760.302965,4699.000000,1650623760.302767,0.000000,0.000000,1.000000,0.000000,0.000000,0.000000,0.000000,0.723326,30.246982,-0.951839
1650623760.402980,4700.000000,1650623760.402786,0.000000,0.000000,1.000000,0.000000,0.000000,0.000000,0.000000,0.730150,30.246208,-0.962836
1650623760.502950,4701.000000,1650623760.502752,0.000000,0.000000,1.000000,0.000000,0.000000,0.000000,0.000000,0.736669,30.246570,-0.960712
1650623760.602952,4702.000000,1650623760.602760,0.000000,0.000000,1.000000,0.000000,0.000000,0.000000,0.000000,0.742875,30.245824,-0.961311
1650623760.702941,4703.000000,1650623760.702760,0.000000,0.000000,1.000000,0.000000,0.000000,0.000000,0.000000,0.747674,30.245122,-0.962901
1650623760.803109,4704.000000,1650623760.802898,0.000000,0.000000,1.000000,0.000000,0.000000,0.000000,0.000000,0.753306,30.244465,-0.970270
1650623760.903031,4705.000000,1650623760.902837,0.000000,0.000000,1.000000,0.000000,0.000000,0.000000,0.000000,0.758618,30.243851,-0.968647
1650623761.003005,4706.000000,1650623761.002826,0.000000,0.000000,1.000000,0.000000,0.000000,0.000000,0.000000,0.764702,30.242190,-0.969681
1650623761.102972,4707.000000,1650623761.102794,0.000000,0.000000,1.000000,0.000000,0.000000,0.000000,0.000000,0.770407,30.240633,-0.963577
1650623761.202955,4708.000000,1650623761.202760,0.000000,0.000000,1.000000,0.000000,0.000000,0.000000,0.000000,0.771378,30.241359,-0.965144
1650623761.302970,4709.000000,1650623761.302796,0.000000,0.000000,1.000000,0.000000,0.000000,0.000000,0.000000,0.771144,30.243151,-0.972450
1650623761.402949,4710.000000,1650623761.402781,0.000000,0.000000,1.000000,0.000000,0.000000,0.000000,0.000000,0.768684,30.243764,-0.978792
1650623761.503015,4711.000000,1650623761.502834,0.000000,0.000000,1.000000,0.000000,0.000000,0.000000,0.000000,0.766313,30.244349,-0.985807
1650623761.603215,4712.000000,1650623761.602927,0.000000,0.000000,1.000000,0.000000,0.000000,0.000000,0.000000,0.762943,30.243815,-0.991030
1650623761.702988,4713.000000,1650623761.702782,0.000000,0.000000,1.000000,0.000000,0.000000,0.000000,0.000000,0.761915,30.244406,-1.002585
1650623761.802934,4714.000000,1650623761.802768,0.000000,0.000000,1.000000,0.000000,0.000000,0.000000,0.000000,0.760924,30.244967,-1.016967
1650623761.903301,4715.000000,1650623761.903103,0.000000,0.000000,1.000000,0.000000,0.000000,0.000000,0.000000,0.758882,30.245499,-1.011455
1650623762.003393,4716.000000,1650623762.003207,0.000000,0.000000,1.000000,0.000000,0.000000,0.000000,0.000000,0.758034,30.247092,-1.014278
1650623762.103575,4717.000000,1650623762.103374,0.000000,0.000000,1.000000,0.000000,0.000000,0.000000,0.000000,0.757228,30.247502,-1.018641
1650623762.203218,4718.000000,1650623762.203037,0.000000,0.000000,1.000000,0.000000,0.000000,0.000000,0.000000,0.755374,30.247883,-1.025280
1650623762.303263,4719.000000,1650623762.303071,0.000000,0.000000,1.000000,0.000000,0.000000,0.000000,0.000000,0.753625,30.247145,-1.031670
1650623762.403734,4720.000000,1650623762.403286,0.000000,0.000000,1.000000,0.000000,0.000000,0.000000,0.000000,0.751981,30.245353,-1.041037
1650623762.503354,4721.000000,1650623762.503133,0.000000,0.000000,1.000000,0.000000,0.000000,0.000000,0.000000,0.751532,30.244749,-1.055662
1650623762.603348,4722.000000,1650623762.603124,0.000000,0.000000,1.000000,0.000000,0.000000,0.000000,0.000000,0.753303,30.245272,-1.076117
1650623762.703315,4723.000000,1650623762.703107,0.000000,0.000000,1.000000,0.000000,0.000000,0.000000,0.000000,0.754985,30.245768,-1.093262
1650623762.803303,4724.000000,1650623762.803121,0.000000,0.000000,1.000000,0.000000,0.000000,0.000000,0.000000,0.756579,30.246236,-1.096720
1650623762.903302,4725.000000,1650623762.903105,0.000000,0.000000,1.000000,0.000000,0.000000,0.000000,0.000000,0.760264,30.245587,-1.100751
1650623763.003324,4726.000000,1650623763.003107,0.000000,0.000000,1.000000,0.000000,0.000000,0.000000,0.000000,0.762644,30.246063,-1.107748
1650623763.103329,4727.000000,1650623763.103115,0.000000,0.000000,1.000000,0.000000,0.000000,0.000000,0.000000,0.764874,30.244332,-1.107906
1650623763.203493,4728.000000,1650623763.203282,0.000000,0.000000,1.000000,0.000000,0.000000,0.000000,0.000000,0.769136,30.244880,-1.117634
1650623763.303371,4729.000000,1650623763.303117,0.000000,0.000000,1.000000,0.000000,0.000000,0.000000,0.000000,0.773128,30.245400,-1.113953
1650623763.403316,4730.000000,1650623763.403067,0.000000,0.000000,1.000000,0.000000,0.000000,0.000000,0.000000,0.767041,30.248074,-1.071609
1650623763.503364,4731.000000,1650623763.503142,0.000000,0.000000,1.000000,0.000000,0.000000,0.000000,0.000000,0.761258,30.249503,-1.020461
1650623763.603358,4732.000000,1650623763.603101,0.000000,0.000000,1.000000,0.000000,0.000000,0.000000,0.000000,0.756874,30.250843,-0.987566
1650623763.703311,4733.000000,1650623763.703068,0.000000,0.000000,1.000000,0.000000,0.000000,0.000000,0.000000,0.756006,30.251004,-0.964982
1650623763.803284,4734.000000,1650623763.803062,0.000000,0.000000,1.000000,0.000000,0.000000,0.000000,0.000000,0.758467,30.250050,-0.932973
1650623763.903361,4735.000000,1650623763.903083,0.000000,0.000000,1.000000,0.000000,0.000000,0.000000,0.000000,0.760795,30.249138,-0.913741
1650623764.003679,4736.000000,1650623764.003356,0.000000,0.000000,1.000000,0.000000,0.000000,0.000000,0.000000,0.762990,30.248267,-0.880182
