__time,/dwm1001/id_458E/pose_kf/header/seq,/dwm1001/id_458E/pose_kf/header/stamp,/dwm1001/id_458E/pose_kf/pose/orientation/pitch_deg,/dwm1001/id_458E/pose_kf/pose/orientation/roll_deg,/dwm1001/id_458E/pose_kf/pose/orientation/w,/dwm1001/id_458E/pose_kf/pose/orientation/x,/dwm1001/id_458E/pose_kf/pose/orientation/y,/dwm1001/id_458E/pose_kf/pose/orientation/yaw_deg,/dwm1001/id_458E/pose_kf/pose/orientation/z,/dwm1001/id_458E/pose_kf/pose/position/x,/dwm1001/id_458E/pose_kf/pose/position/y,/dwm1001/id_458E/pose_kf/pose/position/z
1649934191.315349,6651.000000,1649934191.315193,0.000000,0.000000,1.000000,0.000000,0.000000,0.000000,0.000000,0.935729,12.366323,-0.662680
1649934191.415540,6652.000000,1649934191.415357,0.000000,0.000000,1.000000,0.000000,0.000000,0.000000,0.000000,0.934981,12.367362,-0.658556
1649934191.516002,6653.000000,1649934191.515861,0.000000,0.000000,1.000000,0.000000,0.000000,0.000000,0.000000,0.934284,12.365096,-0.649829
1649934191.615635,6654.000000,1649934191.615454,0.000000,0.000000,1.000000,0.000000,0.000000,0.000000,0.000000,0.932546,12.362982,-0.643149
1649934191.715619,6655.000000,1649934191.715456,0.000000,0.000000,1.000000,0.000000,0.000000,0.000000,0.000000,0.930918,12.361017,-0.636827
1649934191.815580,6656.000000,1649934191.815422,0.000000,0.000000,1.000000,0.000000,0.000000,0.000000,0.000000,0.930489,12.359197,-0.632469
1649934191.915640,6657.000000,1649934191.915491,0.000000,0.000000,1.000000,0.000000,0.000000,0.000000,0.000000,0.931194,12.357517,-0.629192
1649934192.015717,6658.000000,1649934192.015542,0.000000,0.000000,1.000000,0.000000,0.000000,0.000000,0.000000,0.931878,12.357064,-0.630181
1649934192.115628,6659.000000,1649934192.115494,0.000000,0.000000,1.000000,0.000000,0.000000,0.000000,0.000000,0.932538,12.356679,-0.628806
1649934192.215581,6660.000000,1649934192.215416,0.000000,0.000000,1.000000,0.000000,0.000000,0.000000,0.000000,0.933173,12.357447,-0.629999
1649934192.315675,6661.000000,1649934192.315499,0.000000,0.000000,1.000000,0.000000,0.000000,0.000000,0.000000,0.933782,12.358210,-0.628006
1649934192.415667,6662.000000,1649934192.415455,0.000000,0.000000,1.000000,0.000000,0.000000,0.000000,0.000000,0.933274,12.358964,-0.626987
1649934192.515418,6663.000000,1649934192.515267,0.000000,0.000000,1.000000,0.000000,0.000000,0.000000,0.000000,0.932800,12.359705,-0.628513
1649934192.615600,6664.000000,1649934192.615416,0.000000,0.000000,1.000000,0.000000,0.000000,0.000000,0.000000,0.932360,12.361521,-0.634089
1649934192.715332,6665.000000,1649934192.715146,0.000000,0.000000,1.000000,0.000000,0.000000,0.000000,0.000000,0.931954,12.363255,-0.642733
1649934192.815436,6666.000000,1649934192.815273,0.000000,0.000000,1.000000,0.000000,0.000000,0.000000,0.000000,0.931579,12.364905,-0.652690
1649934192.915389,6667.000000,1649934192.915220,0.000000,0.000000,1.000000,0.000000,0.000000,0.000000,0.000000,0.931235,12.365380,-0.660662
1649934193.015290,6668.000000,1649934193.015134,0.000000,0.000000,1.000000,0.000000,0.000000,0.000000,0.000000,0.930921,12.365833,-0.667522
1649934193.115341,6669.000000,1649934193.115188,0.000000,0.000000,1.000000,0.000000,0.000000,0.000000,0.000000,0.930636,12.366262,-0.671689
1649934193.215343,6670.000000,1649934193.215136,0.000000,0.000000,1.000000,0.000000,0.000000,0.000000,0.000000,0.930377,12.367758,-0.676490
1649934193.315443,6671.000000,1649934193.315279,0.000000,0.000000,1.000000,0.000000,0.000000,0.000000,0.000000,0.931235,12.370259,-0.681892
1649934193.415479,6672.000000,1649934193.415315,0.000000,0.000000,1.000000,0.000000,0.000000,0.000000,0.000000,0.930964,12.372611,-0.690281
1649934193.515311,6673.000000,1649934193.515173,0.000000,0.000000,1.000000,0.000000,0.000000,0.000000,0.000000,0.931807,12.373725,-0.693459
1649934193.615400,6674.000000,1649934193.615167,0.000000,0.000000,1.000000,0.000000,0.000000,0.000000,0.000000,0.932609,12.375848,-0.694857
1649934193.715341,6675.000000,1649934193.715197,0.000000,0.000000,1.000000,0.000000,0.000000,0.000000,0.000000,0.932281,12.377829,-0.698580
1649934193.815426,6676.000000,1649934193.815237,0.000000,0.000000,1.000000,0.000000,0.000000,0.000000,0.000000,0.933064,12.379670,-0.704528
1649934193.915248,6677.000000,1649934193.915123,0.000000,0.000000,1.000000,0.000000,0.000000,0.000000,0.000000,0.933805,12.381376,-0.712604
1649934194.015190,6678.000000,1649934194.015060,0.000000,0.000000,1.000000,0.000000,0.000000,0.000000,0.000000,0.933414,12.382949,-0.716259
1649934194.115331,6679.000000,1649934194.115201,0.000000,0.000000,1.000000,0.000000,0.000000,0.000000,0.000000,0.934135,12.384396,-0.720506
1649934194.215876,6680.000000,1649934194.215685,0.000000,0.000000,1.000000,0.000000,0.000000,0.000000,0.000000,0.934813,12.384629,-0.719672
1649934194.315539,6681.000000,1649934194.315357,0.000000,0.000000,1.000000,0.000000,0.000000,0.000000,0.000000,0.934361,12.383718,-0.715579
1649934194.415675,6682.000000,1649934194.415507,0.000000,0.000000,1.000000,0.000000,0.000000,0.000000,0.000000,0.933930,12.383910,-0.714819
1649934194.515637,6683.000000,1649934194.515489,0.000000,0.000000,1.000000,0.000000,0.000000,0.000000,0.000000,0.932431,12.384057,-0.715649
1649934194.615640,6684.000000,1649934194.615512,0.000000,0.000000,1.000000,0.000000,0.000000,0.000000,0.000000,0.932107,12.384162,-0.718813
1649934194.714840,6685.000000,1649934194.714694,0.000000,0.000000,1.000000,0.000000,0.000000,0.000000,0.000000,0.931806,12.384229,-0.721793
1649934194.815544,6686.000000,1649934194.815404,0.000000,0.000000,1.000000,0.000000,0.000000,0.000000,0.000000,0.929345,12.384263,-0.693949
1649934194.915626,6687.000000,1649934194.915488,0.000000,0.000000,1.000000,0.000000,0.000000,0.000000,0.000000,0.928121,12.384266,-0.675284
1649934195.016107,6688.000000,1649934195.015913,0.000000,0.000000,1.000000,0.000000,0.000000,0.000000,0.000000,0.925890,12.385332,-0.663039
1649934195.115336,6689.000000,1649934195.115170,0.000000,0.000000,1.000000,0.000000,0.000000,0.000000,0.000000,0.923801,12.385221,-0.652136
1649934195.215186,6690.000000,1649934195.215070,0.000000,0.000000,1.000000,0.000000,0.000000,0.000000,0.000000,0.921854,12.387270,-0.648185
1649934195.315455,6691.000000,1649934195.315277,0.000000,0.000000,1.000000,0.000000,0.000000,0.000000,0.000000,0.920044,12.388085,-0.641231
1649934195.415652,6692.000000,1649934195.415489,0.000000,0.000000,1.000000,0.000000,0.000000,0.000000,0.000000,0.919459,12.388823,-0.636243
1649934195.515617,6693.000000,1649934195.515423,0.000000,0.000000,1.000000,0.000000,0.000000,0.000000,0.000000,0.918941,12.389489,-0.633954
1649934195.615586,6694.000000,1649934195.615426,0.000000,0.000000,1.000000,0.000000,0.000000,0.000000,0.000000,0.919576,12.390085,-0.635062
1649934195.715641,6695.000000,1649934195.715462,0.000000,0.000000,1.000000,0.000000,0.000000,0.000000,0.000000,0.921298,12.390615,-0.636199
1649934195.815808,6696.000000,1649934195.815640,0.000000,0.000000,1.000000,0.000000,0.000000,0.000000,0.000000,0.922950,12.389994,-0.635746
1649934195.915760,6697.000000,1649934195.915541,0.000000,0.000000,1.000000,0.000000,0.000000,0.000000,0.000000,0.924530,12.389377,-0.635377
1649934196.015460,6698.000000,1649934196.015326,0.000000,0.000000,1.000000,0.000000,0.000000,0.000000,0.000000,0.924944,12.388768,-0.633476
1649934196.115666,6699.000000,1649934196.115482,0.000000,0.000000,1.000000,0.000000,0.000000,0.000000,0.000000,0.924254,12.388171,-0.633328
1649934196.215725,6700.000000,1649934196.215497,0.000000,0.000000,1.000000,0.000000,0.000000,0.000000,0.000000,0.923613,12.386497,-0.633249
1649934196.315644,6701.000000,1649934196.315469,0.000000,0.000000,1.000000,0.000000,0.000000,0.000000,0.000000,0.921928,12.385992,-0.633233
1649934196.415609,6702.000000,1649934196.415468,0.000000,0.000000,1.000000,0.000000,0.000000,0.000000,0.000000,0.920352,12.387685,-0.639727
1649934196.515724,6703.000000,1649934196.515558,0.000000,0.000000,1.000000,0.000000,0.000000,0.000000,0.000000,0.919974,12.389271,-0.646810
1649934196.615990,6704.000000,1649934196.615764,0.000000,0.000000,1.000000,0.000000,0.000000,0.000000,0.000000,0.917455,12.390752,-0.654444
1649934196.715636,6705.000000,1649934196.715468,0.000000,0.000000,1.000000,0.000000,0.000000,0.000000,0.000000,0.917283,12.391039,-0.659367
1649934196.815203,6706.000000,1649934196.815053,0.000000,0.000000,1.000000,0.000000,0.000000,0.000000,0.000000,0.918237,12.391288,-0.666518
1649934196.915293,6707.000000,1649934196.915169,0.000000,0.000000,1.000000,0.000000,0.000000,0.000000,0.000000,0.918070,12.392593,-0.674988
1649934197.015266,6708.000000,1649934197.015153,0.000000,0.000000,1.000000,0.000000,0.000000,0.000000,0.000000,0.919024,12.392711,-0.682290
1649934197.115272,6709.000000,1649934197.115173,0.000000,0.000000,1.000000,0.000000,0.000000,0.000000,0.000000,0.918853,12.392799,-0.692493
1649934197.215223,6710.000000,1649934197.215080,0.000000,0.000000,1.000000,0.000000,0.000000,0.000000,0.000000,0.918707,12.392860,-0.700625
1649934197.315355,6711.000000,1649934197.315202,0.000000,0.000000,1.000000,0.000000,0.000000,0.000000,0.000000,0.917496,12.392897,-0.706757
1649934197.415571,6712.000000,1649934197.415372,0.000000,0.000000,1.000000,0.000000,0.000000,0.000000,0.000000,0.884748,12.392911,-0.670639
1649934197.515158,6713.000000,1649934197.515047,0.000000,0.000000,1.000000,0.000000,0.000000,0.000000,0.000000,0.862627,12.392905,-0.643232
1649934197.615215,6714.000000,1649934197.615087,0.000000,0.000000,1.000000,0.000000,0.000000,0.000000,0.000000,0.848438,12.392882,-0.623426
1649934197.715364,6715.000000,1649934197.715190,0.000000,0.000000,1.000000,0.000000,0.000000,0.000000,0.000000,0.838511,12.393934,-0.613364
1649934197.815437,6716.000000,1649934197.815272,0.000000,0.000000,1.000000,0.000000,0.000000,0.000000,0.000000,0.833722,12.393818,-0.603797
1649934197.915262,6717.000000,1649934197.915118,0.000000,0.000000,1.000000,0.000000,0.000000,0.000000,0.000000,0.830523,12.393691,-0.604395
1649934198.015245,6718.000000,1649934198.015100,0.000000,0.000000,1.000000,0.000000,0.000000,0.000000,0.000000,0.828822,12.392465,-0.603452
1649934198.115320,6719.000000,1649934198.115171,0.000000,0.000000,1.000000,0.000000,0.000000,0.000000,0.000000,0.830711,12.391293,-0.605868
1649934198.215483,6720.000000,1649934198.215349,0.000000,0.000000,1.000000,0.000000,0.000000,0.000000,0.000000,0.832705,12.389088,-0.609885
1649934198.315181,6721.000000,1649934198.315039,0.000000,0.000000,1.000000,0.000000,0.000000,0.000000,0.000000,0.835869,12.387004,-0.609783
1649934198.415346,6722.000000,1649934198.415168,0.000000,0.000000,1.000000,0.000000,0.000000,0.000000,0.000000,0.840119,12.385039,-0.610565
1649934198.515611,6723.000000,1649934198.515462,0.000000,0.000000,1.000000,0.000000,0.000000,0.000000,0.000000,0.846463,12.383194,-0.613803
1649934198.615620,6724.000000,1649934198.615440,0.000000,0.000000,1.000000,0.000000,0.000000,0.000000,0.000000,0.852578,12.381468,-0.616970
1649934198.715623,6725.000000,1649934198.715465,0.000000,0.000000,1.000000,0.000000,0.000000,0.000000,0.000000,0.859541,12.379857,-0.620062
1649934198.815575,6726.000000,1649934198.815420,0.000000,0.000000,1.000000,0.000000,0.000000,0.000000,0.000000,0.865098,12.379450,-0.626299
1649934198.915591,6727.000000,1649934198.915444,0.000000,0.000000,1.000000,0.000000,0.000000,0.000000,0.000000,0.871485,12.379092,-0.633930
1649934199.015214,6728.000000,1649934199.015099,0.000000,0.000000,1.000000,0.000000,0.000000,0.000000,0.000000,0.876453,12.379868,-0.643691
1649934199.115237,6729.000000,1649934199.115103,0.000000,0.000000,1.000000,0.000000,0.000000,0.000000,0.000000,0.882244,12.379533,-0.652252
1649934199.215195,6730.000000,1649934199.215078,0.000000,0.000000,1.000000,0.000000,0.000000,0.000000,0.000000,0.887704,12.378147,-0.658841
1649934199.315305,6731.000000,1649934199.315165,0.000000,0.000000,1.000000,0.000000,0.000000,0.000000,0.000000,0.892834,12.377952,-0.662721
1649934199.415375,6732.000000,1649934199.415236,0.000000,0.000000,1.000000,0.000000,0.000000,0.000000,0.000000,0.897640,12.376700,-0.666414
1649934199.515313,6733.000000,1649934199.515148,0.000000,0.000000,1.000000,0.000000,0.000000,0.000000,0.000000,0.902125,12.375543,-0.670730
1649934199.615303,6734.000000,1649934199.615142,0.000000,0.000000,1.000000,0.000000,0.000000,0.000000,0.000000,0.905205,12.373386,-0.668379
1649934199.715277,6735.000000,1649934199.715127,0.000000,0.000000,1.000000,0.000000,0.000000,0.000000,0.000000,0.908044,12.371380,-0.666894
1649934199.815698,6736.000000,1649934199.815561,0.000000,0.000000,1.000000,0.000000,0.000000,0.000000,0.000000,0.910647,12.370612,-0.667051
1649934199.915720,6737.000000,1649934199.915567,0.000000,0.000000,1.000000,0.000000,0.000000,0.000000,0.000000,0.913026,12.369924,-0.663945
1649934200.015526,6738.000000,1649934200.015330,0.000000,0.000000,1.000000,0.000000,0.000000,0.000000,0.000000,0.916280,12.370402,-0.666586
1649934200.115825,6739.000000,1649934200.115573,0.000000,0.000000,1.000000,0.000000,0.000000,0.000000,0.000000,0.919265,12.371978,-0.670706
1649934200.215599,6740.000000,1649934200.215472,0.000000,0.000000,1.000000,0.000000,0.000000,0.000000,0.000000,0.921992,12.372406,-0.672208
1649934200.315289,6741.000000,1649934200.315172,0.000000,0.000000,1.000000,0.000000,0.000000,0.000000,0.000000,0.924473,12.372834,-0.671196
1649934200.415442,6742.000000,1649934200.415251,0.000000,0.000000,1.000000,0.000000,0.000000,0.000000,0.000000,0.926717,12.374352,-0.675032
1649934200.515313,6743.000000,1649934200.515140,0.000000,0.000000,1.000000,0.000000,0.000000,0.000000,0.000000,0.927647,12.374712,-0.678678
1649934200.615609,6744.000000,1649934200.615481,0.000000,0.000000,1.000000,0.000000,0.000000,0.000000,0.000000,0.928428,12.375066,-0.678909
1649934200.715396,6745.000000,1649934200.715247,0.000000,0.000000,1.000000,0.000000,0.000000,0.000000,0.000000,0.930161,12.373232,-0.672641
1649934200.815322,6746.000000,1649934200.815168,0.000000,0.000000,1.000000,0.000000,0.000000,0.000000,0.000000,0.931704,12.371514,-0.666597
1649934200.916051,6747.000000,1649934200.915905,0.000000,0.000000,1.000000,0.000000,0.000000,0.000000,0.000000,0.933068,12.369911,-0.656749
1649934201.015745,6748.000000,1649934201.015620,0.000000,0.000000,1.000000,0.000000,0.000000,0.000000,0.000000,0.934263,12.368421,-0.651332
1649934201.115313,6749.000000,1649934201.115154,0.000000,0.000000,1.000000,0.000000,0.000000,0.000000,0.000000,0.935302,12.369221,-0.651789
1649934201.215245,6750.000000,1649934201.215115,0.000000,0.000000,1.000000,0.000000,0.000000,0.000000,0.000000,0.935104,12.371092,-0.658688
1649934201.315218,6751.000000,1649934201.315084,0.000000,0.000000,1.000000,0.000000,0.000000,0.000000,0.000000,0.935922,12.372878,-0.666920
1649934201.415709,6752.000000,1649934201.415538,0.000000,0.000000,1.000000,0.000000,0.000000,0.000000,0.000000,0.936615,12.374577,-0.672384
1649934201.515619,6753.000000,1649934201.515403,0.000000,0.000000,1.000000,0.000000,0.000000,0.000000,0.000000,0.937190,12.376188,-0.676796
1649934201.615194,6754.000000,1649934201.615058,0.000000,0.000000,1.000000,0.000000,0.000000,0.000000,0.000000,0.937657,12.376619,-0.673741
1649934201.715677,6755.000000,1649934201.715548,0.000000,0.000000,1.000000,0.000000,0.000000,0.000000,0.000000,0.939115,12.375935,-0.669171
1649934201.815338,6756.000000,1649934201.815180,0.000000,0.000000,1.000000,0.000000,0.000000,0.000000,0.000000,0.940420,12.375288,-0.665575
1649934201.915346,6757.000000,1649934201.915197,0.000000,0.000000,1.000000,0.000000,0.000000,0.000000,0.000000,0.942670,12.374678,-0.663728
1649934202.015401,6758.000000,1649934202.015245,0.000000,0.000000,1.000000,0.000000,0.000000,0.000000,0.000000,0.943631,12.375195,-0.663562
1649934202.115485,6759.000000,1649934202.115364,0.000000,0.000000,1.000000,0.000000,0.000000,0.000000,0.000000,0.944464,12.374596,-0.663398
1649934202.215500,6760.000000,1649934202.215259,0.000000,0.000000,1.000000,0.000000,0.000000,0.000000,0.000000,0.945178,12.374033,-0.665655
1649934202.315193,6761.000000,1649934202.315062,0.000000,0.000000,1.000000,0.000000,0.000000,0.000000,0.000000,0.945782,12.374597,-0.670231
1649934202.415184,6762.000000,1649934202.415048,0.000000,0.000000,1.000000,0.000000,0.000000,0.000000,0.000000,0.946284,12.374043,-0.674607
1649934202.515316,6763.000000,1649934202.515195,0.000000,0.000000,1.000000,0.000000,0.000000,0.000000,0.000000,0.947781,12.373524,-0.680397
1649934202.615347,6764.000000,1649934202.615216,0.000000,0.000000,1.000000,0.000000,0.000000,0.000000,0.000000,0.948039,12.373039,-0.683503
1649934202.715312,6765.000000,1649934202.715173,0.000000,0.000000,1.000000,0.000000,0.000000,0.000000,0.000000,0.949309,12.372588,-0.687255
1649934202.815283,6766.000000,1649934202.815108,0.000000,0.000000,1.000000,0.000000,0.000000,0.000000,0.000000,0.949354,12.372170,-0.690008
1649934202.915322,6767.000000,1649934202.915179,0.000000,0.000000,1.000000,0.000000,0.000000,0.000000,0.000000,0.949335,12.371784,-0.695027
1649934203.015610,6768.000000,1649934203.015458,0.000000,0.000000,1.000000,0.000000,0.000000,0.000000,0.000000,0.948170,12.372519,-0.698180
1649934203.115437,6769.000000,1649934203.115315,0.000000,0.000000,1.000000,0.000000,0.000000,0.000000,0.000000,0.947017,12.371040,-0.698734
1649934203.215262,6770.000000,1649934203.215132,0.000000,0.000000,1.000000,0.000000,0.000000,0.000000,0.000000,0.946973,12.368563,-0.695181
1649934203.315343,6771.000000,1649934203.315192,0.000000,0.000000,1.000000,0.000000,0.000000,0.000000,0.000000,0.945799,12.367329,-0.690115
1649934203.415278,6772.000000,1649934203.415149,0.000000,0.000000,1.000000,0.000000,0.000000,0.000000,0.000000,0.943564,12.367274,-0.689252
1649934203.515333,6773.000000,1649934203.515190,0.000000,0.000000,1.000000,0.000000,0.000000,0.000000,0.000000,0.942515,12.367242,-0.688393
1649934203.615253,6774.000000,1649934203.615117,0.000000,0.000000,1.000000,0.000000,0.000000,0.000000,0.000000,0.941501,12.367231,-0.688348
1649934203.715425,6775.000000,1649934203.715267,0.000000,0.000000,1.000000,0.000000,0.000000,0.000000,0.000000,0.941616,12.365058,-0.685052
1649934203.815848,6776.000000,1649934203.815677,0.000000,0.000000,1.000000,0.000000,0.000000,0.000000,0.000000,0.940617,12.363027,-0.679450
1649934203.915667,6777.000000,1649934203.915285,0.000000,0.000000,1.000000,0.000000,0.000000,0.000000,0.000000,0.939661,12.362226,-0.678096
1649934204.015191,6778.000000,1649934204.015048,0.000000,0.000000,1.000000,0.000000,0.000000,0.000000,0.000000,0.938748,12.361499,-0.674371
1649934204.115332,6779.000000,1649934204.115165,0.000000,0.000000,1.000000,0.000000,0.000000,0.000000,0.000000,0.938970,12.360841,-0.672409
1649934204.215439,6780.000000,1649934204.215267,0.000000,0.000000,1.000000,0.000000,0.000000,0.000000,0.000000,0.938084,12.360250,-0.670529
1649934204.315415,6781.000000,1649934204.315257,0.000000,0.000000,1.000000,0.000000,0.000000,0.000000,0.000000,0.937244,12.359721,-0.668731
1649934204.415259,6782.000000,1649934204.415147,0.000000,0.000000,1.000000,0.000000,0.000000,0.000000,0.000000,0.936450,12.360342,-0.669434
1649934204.515177,6783.000000,1649934204.515069,0.000000,0.000000,1.000000,0.000000,0.000000,0.000000,0.000000,0.936792,12.362047,-0.673342
1649934204.615266,6784.000000,1649934204.615085,0.000000,0.000000,1.000000,0.000000,0.000000,0.000000,0.000000,0.938207,12.363679,-0.679513
1649934204.715215,6785.000000,1649934204.715089,0.000000,0.000000,1.000000,0.000000,0.000000,0.000000,0.000000,0.938452,12.366326,-0.687844
1649934204.815259,6786.000000,1649934204.815066,0.000000,0.000000,1.000000,0.000000,0.000000,0.000000,0.000000,0.937590,12.367743,-0.690170
1649934204.915422,6787.000000,1649934204.915275,0.000000,0.000000,1.000000,0.000000,0.000000,0.000000,0.000000,0.936774,12.367992,-0.685118
1649934205.015274,6788.000000,1649934205.015141,0.000000,0.000000,1.000000,0.000000,0.000000,0.000000,0.000000,0.937094,12.368227,-0.679446
1649934205.115347,6789.000000,1649934205.115213,0.000000,0.000000,1.000000,0.000000,0.000000,0.000000,0.000000,0.938489,12.367357,-0.673996
1649934205.215243,6790.000000,1649934205.215084,0.000000,0.000000,1.000000,0.000000,0.000000,0.000000,0.000000,0.938713,12.366535,-0.667156
1649934205.315841,6791.000000,1649934205.315658,0.000000,0.000000,1.000000,0.000000,0.000000,0.000000,0.000000,0.936740,12.365762,-0.663832
1649934205.415772,6792.000000,1649934205.415602,0.000000,0.000000,1.000000,0.000000,0.000000,0.000000,0.000000,0.934877,12.365037,-0.660661
1649934205.515626,6793.000000,1649934205.515473,0.000000,0.000000,1.000000,0.000000,0.000000,0.000000,0.000000,0.933124,12.364359,-0.659254
1649934205.615234,6794.000000,1649934205.615108,0.000000,0.000000,1.000000,0.000000,0.000000,0.000000,0.000000,0.932569,12.363728,-0.658737
1649934205.715276,6795.000000,1649934205.715150,0.000000,0.000000,1.000000,0.000000,0.000000,0.000000,0.000000,0.932059,12.364232,-0.660684
1649934205.815330,6796.000000,1649934205.815169,0.000000,0.000000,1.000000,0.000000,0.000000,0.000000,0.000000,0.931591,12.364718,-0.659348
1649934205.915467,6797.000000,1649934205.915283,0.000000,0.000000,1.000000,0.000000,0.000000,0.000000,0.000000,0.932255,12.364094,-0.658089
1649934206.015728,6798.000000,1649934206.015517,0.000000,0.000000,1.000000,0.000000,0.000000,0.000000,0.000000,0.932895,12.363512,-0.656903
1649934206.115628,6799.000000,1649934206.115469,0.000000,0.000000,1.000000,0.000000,0.000000,0.000000,0.000000,0.932420,12.364062,-0.658209
1649934206.215667,6800.000000,1649934206.215489,0.000000,0.000000,1.000000,0.000000,0.000000,0.000000,0.000000,0.931981,12.364589,-0.660290
1649934206.315703,6801.000000,1649934206.315562,0.000000,0.000000,1.000000,0.000000,0.000000,0.000000,0.000000,0.932668,12.366183,-0.665529
1649934206.415323,6802.000000,1649934206.415208,0.000000,0.000000,1.000000,0.000000,0.000000,0.000000,0.000000,0.933327,12.365509,-0.665726
1649934206.515631,6803.000000,1649934206.515486,0.000000,0.000000,1.000000,0.000000,0.000000,0.000000,0.000000,0.931774,12.364875,-0.663503
1649934206.615252,6804.000000,1649934206.615126,0.000000,0.000000,1.000000,0.000000,0.000000,0.000000,0.000000,0.931408,12.364278,-0.663798
1649934206.715252,6805.000000,1649934206.715114,0.000000,0.000000,1.000000,0.000000,0.000000,0.000000,0.000000,0.932162,12.364811,-0.665703
1649934206.815319,6806.000000,1649934206.815109,0.000000,0.000000,1.000000,0.000000,0.000000,0.000000,0.000000,0.931794,12.364227,-0.669150
1649934206.915311,6807.000000,1649934206.915158,0.000000,0.000000,1.000000,0.000000,0.000000,0.000000,0.000000,0.931454,12.363681,-0.671651
1649934207.015518,6808.000000,1649934207.015341,0.000000,0.000000,1.000000,0.000000,0.000000,0.000000,0.000000,0.931142,12.364261,-0.674853
1649934207.115195,6809.000000,1649934207.115046,0.000000,0.000000,1.000000,0.000000,0.000000,0.000000,0.000000,0.930857,12.365905,-0.680335
1649934207.215149,6810.000000,1649934207.215011,0.000000,0.000000,1.000000,0.000000,0.000000,0.000000,0.000000,0.931688,12.368548,-0.687997
1649934207.315280,6811.000000,1649934207.315118,0.000000,0.000000,1.000000,0.000000,0.000000,0.000000,0.000000,0.933572,12.371038,-0.696125
1649934207.415635,6812.000000,1649934207.415430,0.000000,0.000000,1.000000,0.000000,0.000000,0.000000,0.000000,0.934262,12.373376,-0.701463
1649934207.515632,6813.000000,1649934207.515505,0.000000,0.000000,1.000000,0.000000,0.000000,0.000000,0.000000,0.934914,12.374473,-0.704922
1649934207.615724,6814.000000,1649934207.615571,0.000000,0.000000,1.000000,0.000000,0.000000,0.000000,0.000000,0.935526,12.375486,-0.707380
1649934207.715672,6815.000000,1649934207.715478,0.000000,0.000000,1.000000,0.000000,0.000000,0.000000,0.000000,0.937191,12.376416,-0.711296
1649934207.815658,6816.000000,1649934207.815491,0.000000,0.000000,1.000000,0.000000,0.000000,0.000000,0.000000,0.938754,12.377268,-0.713381
1649934207.915272,6817.000000,1649934207.915155,0.000000,0.000000,1.000000,0.000000,0.000000,0.000000,0.000000,0.939127,12.378044,-0.715319
1649934208.015299,6818.000000,1649934208.015010,0.000000,0.000000,1.000000,0.000000,0.000000,0.000000,0.000000,0.939466,12.388561,-0.733247
1649934208.115547,6819.000000,1649934208.115335,0.000000,0.000000,1.000000,0.000000,0.000000,0.000000,0.000000,0.940861,12.395172,-0.746329
1649934208.215676,6820.000000,1649934208.215506,0.000000,0.000000,1.000000,0.000000,0.000000,0.000000,0.000000,0.941071,12.400255,-0.756357
1649934208.315628,6821.000000,1649934208.315474,0.000000,0.000000,1.000000,0.000000,0.000000,0.000000,0.000000,0.939070,12.403880,-0.765859
1649934208.415646,6822.000000,1649934208.415427,0.000000,0.000000,1.000000,0.000000,0.000000,0.000000,0.000000,0.939349,12.406120,-0.774040
1649934208.515501,6823.000000,1649934208.515328,0.000000,0.000000,1.000000,0.000000,0.000000,0.000000,0.000000,0.939601,12.407051,-0.776912
1649934208.615370,6824.000000,1649934208.615222,0.000000,0.000000,1.000000,0.000000,0.000000,0.000000,0.000000,0.939828,12.406745,-0.778722
1649934208.715376,6825.000000,1649934208.715182,0.000000,0.000000,1.000000,0.000000,0.000000,0.000000,0.000000,0.940032,12.407458,-0.778710
1649934208.815205,6826.000000,1649934208.815034,0.000000,0.000000,1.000000,0.000000,0.000000,0.000000,0.000000,0.939122,12.406955,-0.775342
1649934208.915484,6827.000000,1649934208.915229,0.000000,0.000000,1.000000,0.000000,0.000000,0.000000,0.000000,0.939345,12.406401,-0.772797
1649934209.015481,6828.000000,1649934209.015321,0.000000,0.000000,1.000000,0.000000,0.000000,0.000000,0.000000,0.939548,12.405804,-0.770244
1649934209.115803,6829.000000,1649934209.115581,0.000000,0.000000,1.000000,0.000000,0.000000,0.000000,0.000000,0.939732,12.405173,-0.769306
1649934209.215341,6830.000000,1649934209.215189,0.000000,0.000000,1.000000,0.000000,0.000000,0.000000,0.000000,0.939897,12.404515,-0.769116
1649934209.315341,6831.000000,1649934209.315196,0.000000,0.000000,1.000000,0.000000,0.000000,0.000000,0.000000,0.940044,12.403837,-0.772876
1649934209.415339,6832.000000,1649934209.415176,0.000000,0.000000,1.000000,0.000000,0.000000,0.000000,0.000000,0.939085,12.403146,-0.775583
1649934209.515284,6833.000000,1649934209.515163,0.000000,0.000000,1.000000,0.000000,0.000000,0.000000,0.000000,0.938174,12.403538,-0.779701
1649934209.615366,6834.000000,1649934209.615223,0.000000,0.000000,1.000000,0.000000,0.000000,0.000000,0.000000,0.937310,12.401685,-0.780329
1649934209.715353,6835.000000,1649934209.715203,0.000000,0.000000,1.000000,0.000000,0.000000,0.000000,0.000000,0.938675,12.400987,-0.782451
1649934209.815305,6836.000000,1649934209.815151,0.000000,0.000000,1.000000,0.000000,0.000000,0.000000,0.000000,0.939963,12.401387,-0.786812
1649934209.915582,6837.000000,1649934209.915413,0.000000,0.000000,1.000000,0.000000,0.000000,0.000000,0.000000,0.941174,12.400644,-0.783643
1649934210.015275,6838.000000,1649934210.015122,0.000000,0.000000,1.000000,0.000000,0.000000,0.000000,0.000000,0.942308,12.398825,-0.778900
1649934210.115257,6839.000000,1649934210.115124,0.000000,0.000000,1.000000,0.000000,0.000000,0.000000,0.000000,0.942276,12.398175,-0.777498
1649934210.215430,6840.000000,1649934210.215227,0.000000,0.000000,1.000000,0.000000,0.000000,0.000000,0.000000,0.942233,12.396455,-0.777695
1649934210.315272,6841.000000,1649934210.315138,0.000000,0.000000,1.000000,0.000000,0.000000,0.000000,0.000000,0.942182,12.393729,-0.776203
1649934210.415227,6842.000000,1649934210.415096,0.000000,0.000000,1.000000,0.000000,0.000000,0.000000,0.000000,0.942122,12.391150,-0.774709
1649934210.515455,6843.000000,1649934210.515329,0.000000,0.000000,1.000000,0.000000,0.000000,0.000000,0.000000,0.942055,12.389810,-0.774830
1649934210.615273,6844.000000,1649934210.615141,0.000000,0.000000,1.000000,0.000000,0.000000,0.000000,0.000000,0.941982,12.388555,-0.774892
1649934210.715285,6845.000000,1649934210.715153,0.000000,0.000000,1.000000,0.000000,0.000000,0.000000,0.000000,0.941905,12.386292,-0.774091
1649934210.815225,6846.000000,1649934210.815098,0.000000,0.000000,1.000000,0.000000,0.000000,0.000000,0.000000,0.940734,12.385263,-0.775693
1649934210.915513,6847.000000,1649934210.915280,0.000000,0.000000,1.000000,0.000000,0.000000,0.000000,0.000000,0.939623,12.386495,-0.777180
1649934211.015266,6848.000000,1649934211.015134,0.000000,0.000000,1.000000,0.000000,0.000000,0.000000,0.000000,0.938573,12.386587,-0.777751
1649934211.115253,6849.000000,1649934211.115125,0.000000,0.000000,1.000000,0.000000,0.000000,0.000000,0.000000,0.938674,12.385599,-0.773410
1649934211.215220,6850.000000,1649934211.215084,0.000000,0.000000,1.000000,0.000000,0.000000,0.000000,0.000000,0.939862,12.382504,-0.765172
1649934211.315211,6851.000000,1649934211.315078,0.000000,0.000000,1.000000,0.000000,0.000000,0.000000,0.000000,0.939894,12.380695,-0.759662
1649934211.415346,6852.000000,1649934211.415197,0.000000,0.000000,1.000000,0.000000,0.000000,0.000000,0.000000,0.939924,12.379015,-0.753553
1649934211.515764,6853.000000,1649934211.515620,0.000000,0.000000,1.000000,0.000000,0.000000,0.000000,0.000000,0.939951,12.378553,-0.749300
1649934211.615270,6854.000000,1649934211.615141,0.000000,0.000000,1.000000,0.000000,0.000000,0.000000,0.000000,0.939975,12.379240,-0.746030
1649934211.715314,6855.000000,1649934211.715170,0.000000,0.000000,1.000000,0.000000,0.000000,0.000000,0.000000,0.938906,12.378830,-0.739675
1649934211.815425,6856.000000,1649934211.815283,0.000000,0.000000,1.000000,0.000000,0.000000,0.000000,0.000000,0.938988,12.378472,-0.738436
1649934211.915343,6857.000000,1649934211.915196,0.000000,0.000000,1.000000,0.000000,0.000000,0.000000,0.000000,0.939067,12.377072,-0.734042
1649934212.015254,6858.000000,1649934212.015098,0.000000,0.000000,1.000000,0.000000,0.000000,0.000000,0.000000,0.938054,12.376871,-0.731466
1649934212.115285,6859.000000,1649934212.115133,0.000000,0.000000,1.000000,0.000000,0.000000,0.000000,0.000000,0.938190,12.377802,-0.731444
1649934212.215266,6860.000000,1649934212.215127,0.000000,0.000000,1.000000,0.000000,0.000000,0.000000,0.000000,0.937233,12.378708,-0.731453
1649934212.315225,6861.000000,1649934212.315085,0.000000,0.000000,1.000000,0.000000,0.000000,0.000000,0.000000,0.933063,12.381767,-0.698426
1649934212.415339,6862.000000,1649934212.415161,0.000000,0.000000,1.000000,0.000000,0.000000,0.000000,0.000000,0.931321,12.382489,-0.670845
1649934212.515348,6863.000000,1649934212.515190,0.000000,0.000000,1.000000,0.000000,0.000000,0.000000,0.000000,0.929698,12.383180,-0.650955
1649934212.615376,6864.000000,1649934212.615211,0.000000,0.000000,1.000000,0.000000,0.000000,0.000000,0.000000,0.928190,12.396923,-0.657021
1649934212.715319,6865.000000,1649934212.715153,0.000000,0.000000,1.000000,0.000000,0.000000,0.000000,0.000000,0.927886,12.405518,-0.660562
1649934212.815338,6866.000000,1649934212.815204,0.000000,0.000000,1.000000,0.000000,0.000000,0.000000,0.000000,0.926538,12.410310,-0.658441
1649934212.915352,6867.000000,1649934212.915215,0.000000,0.000000,1.000000,0.000000,0.000000,0.000000,0.000000,0.925295,12.413676,-0.659756
1649934213.015579,6868.000000,1649934213.015349,0.000000,0.000000,1.000000,0.000000,0.000000,0.000000,0.000000,0.925246,12.414596,-0.660329
1649934213.115630,6869.000000,1649934213.115481,0.000000,0.000000,1.000000,0.000000,0.000000,0.000000,0.000000,0.925231,12.414298,-0.666636
1649934213.215350,6870.000000,1649934213.215209,0.000000,0.000000,1.000000,0.000000,0.000000,0.000000,0.000000,0.925248,12.413941,-0.676010
1649934213.315305,6871.000000,1649934213.315170,0.000000,0.000000,1.000000,0.000000,0.000000,0.000000,0.000000,0.926384,12.414627,-0.685889
1649934213.415617,6872.000000,1649934213.415458,0.000000,0.000000,1.000000,0.000000,0.000000,0.000000,0.000000,0.928572,12.414118,-0.696232
1649934213.515538,6873.000000,1649934213.515377,0.000000,0.000000,1.000000,0.000000,0.000000,0.000000,0.000000,0.930656,12.413576,-0.704582
1649934213.615454,6874.000000,1649934213.615344,0.000000,0.000000,1.000000,0.000000,0.000000,0.000000,0.000000,0.931544,12.411917,-0.703744
1649934213.715339,6875.000000,1649934213.715200,0.000000,0.000000,1.000000,0.000000,0.000000,0.000000,0.000000,0.932388,12.409210,-0.698930
1649934213.815267,6876.000000,1649934213.815146,0.000000,0.000000,1.000000,0.000000,0.000000,0.000000,0.000000,0.934279,12.406615,-0.697563
1649934213.915342,6877.000000,1649934213.915205,0.000000,0.000000,1.000000,0.000000,0.000000,0.000000,0.000000,0.936063,12.403045,-0.695475
1649934214.015323,6878.000000,1649934214.015178,0.000000,0.000000,1.000000,0.000000,0.000000,0.000000,0.000000,0.937739,12.399657,-0.693502
1649934214.115271,6879.000000,1649934214.115151,0.000000,0.000000,1.000000,0.000000,0.000000,0.000000,0.000000,0.939310,12.397541,-0.694062
1649934214.215505,6880.000000,1649934214.215336,0.000000,0.000000,1.000000,0.000000,0.000000,0.000000,0.000000,0.940777,12.395546,-0.697051
1649934214.315582,6881.000000,1649934214.315412,0.000000,0.000000,1.000000,0.000000,0.000000,0.000000,0.000000,0.942143,12.393671,-0.698331
1649934214.415372,6882.000000,1649934214.415180,0.000000,0.000000,1.000000,0.000000,0.000000,0.000000,0.000000,0.943408,12.391914,-0.701194
1649934214.515766,6883.000000,1649934214.515534,0.000000,0.000000,1.000000,0.000000,0.000000,0.000000,0.000000,0.944577,12.390273,-0.702345
1649934214.615563,6884.000000,1649934214.615422,0.000000,0.000000,1.000000,0.000000,0.000000,0.000000,0.000000,0.946744,12.387657,-0.703463
1649934214.715290,6885.000000,1649934214.715167,0.000000,0.000000,1.000000,0.000000,0.000000,0.000000,0.000000,0.947667,12.387395,-0.708579
1649934214.815441,6886.000000,1649934214.815253,0.000000,0.000000,1.000000,0.000000,0.000000,0.000000,0.000000,0.947413,12.387179,-0.711072
1649934214.915272,6887.000000,1649934214.915133,0.000000,0.000000,1.000000,0.000000,0.000000,0.000000,0.000000,0.946051,12.385913,-0.711042
1649934215.015552,6888.000000,1649934215.015370,0.000000,0.000000,1.000000,0.000000,0.000000,0.000000,0.000000,0.944735,12.385839,-0.712624
1649934215.115148,6889.000000,1649934215.115041,0.000000,0.000000,1.000000,0.000000,0.000000,0.000000,0.000000,0.944561,12.385798,-0.714137
1649934215.215248,6890.000000,1649934215.215134,0.000000,0.000000,1.000000,0.000000,0.000000,0.000000,0.000000,0.945468,12.384699,-0.710743
1649934215.315269,6891.000000,1649934215.315151,0.000000,0.000000,1.000000,0.000000,0.000000,0.000000,0.000000,0.946304,12.383689,-0.703453
1649934215.415493,6892.000000,1649934215.415279,0.000000,0.000000,1.000000,0.000000,0.000000,0.000000,0.000000,0.947072,12.381676,-0.696467
1649934215.515574,6893.000000,1649934215.515444,0.000000,0.000000,1.000000,0.000000,0.000000,0.000000,0.000000,0.946685,12.379809,-0.691399
1649934215.615318,6894.000000,1649934215.615164,0.000000,0.000000,1.000000,0.000000,0.000000,0.000000,0.000000,0.946298,12.379175,-0.688985
1649934215.715310,6895.000000,1649934215.715155,0.000000,0.000000,1.000000,0.000000,0.000000,0.000000,0.000000,0.945913,12.378614,-0.689120
1649934215.815838,6896.000000,1649934215.815674,0.000000,0.000000,1.000000,0.000000,0.000000,0.000000,0.000000,0.944443,12.378124,-0.688474
1649934215.915697,6897.000000,1649934215.915531,0.000000,0.000000,1.000000,0.000000,0.000000,0.000000,0.000000,0.943042,12.377699,-0.691112
1649934216.015333,6898.000000,1649934216.015176,0.000000,0.000000,1.000000,0.000000,0.000000,0.000000,0.000000,0.942802,12.377334,-0.695282
1649934216.115357,6899.000000,1649934216.115198,0.000000,0.000000,1.000000,0.000000,0.000000,0.000000,0.000000,0.942571,12.377027,-0.700914
1649934216.215480,6900.000000,1649934216.215353,0.000000,0.000000,1.000000,0.000000,0.000000,0.000000,0.000000,0.941258,12.377861,-0.707939
1649934216.315314,6901.000000,1649934216.315177,0.000000,0.000000,1.000000,0.000000,0.000000,0.000000,0.000000,0.940018,12.378682,-0.713869
1649934216.415211,6902.000000,1649934216.415100,0.000000,0.000000,1.000000,0.000000,0.000000,0.000000,0.000000,0.938850,12.379484,-0.721158
1649934216.515657,6903.000000,1649934216.515506,0.000000,0.000000,1.000000,0.000000,0.000000,0.000000,0.000000,0.938844,12.380264,-0.726513
1649934216.615266,6904.000000,1649934216.615150,0.000000,0.000000,1.000000,0.000000,0.000000,0.000000,0.000000,0.938846,12.378840,-0.729199
1649934216.715261,6905.000000,1649934216.715116,0.000000,0.000000,1.000000,0.000000,0.000000,0.000000,0.000000,0.938854,12.377516,-0.729319
1649934216.815317,6906.000000,1649934216.815181,0.000000,0.000000,1.000000,0.000000,0.000000,0.000000,0.000000,0.937779,12.377379,-0.731010
1649934216.915374,6907.000000,1649934216.915243,0.000000,0.000000,1.000000,0.000000,0.000000,0.000000,0.000000,0.937863,12.377274,-0.733403
1649934217.015368,6908.000000,1649934217.015247,0.000000,0.000000,1.000000,0.000000,0.000000,0.000000,0.000000,0.936860,12.377197,-0.738078
1649934217.115274,6909.000000,1649934217.115133,0.000000,0.000000,1.000000,0.000000,0.000000,0.000000,0.000000,0.937014,12.378237,-0.744937
1649934217.215364,6910.000000,1649934217.215213,0.000000,0.000000,1.000000,0.000000,0.000000,0.000000,0.000000,0.936080,12.378147,-0.753077
1649934217.315202,6911.000000,1649934217.315088,0.000000,0.000000,1.000000,0.000000,0.000000,0.000000,0.000000,0.936299,12.378078,-0.756788
1649934217.415591,6912.000000,1649934217.415473,0.000000,0.000000,1.000000,0.000000,0.000000,0.000000,0.000000,0.936518,12.379119,-0.763505
1649934217.515358,6913.000000,1649934217.515211,0.000000,0.000000,1.000000,0.000000,0.000000,0.000000,0.000000,0.936735,12.380116,-0.767453
1649934217.615286,6914.000000,1649934217.615152,0.000000,0.000000,1.000000,0.000000,0.000000,0.000000,0.000000,0.938039,12.379975,-0.768739
1649934217.715502,6915.000000,1649934217.715327,0.000000,0.000000,1.000000,0.000000,0.000000,0.000000,0.000000,0.938186,12.379850,-0.771505
1649934217.815286,6916.000000,1649934217.815114,0.000000,0.000000,1.000000,0.000000,0.000000,0.000000,0.000000,0.937238,12.379740,-0.774882
1649934217.915546,6917.000000,1649934217.915351,0.000000,0.000000,1.000000,0.000000,0.000000,0.000000,0.000000,0.936348,12.379643,-0.776426
1649934218.015752,6918.000000,1649934218.015566,0.000000,0.000000,1.000000,0.000000,0.000000,0.000000,0.000000,0.935515,12.379559,-0.779437
1649934218.115699,6919.000000,1649934218.115550,0.000000,0.000000,1.000000,0.000000,0.000000,0.000000,0.000000,0.933647,12.379487,-0.783853
1649934218.215769,6920.000000,1649934218.215600,0.000000,0.000000,1.000000,0.000000,0.000000,0.000000,0.000000,0.931898,12.377245,-0.783163
1649934218.315605,6921.000000,1649934218.315468,0.000000,0.000000,1.000000,0.000000,0.000000,0.000000,0.000000,0.931354,12.376230,-0.783223
1649934218.415651,6922.000000,1649934218.415513,0.000000,0.000000,1.000000,0.000000,0.000000,0.000000,0.000000,0.931952,12.376376,-0.782393
1649934218.515619,6923.000000,1649934218.515474,0.000000,0.000000,1.000000,0.000000,0.000000,0.000000,0.000000,0.931445,12.376529,-0.783939
1649934218.615724,6924.000000,1649934218.615538,0.000000,0.000000,1.000000,0.000000,0.000000,0.000000,0.000000,0.932074,12.376688,-0.785347
1649934218.715740,6925.000000,1649934218.715556,0.000000,0.000000,1.000000,0.000000,0.000000,0.000000,0.000000,0.932685,12.375759,-0.784205
1649934218.815627,6926.000000,1649934218.815481,0.000000,0.000000,1.000000,0.000000,0.000000,0.000000,0.000000,0.933275,12.374896,-0.780619
1649934218.915633,6927.000000,1649934218.915481,0.000000,0.000000,1.000000,0.000000,0.000000,0.000000,0.000000,0.933843,12.374096,-0.779536
1649934219.015718,6928.000000,1649934219.015576,0.000000,0.000000,1.000000,0.000000,0.000000,0.000000,0.000000,0.934388,12.373357,-0.779246
1649934219.115667,6929.000000,1649934219.115488,0.000000,0.000000,1.000000,0.000000,0.000000,0.000000,0.000000,0.934909,12.373769,-0.780528
1649934219.215451,6930.000000,1649934219.215319,0.000000,0.000000,1.000000,0.000000,0.000000,0.000000,0.000000,0.935405,12.374174,-0.781705
1649934219.315270,6931.000000,1649934219.315125,0.000000,0.000000,1.000000,0.000000,0.000000,0.000000,0.000000,0.935876,12.373482,-0.777136
1649934219.415326,6932.000000,1649934219.415158,0.000000,0.000000,1.000000,0.000000,0.000000,0.000000,0.000000,0.935231,12.373933,-0.776739
1649934219.515277,6933.000000,1649934219.515137,0.000000,0.000000,1.000000,0.000000,0.000000,0.000000,0.000000,0.934624,12.374374,-0.772286
1649934219.615348,6934.000000,1649934219.615181,0.000000,0.000000,1.000000,0.000000,0.000000,0.000000,0.000000,0.934053,12.374802,-0.767175
1649934219.715455,6935.000000,1649934219.715317,0.000000,0.000000,1.000000,0.000000,0.000000,0.000000,0.000000,0.933519,12.375216,-0.763054
1649934219.815591,6936.000000,1649934219.815422,0.000000,0.000000,1.000000,0.000000,0.000000,0.000000,0.000000,0.933022,12.374524,-0.757473
1649934219.915415,6937.000000,1649934219.915205,0.000000,0.000000,1.000000,0.000000,0.000000,0.000000,0.000000,0.931469,12.373880,-0.754532
1649934220.015343,6938.000000,1649934220.015187,0.000000,0.000000,1.000000,0.000000,0.000000,0.000000,0.000000,0.930013,12.373281,-0.748486
1649934220.115528,6939.000000,1649934220.115356,0.000000,0.000000,1.000000,0.000000,0.000000,0.000000,0.000000,0.928654,12.373817,-0.745115
1649934220.215403,6940.000000,1649934220.215252,0.000000,0.000000,1.000000,0.000000,0.000000,0.000000,0.000000,0.927387,12.374334,-0.744316
1649934220.315366,6941.000000,1649934220.315219,0.000000,0.000000,1.000000,0.000000,0.000000,0.000000,0.000000,0.927303,12.374830,-0.745179
1649934220.415449,6942.000000,1649934220.415311,0.000000,0.000000,1.000000,0.000000,0.000000,0.000000,0.000000,0.927245,12.378576,-0.750862
1649934220.515723,6943.000000,1649934220.515579,0.000000,0.000000,1.000000,0.000000,0.000000,0.000000,0.000000,0.927211,12.382111,-0.759547
1649934220.615332,6944.000000,1649934220.615180,0.000000,0.000000,1.000000,0.000000,0.000000,0.000000,0.000000,0.927198,12.385436,-0.767872
1649934220.715378,6945.000000,1649934220.715224,0.000000,0.000000,1.000000,0.000000,0.000000,0.000000,0.000000,0.922842,12.390734,-0.739547
1649934220.815240,6946.000000,1649934220.815104,0.000000,0.000000,1.000000,0.000000,0.000000,0.000000,0.000000,0.920936,12.393520,-0.718035
1649934220.915415,6947.000000,1649934220.915240,0.000000,0.000000,1.000000,0.000000,0.000000,0.000000,0.000000,0.920259,12.396107,-0.702289
1649934221.015419,6948.000000,1649934221.015235,0.000000,0.000000,1.000000,0.000000,0.000000,0.000000,0.000000,0.919654,12.397408,-0.691296
1649934221.115322,6949.000000,1649934221.115163,0.000000,0.000000,1.000000,0.000000,0.000000,0.000000,0.000000,0.919117,12.399674,-0.686490
1649934221.215381,6950.000000,1649934221.215236,0.000000,0.000000,1.000000,0.000000,0.000000,0.000000,0.000000,0.919735,12.400668,-0.685209
1649934221.315336,6951.000000,1649934221.315188,0.000000,0.000000,1.000000,0.000000,0.000000,0.000000,0.000000,0.920350,12.401549,-0.685693
1649934221.415443,6952.000000,1649934221.415279,0.000000,0.000000,1.000000,0.000000,0.000000,0.000000,0.000000,0.920959,12.401234,-0.684642
1649934221.515961,6953.000000,1649934221.515812,0.000000,0.000000,1.000000,0.000000,0.000000,0.000000,0.000000,0.922648,12.400882,-0.683728
1649934221.615656,6954.000000,1649934221.615473,0.000000,0.000000,1.000000,0.000000,0.000000,0.000000,0.000000,0.924263,12.400501,-0.686169
1649934221.715731,6955.000000,1649934221.715567,0.000000,0.000000,1.000000,0.000000,0.000000,0.000000,0.000000,0.925800,12.400095,-0.691014
1649934221.815441,6956.000000,1649934221.815313,0.000000,0.000000,1.000000,0.000000,0.000000,0.000000,0.000000,0.928350,12.399669,-0.694124
1649934221.915320,6957.000000,1649934221.915160,0.000000,0.000000,1.000000,0.000000,0.000000,0.000000,0.000000,0.930758,12.399230,-0.693946
1649934222.015430,6958.000000,1649934222.015260,0.000000,0.000000,1.000000,0.000000,0.000000,0.000000,0.000000,0.930843,12.397689,-0.696257
1649934222.115309,6959.000000,1649934222.115183,0.000000,0.000000,1.000000,0.000000,0.000000,0.000000,0.000000,0.932005,12.395115,-0.692077
1649934222.215552,6960.000000,1649934222.215379,0.000000,0.000000,1.000000,0.000000,0.000000,0.000000,0.000000,0.933090,12.392664,-0.691352
1649934222.315480,6961.000000,1649934222.315330,0.000000,0.000000,1.000000,0.000000,0.000000,0.000000,0.000000,0.935190,12.390337,-0.691522
1649934222.415460,6962.000000,1649934222.415270,0.000000,0.000000,1.000000,0.000000,0.000000,0.000000,0.000000,0.937155,12.388136,-0.694966
1649934222.515669,6963.000000,1649934222.515459,0.000000,0.000000,1.000000,0.000000,0.000000,0.000000,0.000000,0.940077,12.387151,-0.699125
1649934222.615676,6964.000000,1649934222.615541,0.000000,0.000000,1.000000,0.000000,0.000000,0.000000,0.000000,0.941715,12.385139,-0.701542
1649934222.715602,6965.000000,1649934222.715469,0.000000,0.000000,1.000000,0.000000,0.000000,0.000000,0.000000,0.943226,12.384341,-0.704701
1649934222.815323,6966.000000,1649934222.815199,0.000000,0.000000,1.000000,0.000000,0.000000,0.000000,0.000000,0.943525,12.383602,-0.707759
1649934222.915345,6967.000000,1649934222.915195,0.000000,0.000000,1.000000,0.000000,0.000000,0.000000,0.000000,0.943770,12.382921,-0.710714
1649934223.015924,6968.000000,1649934223.015745,0.000000,0.000000,1.000000,0.000000,0.000000,0.000000,0.000000,0.945054,12.382297,-0.716789
1649934223.115743,6969.000000,1649934223.115536,0.000000,0.000000,1.000000,0.000000,0.000000,0.000000,0.000000,0.946229,12.381726,-0.723429
1649934223.215574,6970.000000,1649934223.215371,0.000000,0.000000,1.000000,0.000000,0.000000,0.000000,0.000000,0.947300,12.381206,-0.728180
1649934223.315749,6971.000000,1649934223.315466,0.000000,0.000000,1.000000,0.000000,0.000000,0.000000,0.000000,0.949362,12.380735,-0.733531
1649934223.415396,6972.000000,1649934223.415230,0.000000,0.000000,1.000000,0.000000,0.000000,0.000000,0.000000,0.950175,12.379221,-0.735415
1649934223.515420,6973.000000,1649934223.515240,0.000000,0.000000,1.000000,0.000000,0.000000,0.000000,0.000000,0.949808,12.378904,-0.738003
1649934223.615516,6974.000000,1649934223.615351,0.000000,0.000000,1.000000,0.000000,0.000000,0.000000,0.000000,0.948329,12.377538,-0.737231
1649934223.715376,6975.000000,1649934223.715220,0.000000,0.000000,1.000000,0.000000,0.000000,0.000000,0.000000,0.946896,12.376274,-0.734850
1649934223.815464,6976.000000,1649934223.815261,0.000000,0.000000,1.000000,0.000000,0.000000,0.000000,0.000000,0.946604,12.376199,-0.736576
1649934223.915542,6977.000000,1649934223.915338,0.000000,0.000000,1.000000,0.000000,0.000000,0.000000,0.000000,0.945211,12.375065,-0.733369
1649934224.015682,6978.000000,1649934224.015546,0.000000,0.000000,1.000000,0.000000,0.000000,0.000000,0.000000,0.944965,12.375113,-0.732693
1649934224.115371,6979.000000,1649934224.115235,0.000000,0.000000,1.000000,0.000000,0.000000,0.000000,0.000000,0.944714,12.375187,-0.733641
1649934224.215451,6980.000000,1649934224.215233,0.000000,0.000000,1.000000,0.000000,0.000000,0.000000,0.000000,0.944461,12.376374,-0.732921
1649934224.315341,6981.000000,1649934224.315165,0.000000,0.000000,1.000000,0.000000,0.000000,0.000000,0.000000,0.943117,12.377516,-0.732216
1649934224.415361,6982.000000,1649934224.415235,0.000000,0.000000,1.000000,0.000000,0.000000,0.000000,0.000000,0.940747,12.376432,-0.729913
1649934224.516015,6983.000000,1649934224.515828,0.000000,0.000000,1.000000,0.000000,0.000000,0.000000,0.000000,0.939595,12.375426,-0.728501
1649934224.615700,6984.000000,1649934224.615538,0.000000,0.000000,1.000000,0.000000,0.000000,0.000000,0.000000,0.938508,12.374495,-0.728753
1649934224.715863,6985.000000,1649934224.715678,0.000000,0.000000,1.000000,0.000000,0.000000,0.000000,0.000000,0.937487,12.374728,-0.732215
1649934224.815556,6986.000000,1649934224.815414,0.000000,0.000000,1.000000,0.000000,0.000000,0.000000,0.000000,0.936529,12.374969,-0.736332
1649934224.915758,6987.000000,1649934224.915555,0.000000,0.000000,1.000000,0.000000,0.000000,0.000000,0.000000,0.934545,12.374125,-0.736233
1649934225.015605,6988.000000,1649934225.015456,0.000000,0.000000,1.000000,0.000000,0.000000,0.000000,0.000000,0.932685,12.373347,-0.734508
1649934225.115403,6989.000000,1649934225.115177,0.000000,0.000000,1.000000,0.000000,0.000000,0.000000,0.000000,0.932039,12.373723,-0.734452
1649934225.215393,6990.000000,1649934225.215175,0.000000,0.000000,1.000000,0.000000,0.000000,0.000000,0.000000,0.931450,12.374097,-0.734385
1649934225.315313,6991.000000,1649934225.315154,0.000000,0.000000,1.000000,0.000000,0.000000,0.000000,0.000000,0.930916,12.375558,-0.738341
1649934225.415674,6992.000000,1649934225.415502,0.000000,0.000000,1.000000,0.000000,0.000000,0.000000,0.000000,0.930435,12.376951,-0.742119
1649934225.515319,6993.000000,1649934225.515162,0.000000,0.000000,1.000000,0.000000,0.000000,0.000000,0.000000,0.930004,12.378274,-0.744915
1649934225.615407,6994.000000,1649934225.615250,0.000000,0.000000,1.000000,0.000000,0.000000,0.000000,0.000000,0.928529,12.380617,-0.745957
1649934225.715436,6995.000000,1649934225.715286,0.000000,0.000000,1.000000,0.000000,0.000000,0.000000,0.000000,0.928252,12.381736,-0.747735
1649934225.815429,6996.000000,1649934225.815287,0.000000,0.000000,1.000000,0.000000,0.000000,0.000000,0.000000,0.928015,12.382785,-0.748605
1649934225.915287,6997.000000,1649934225.915136,0.000000,0.000000,1.000000,0.000000,0.000000,0.000000,0.000000,0.927818,12.384855,-0.751023
1649934226.015338,6998.000000,1649934226.015191,0.000000,0.000000,1.000000,0.000000,0.000000,0.000000,0.000000,0.928745,12.385705,-0.750084
1649934226.115279,6999.000000,1649934226.115139,0.000000,0.000000,1.000000,0.000000,0.000000,0.000000,0.000000,0.929643,12.386489,-0.750765
1649934226.215428,7000.000000,1649934226.215270,0.000000,0.000000,1.000000,0.000000,0.000000,0.000000,0.000000,0.929417,12.386119,-0.751389
1649934226.315406,7001.000000,1649934226.315072,0.000000,0.000000,1.000000,0.000000,0.000000,0.000000,0.000000,0.929220,12.386841,-0.753571
1649934226.415429,7002.000000,1649934226.415277,0.000000,0.000000,1.000000,0.000000,0.000000,0.000000,0.000000,0.929049,12.387505,-0.756439
1649934226.515757,7003.000000,1649934226.515626,0.000000,0.000000,1.000000,0.000000,0.000000,0.000000,0.000000,0.928903,12.387021,-0.755930
1649934226.615348,7004.000000,1649934226.615151,0.000000,0.000000,1.000000,0.000000,0.000000,0.000000,0.000000,0.928780,12.385456,-0.752182
1649934226.715315,7005.000000,1649934226.715136,0.000000,0.000000,1.000000,0.000000,0.000000,0.000000,0.000000,0.928677,12.383964,-0.745334
1649934226.815286,7006.000000,1649934226.815114,0.000000,0.000000,1.000000,0.000000,0.000000,0.000000,0.000000,0.927504,12.382547,-0.738748
1649934226.915434,7007.000000,1649934226.915278,0.000000,0.000000,1.000000,0.000000,0.000000,0.000000,0.000000,0.927502,12.380115,-0.731621
1649934227.015820,7008.000000,1649934227.015650,0.000000,0.000000,1.000000,0.000000,0.000000,0.000000,0.000000,0.928606,12.377822,-0.727211
1649934227.115673,7009.000000,1649934227.115510,0.000000,0.000000,1.000000,0.000000,0.000000,0.000000,0.000000,0.929662,12.375666,-0.722996
1649934227.215633,7010.000000,1649934227.215509,0.000000,0.000000,1.000000,0.000000,0.000000,0.000000,0.000000,0.930667,12.375828,-0.723008
1649934227.315877,7011.000000,1649934227.315614,0.000000,0.000000,1.000000,0.000000,0.000000,0.000000,0.000000,0.931622,12.377089,-0.725462
1649934227.415833,7012.000000,1649934227.415624,0.000000,0.000000,1.000000,0.000000,0.000000,0.000000,0.000000,0.930344,12.378293,-0.728641
1649934227.515696,7013.000000,1649934227.515523,0.000000,0.000000,1.000000,0.000000,0.000000,0.000000,0.000000,0.931322,12.379440,-0.733318
1649934227.615548,7014.000000,1649934227.615345,0.000000,0.000000,1.000000,0.000000,0.000000,0.000000,0.000000,0.932247,12.379438,-0.734583
1649934227.715358,7015.000000,1649934227.715216,0.000000,0.000000,1.000000,0.000000,0.000000,0.000000,0.000000,0.933120,12.378349,-0.734186
1649934227.815946,7016.000000,1649934227.815770,0.000000,0.000000,1.000000,0.000000,0.000000,0.000000,0.000000,0.932851,12.377327,-0.730581
1649934227.915703,7017.000000,1649934227.915499,0.000000,0.000000,1.000000,0.000000,0.000000,0.000000,0.000000,0.933684,12.376370,-0.726322
1649934228.015352,7018.000000,1649934228.015199,0.000000,0.000000,1.000000,0.000000,0.000000,0.000000,0.000000,0.934466,12.374386,-0.717411
1649934228.115407,7019.000000,1649934228.115202,0.000000,0.000000,1.000000,0.000000,0.000000,0.000000,0.000000,0.935197,12.373619,-0.713728
1649934228.215351,7020.000000,1649934228.215193,0.000000,0.000000,1.000000,0.000000,0.000000,0.000000,0.000000,0.935879,12.371823,-0.706194
1649934228.315419,7021.000000,1649934228.315206,0.000000,0.000000,1.000000,0.000000,0.000000,0.000000,0.000000,0.936512,12.371238,-0.704656
1649934228.415368,7022.000000,1649934228.415189,0.000000,0.000000,1.000000,0.000000,0.000000,0.000000,0.000000,0.937099,12.371799,-0.701612
1649934228.515488,7023.000000,1649934228.515342,0.000000,0.000000,1.000000,0.000000,0.000000,0.000000,0.000000,0.937639,12.371261,-0.699547
1649934228.615607,7024.000000,1649934228.615463,0.000000,0.000000,1.000000,0.000000,0.000000,0.000000,0.000000,0.937045,12.372954,-0.699230
1649934228.715620,7025.000000,1649934228.715475,0.000000,0.000000,1.000000,0.000000,0.000000,0.000000,0.000000,0.936472,12.373479,-0.692522
1649934228.815412,7026.000000,1649934228.815069,0.000000,0.000000,1.000000,0.000000,0.000000,0.000000,0.000000,0.938101,12.372898,-0.686144
1649934228.915365,7027.000000,1649934228.915107,0.000000,0.000000,1.000000,0.000000,0.000000,0.000000,0.000000,0.937447,12.372362,-0.675251
1649934229.015402,7028.000000,1649934229.015229,0.000000,0.000000,1.000000,0.000000,0.000000,0.000000,0.000000,0.936817,12.370779,-0.664880
1649934229.115223,7029.000000,1649934229.115111,0.000000,0.000000,1.000000,0.000000,0.000000,0.000000,0.000000,0.936213,12.369301,-0.658249
1649934229.215394,7030.000000,1649934229.215212,0.000000,0.000000,1.000000,0.000000,0.000000,0.000000,0.000000,0.936726,12.367925,-0.651990
1649934229.315409,7031.000000,1649934229.315191,0.000000,0.000000,1.000000,0.000000,0.000000,0.000000,0.000000,0.937203,12.367740,-0.651738
1649934229.415398,7032.000000,1649934229.415215,0.000000,0.000000,1.000000,0.000000,0.000000,0.000000,0.000000,0.937647,12.367590,-0.651602
1649934229.515354,7033.000000,1649934229.515152,0.000000,0.000000,1.000000,0.000000,0.000000,0.000000,0.000000,0.939147,12.367471,-0.653993
1649934229.615423,7034.000000,1649934229.615212,0.000000,0.000000,1.000000,0.000000,0.000000,0.000000,0.000000,0.940551,12.369561,-0.656381
1649934229.715359,7035.000000,1649934229.715151,0.000000,0.000000,1.000000,0.000000,0.000000,0.000000,0.000000,0.940772,12.371553,-0.658758
1649934229.815267,7036.000000,1649934229.815112,0.000000,0.000000,1.000000,0.000000,0.000000,0.000000,0.000000,0.940964,12.373443,-0.660310
1649934229.915272,7037.000000,1649934229.915165,0.000000,0.000000,1.000000,0.000000,0.000000,0.000000,0.000000,0.941129,12.375231,-0.664292
1649934230.015423,7038.000000,1649934230.015226,0.000000,0.000000,1.000000,0.000000,0.000000,0.000000,0.000000,0.941268,12.378008,-0.666562
1649934230.115476,7039.000000,1649934230.115326,0.000000,0.000000,1.000000,0.000000,0.000000,0.000000,0.000000,0.941385,12.379530,-0.668796
1649934230.215596,7040.000000,1649934230.215394,0.000000,0.000000,1.000000,0.000000,0.000000,0.000000,0.000000,0.897865,12.380952,-0.636312
1649934230.315275,7041.000000,1649934230.315114,0.000000,0.000000,1.000000,0.000000,0.000000,0.000000,0.000000,0.868832,12.381185,-0.609273
1649934230.415379,7042.000000,1649934230.415200,0.000000,0.000000,1.000000,0.000000,0.000000,0.000000,0.000000,0.849221,12.383566,-0.593144
1649934230.515624,7043.000000,1649934230.515432,0.000000,0.000000,1.000000,0.000000,0.000000,0.000000,0.000000,0.836387,12.384701,-0.583476
1649934230.615776,7044.000000,1649934230.615650,0.000000,0.000000,1.000000,0.000000,0.000000,0.000000,0.000000,0.829986,12.384655,-0.571147
1649934230.715718,7045.000000,1649934230.715502,0.000000,0.000000,1.000000,0.000000,0.000000,0.000000,0.000000,0.827492,12.386765,-0.567568
1649934230.815685,7046.000000,1649934230.815511,0.000000,0.000000,1.000000,0.000000,0.000000,0.000000,0.000000,0.828682,12.388729,-0.565933
1649934230.915356,7047.000000,1649934230.915213,0.000000,0.000000,1.000000,0.000000,0.000000,0.000000,0.000000,0.831156,12.389459,-0.570190
1649934231.015731,7048.000000,1649934231.015575,0.000000,0.000000,1.000000,0.000000,0.000000,0.000000,0.000000,0.834821,12.390112,-0.575248
1649934231.115741,7049.000000,1649934231.115565,0.000000,0.000000,1.000000,0.000000,0.000000,0.000000,0.000000,0.839587,12.391785,-0.582673
1649934231.215842,7050.000000,1649934231.215672,0.000000,0.000000,1.000000,0.000000,0.000000,0.000000,0.000000,0.845366,12.392236,-0.592350
1649934231.315685,7051.000000,1649934231.315497,0.000000,0.000000,1.000000,0.000000,0.000000,0.000000,0.000000,0.850985,12.392624,-0.601748
1649934231.415606,7052.000000,1649934231.415456,0.000000,0.000000,1.000000,0.000000,0.000000,0.000000,0.000000,0.855336,12.394043,-0.614888
1649934231.515938,7053.000000,1649934231.515771,0.000000,0.000000,1.000000,0.000000,0.000000,0.000000,0.000000,0.860646,12.395345,-0.627562
1649934231.615718,7054.000000,1649934231.615527,0.000000,0.000000,1.000000,0.000000,0.000000,0.000000,0.000000,0.865751,12.396535,-0.640572
1649934231.715581,7055.000000,1649934231.715431,0.000000,0.000000,1.000000,0.000000,0.000000,0.000000,0.000000,0.870640,12.396526,-0.651460
1649934231.815896,7056.000000,1649934231.815678,0.000000,0.000000,1.000000,0.000000,0.000000,0.000000,0.000000,0.875307,12.396477,-0.662711
1649934231.915842,7057.000000,1649934231.915655,0.000000,0.000000,1.000000,0.000000,0.000000,0.000000,0.000000,0.878656,12.396393,-0.670262
1649934232.015622,7058.000000,1649934232.015464,0.000000,0.000000,1.000000,0.000000,0.000000,0.000000,0.000000,0.881837,12.396277,-0.679086
1649934232.115797,7059.000000,1649934232.115560,0.000000,0.000000,1.000000,0.000000,0.000000,0.000000,0.000000,0.887029,12.396135,-0.683475
1649934232.215738,7060.000000,1649934232.215554,0.000000,0.000000,1.000000,0.000000,0.000000,0.000000,0.000000,0.890835,12.395970,-0.687633
1649934232.315734,7061.000000,1649934232.315542,0.000000,0.000000,1.000000,0.000000,0.000000,0.000000,0.000000,0.894410,12.394694,-0.689954
1649934232.415830,7062.000000,1649934232.415658,0.000000,0.000000,1.000000,0.000000,0.000000,0.000000,0.000000,0.897756,12.392375,-0.689701
1649934232.515569,7063.000000,1649934232.515394,0.000000,0.000000,1.000000,0.000000,0.000000,0.000000,0.000000,0.899786,12.390168,-0.690209
1649934232.615628,7064.000000,1649934232.615446,0.000000,0.000000,1.000000,0.000000,0.000000,0.000000,0.000000,0.902750,12.388075,-0.692254
1649934232.715287,7065.000000,1649934232.715168,0.000000,0.000000,1.000000,0.000000,0.000000,0.000000,0.000000,0.905499,12.385006,-0.688515
1649934232.815129,7066.000000,1649934232.815001,0.000000,0.000000,1.000000,0.000000,0.000000,0.000000,0.000000,0.908040,12.396289,-0.705847
1649934232.915210,7067.000000,1649934232.915089,0.000000,0.000000,1.000000,0.000000,0.000000,0.000000,0.000000,0.910379,12.403660,-0.717567
1649934233.015246,7068.000000,1649934233.015130,0.000000,0.000000,1.000000,0.000000,0.000000,0.000000,0.000000,0.912524,12.408402,-0.727110
1649934233.115403,7069.000000,1649934233.115242,0.000000,0.000000,1.000000,0.000000,0.000000,0.000000,0.000000,0.915572,12.410644,-0.735358
1649934233.215303,7070.000000,1649934233.215156,0.000000,0.000000,1.000000,0.000000,0.000000,0.000000,0.000000,0.917288,12.412701,-0.741547
1649934233.315277,7071.000000,1649934233.315137,0.000000,0.000000,1.000000,0.000000,0.000000,0.000000,0.000000,0.918834,12.412399,-0.747368
1649934233.415669,7072.000000,1649934233.415472,0.000000,0.000000,1.000000,0.000000,0.000000,0.000000,0.000000,0.919128,12.410961,-0.753636
1649934233.515477,7073.000000,1649934233.515320,0.000000,0.000000,1.000000,0.000000,0.000000,0.000000,0.000000,0.921514,12.409548,-0.761134
1649934233.615461,7074.000000,1649934233.615292,0.000000,0.000000,1.000000,0.000000,0.000000,0.000000,0.000000,0.922602,12.409257,-0.768194
