__time,/dwm1001/id_458E/pose_kf/header/seq,/dwm1001/id_458E/pose_kf/header/stamp,/dwm1001/id_458E/pose_kf/pose/orientation/pitch_deg,/dwm1001/id_458E/pose_kf/pose/orientation/roll_deg,/dwm1001/id_458E/pose_kf/pose/orientation/w,/dwm1001/id_458E/pose_kf/pose/orientation/x,/dwm1001/id_458E/pose_kf/pose/orientation/y,/dwm1001/id_458E/pose_kf/pose/orientation/yaw_deg,/dwm1001/id_458E/pose_kf/pose/orientation/z,/dwm1001/id_458E/pose_kf/pose/position/x,/dwm1001/id_458E/pose_kf/pose/position/y,/dwm1001/id_458E/pose_kf/pose/position/z
1649933346.013055,1222.000000,1649933346.012952,0.000000,0.000000,1.000000,0.000000,0.000000,0.000000,0.000000,3.382518,2.353258,-0.624027
1649933346.113152,1223.000000,1649933346.113046,0.000000,0.000000,1.000000,0.000000,0.000000,0.000000,0.000000,3.383495,2.355021,-0.619480
1649933346.213457,1224.000000,1649933346.213243,0.000000,0.000000,1.000000,0.000000,0.000000,0.000000,0.000000,3.384406,2.356687,-0.617518
1649933346.313284,1225.000000,1649933346.313122,0.000000,0.000000,1.000000,0.000000,0.000000,0.000000,0.000000,3.384163,2.357164,-0.620460
1649933346.413179,1226.000000,1649933346.413031,0.000000,0.000000,1.000000,0.000000,0.000000,0.000000,0.000000,3.383920,2.357607,-0.620038
1649933346.513588,1227.000000,1649933346.513438,0.000000,0.000000,1.000000,0.000000,0.000000,0.000000,0.000000,3.384770,2.355836,-0.624456
1649933346.613143,1228.000000,1649933346.612957,0.000000,0.000000,1.000000,0.000000,0.000000,0.000000,0.000000,3.385560,2.355249,-0.622220
1649933346.713238,1229.000000,1649933346.713077,0.000000,0.000000,1.000000,0.000000,0.000000,0.000000,0.000000,3.386291,2.353603,-0.626506
1649933346.813147,1230.000000,1649933346.813005,0.000000,0.000000,1.000000,0.000000,0.000000,0.000000,0.000000,3.386966,2.350960,-0.628175
1649933346.913156,1231.000000,1649933346.913029,0.000000,0.000000,1.000000,0.000000,0.000000,0.000000,0.000000,3.385406,2.348473,-0.629750
1649933347.013533,1232.000000,1649933347.013314,0.000000,0.000000,1.000000,0.000000,0.000000,0.000000,0.000000,3.385009,2.346141,-0.631232
1649933347.113427,1233.000000,1649933347.113291,0.000000,0.000000,1.000000,0.000000,0.000000,0.000000,0.000000,3.384624,2.345053,-0.627786
1649933347.213466,1234.000000,1649933347.213255,0.000000,0.000000,1.000000,0.000000,0.000000,0.000000,0.000000,3.385343,2.344051,-0.624455
1649933347.313447,1235.000000,1649933347.313314,0.000000,0.000000,1.000000,0.000000,0.000000,0.000000,0.000000,3.386012,2.344223,-0.618017
1649933347.413384,1236.000000,1649933347.413216,0.000000,0.000000,1.000000,0.000000,0.000000,0.000000,0.000000,3.386634,2.345504,-0.607801
1649933347.513388,1237.000000,1649933347.513244,0.000000,0.000000,1.000000,0.000000,0.000000,0.000000,0.000000,3.388299,2.344555,-0.604461
1649933347.613609,1238.000000,1649933347.613420,0.000000,0.000000,1.000000,0.000000,0.000000,0.000000,0.000000,3.389856,2.345861,-0.594016
1649933347.713512,1239.000000,1649933347.713310,0.000000,0.000000,1.000000,0.000000,0.000000,0.000000,0.000000,3.390217,2.346024,-0.588059
1649933347.813158,1240.000000,1649933347.813045,0.000000,0.000000,1.000000,0.000000,0.000000,0.000000,0.000000,3.390537,2.347285,-0.575934
1649933347.913256,1241.000000,1649933347.913072,0.000000,0.000000,1.000000,0.000000,0.000000,0.000000,0.000000,3.390819,2.349578,-0.567585
1649933348.013232,1242.000000,1649933348.013103,0.000000,0.000000,1.000000,0.000000,0.000000,0.000000,0.000000,3.391065,2.351750,-0.559647
1649933348.113043,1243.000000,1649933348.112911,0.000000,0.000000,1.000000,0.000000,0.000000,0.000000,0.000000,3.390187,2.352710,-0.553726
1649933348.212994,1244.000000,1649933348.212899,0.000000,0.000000,1.000000,0.000000,0.000000,0.000000,0.000000,3.398064,2.353610,-0.513457
1649933348.313114,1245.000000,1649933348.312999,0.000000,0.000000,1.000000,0.000000,0.000000,0.000000,0.000000,3.403291,2.355543,-0.486256
1649933348.413270,1246.000000,1649933348.413118,0.000000,0.000000,1.000000,0.000000,0.000000,0.000000,0.000000,3.407089,2.355176,-0.470830
1649933348.513276,1247.000000,1649933348.513141,0.000000,0.000000,1.000000,0.000000,0.000000,0.000000,0.000000,3.410616,2.355906,-0.461077
1649933348.613173,1248.000000,1649933348.612970,0.000000,0.000000,1.000000,0.000000,0.000000,0.000000,0.000000,3.411701,2.355493,-0.456776
1649933348.713371,1249.000000,1649933348.713146,0.000000,0.000000,1.000000,0.000000,0.000000,0.000000,0.000000,3.412656,2.357270,-0.456093
1649933348.813193,1250.000000,1649933348.813021,0.000000,0.000000,1.000000,0.000000,0.000000,0.000000,0.000000,3.412400,2.357843,-0.459680
1649933348.913312,1251.000000,1649933348.913114,0.000000,0.000000,1.000000,0.000000,0.000000,0.000000,0.000000,3.412094,2.359458,-0.462511
1649933349.013212,1252.000000,1649933349.013086,0.000000,0.000000,1.000000,0.000000,0.000000,0.000000,0.000000,3.411745,2.359873,-0.469443
1649933349.113168,1253.000000,1649933349.113009,0.000000,0.000000,1.000000,0.000000,0.000000,0.000000,0.000000,3.409180,2.361334,-0.470613
1649933349.213207,1254.000000,1649933349.213013,0.000000,0.000000,1.000000,0.000000,0.000000,0.000000,0.000000,3.407801,2.362690,-0.472696
1649933349.313092,1255.000000,1649933349.312957,0.000000,0.000000,1.000000,0.000000,0.000000,0.000000,0.000000,3.405370,2.361763,-0.478872
1649933349.413493,1256.000000,1649933349.413294,0.000000,0.000000,1.000000,0.000000,0.000000,0.000000,0.000000,3.404135,2.361954,-0.480895
1649933349.513225,1257.000000,1649933349.513077,0.000000,0.000000,1.000000,0.000000,0.000000,0.000000,0.000000,3.404035,2.362111,-0.485374
1649933349.613013,1258.000000,1649933349.612888,0.000000,0.000000,1.000000,0.000000,0.000000,0.000000,0.000000,3.402831,2.362238,-0.487359
1649933349.713160,1259.000000,1649933349.713026,0.000000,0.000000,1.000000,0.000000,0.000000,0.000000,0.000000,3.401678,2.360157,-0.495008
1649933349.813085,1260.000000,1649933349.812941,0.000000,0.000000,1.000000,0.000000,0.000000,0.000000,0.000000,3.400577,2.358175,-0.502429
1649933349.913262,1261.000000,1649933349.913116,0.000000,0.000000,1.000000,0.000000,0.000000,0.000000,0.000000,3.400619,2.355205,-0.512843
1649933350.013453,1262.000000,1649933350.013273,0.000000,0.000000,1.000000,0.000000,0.000000,0.000000,0.000000,3.401744,2.353491,-0.529334
1649933350.113559,1263.000000,1649933350.113389,0.000000,0.000000,1.000000,0.000000,0.000000,0.000000,0.000000,3.402798,2.351878,-0.542755
1649933350.214274,1264.000000,1649933350.213905,0.000000,0.000000,1.000000,0.000000,0.000000,0.000000,0.000000,3.402692,2.349277,-0.553208
1649933350.313208,1265.000000,1649933350.313078,0.000000,0.000000,1.000000,0.000000,0.000000,0.000000,0.000000,3.400399,2.346837,-0.562407
1649933350.413166,1266.000000,1649933350.413027,0.000000,0.000000,1.000000,0.000000,0.000000,0.000000,0.000000,3.399319,2.344558,-0.572809
1649933350.513120,1267.000000,1649933350.512960,0.000000,0.000000,1.000000,0.000000,0.000000,0.000000,0.000000,3.397208,2.343526,-0.583541
1649933350.613184,1268.000000,1649933350.613041,0.000000,0.000000,1.000000,0.000000,0.000000,0.000000,0.000000,3.395218,2.342584,-0.589736
1649933350.713070,1269.000000,1649933350.712902,0.000000,0.000000,1.000000,0.000000,0.000000,0.000000,0.000000,3.393350,2.341729,-0.598828
1649933350.813252,1270.000000,1649933350.813097,0.000000,0.000000,1.000000,0.000000,0.000000,0.000000,0.000000,3.390511,2.342046,-0.604236
1649933350.913173,1271.000000,1649933350.913023,0.000000,0.000000,1.000000,0.000000,0.000000,0.000000,0.000000,3.405298,2.343470,-0.566587
1649933351.013362,1272.000000,1649933351.013167,0.000000,0.000000,1.000000,0.000000,0.000000,0.000000,0.000000,3.414897,2.343751,-0.544136
1649933351.113343,1273.000000,1649933351.113203,0.000000,0.000000,1.000000,0.000000,0.000000,0.000000,0.000000,3.420650,2.344042,-0.528246
1649933351.213071,1274.000000,1649933351.212936,0.000000,0.000000,1.000000,0.000000,0.000000,0.000000,0.000000,3.423843,2.343248,-0.521097
1649933351.313112,1275.000000,1649933351.313001,0.000000,0.000000,1.000000,0.000000,0.000000,0.000000,0.000000,3.425698,2.343610,-0.520735
1649933351.413162,1276.000000,1649933351.412993,0.000000,0.000000,1.000000,0.000000,0.000000,0.000000,0.000000,3.426289,2.342883,-0.522854
1649933351.513420,1277.000000,1649933351.513314,0.000000,0.000000,1.000000,0.000000,0.000000,0.000000,0.000000,3.425685,2.342216,-0.528960
1649933351.613369,1278.000000,1649933351.613199,0.000000,0.000000,1.000000,0.000000,0.000000,0.000000,0.000000,3.423957,2.342699,-0.526783
1649933351.713014,1279.000000,1649933351.712886,0.000000,0.000000,1.000000,0.000000,0.000000,0.000000,0.000000,3.422268,2.343176,-0.526338
1649933351.814366,1280.000000,1649933351.814101,0.000000,0.000000,1.000000,0.000000,0.000000,0.000000,0.000000,3.421712,2.343643,-0.529167
1649933351.913233,1281.000000,1649933351.913067,0.000000,0.000000,1.000000,0.000000,0.000000,0.000000,0.000000,3.420054,2.343009,-0.535132
1649933352.013132,1282.000000,1649933352.013011,0.000000,0.000000,1.000000,0.000000,0.000000,0.000000,0.000000,3.417359,2.342425,-0.539258
1649933352.113076,1283.000000,1649933352.112917,0.000000,0.000000,1.000000,0.000000,0.000000,0.000000,0.000000,3.414786,2.342980,-0.544028
1649933352.213329,1284.000000,1649933352.213145,0.000000,0.000000,1.000000,0.000000,0.000000,0.000000,0.000000,3.412338,2.343518,-0.552637
1649933352.313675,1285.000000,1649933352.313542,0.000000,0.000000,1.000000,0.000000,0.000000,0.000000,0.000000,3.411107,2.344039,-0.556042
1649933352.413323,1286.000000,1649933352.413176,0.000000,0.000000,1.000000,0.000000,0.000000,0.000000,0.000000,3.408849,2.344540,-0.559288
1649933352.513263,1287.000000,1649933352.513144,0.000000,0.000000,1.000000,0.000000,0.000000,0.000000,0.000000,3.405629,2.345021,-0.561569
1649933352.613307,1288.000000,1649933352.613142,0.000000,0.000000,1.000000,0.000000,0.000000,0.000000,0.000000,3.403689,2.345481,-0.562923
1649933352.713210,1289.000000,1649933352.713082,0.000000,0.000000,1.000000,0.000000,0.000000,0.000000,0.000000,3.400784,2.345919,-0.563385
1649933352.813224,1290.000000,1649933352.813098,0.000000,0.000000,1.000000,0.000000,0.000000,0.000000,0.000000,3.399155,2.345245,-0.567024
1649933352.913112,1291.000000,1649933352.912982,0.000000,0.000000,1.000000,0.000000,0.000000,0.000000,0.000000,3.397646,2.344611,-0.570481
1649933353.013100,1292.000000,1649933353.012982,0.000000,0.000000,1.000000,0.000000,0.000000,0.000000,0.000000,3.397344,2.345108,-0.569728
1649933353.113101,1293.000000,1649933353.112966,0.000000,0.000000,1.000000,0.000000,0.000000,0.000000,0.000000,3.394911,2.344491,-0.573807
1649933353.213272,1294.000000,1649933353.213119,0.000000,0.000000,1.000000,0.000000,0.000000,0.000000,0.000000,3.393740,2.343913,-0.576873
1649933353.313335,1295.000000,1649933353.313153,0.000000,0.000000,1.000000,0.000000,0.000000,0.000000,0.000000,3.392673,2.344464,-0.578158
1649933353.413549,1296.000000,1649933353.413282,0.000000,0.000000,1.000000,0.000000,0.000000,0.000000,0.000000,3.389525,2.343899,-0.581764
1649933353.513082,1297.000000,1649933353.512960,0.000000,0.000000,1.000000,0.000000,0.000000,0.000000,0.000000,3.387687,2.344462,-0.584369
1649933353.613219,1298.000000,1649933353.613076,0.000000,0.000000,1.000000,0.000000,0.000000,0.000000,0.000000,3.386002,2.346088,-0.582785
1649933353.713066,1299.000000,1649933353.712940,0.000000,0.000000,1.000000,0.000000,0.000000,0.000000,0.000000,3.383372,2.348715,-0.578798
1649933353.813044,1300.000000,1649933353.812942,0.000000,0.000000,1.000000,0.000000,0.000000,0.000000,0.000000,3.380944,2.351190,-0.574933
1649933353.913128,1301.000000,1649933353.913007,0.000000,0.000000,1.000000,0.000000,0.000000,0.000000,0.000000,3.377623,2.352422,-0.572000
1649933354.013125,1302.000000,1649933354.013007,0.000000,0.000000,1.000000,0.000000,0.000000,0.000000,0.000000,3.374552,2.354659,-0.565935
1649933354.113201,1303.000000,1649933354.113075,0.000000,0.000000,1.000000,0.000000,0.000000,0.000000,0.000000,3.371725,2.355657,-0.567360
1649933354.213188,1304.000000,1649933354.213056,0.000000,0.000000,1.000000,0.000000,0.000000,0.000000,0.000000,3.370222,2.356575,-0.565487
1649933354.313506,1305.000000,1649933354.313365,0.000000,0.000000,1.000000,0.000000,0.000000,0.000000,0.000000,3.369973,2.357413,-0.562066
1649933354.413869,1306.000000,1649933354.413670,0.000000,0.000000,1.000000,0.000000,0.000000,0.000000,0.000000,3.369814,2.357086,-0.563617
1649933354.513173,1307.000000,1649933354.513036,0.000000,0.000000,1.000000,0.000000,0.000000,0.000000,0.000000,3.370826,2.356751,-0.563486
1649933354.613124,1308.000000,1649933354.613007,0.000000,0.000000,1.000000,0.000000,0.000000,0.000000,0.000000,3.370759,2.356409,-0.568998
1649933354.713306,1309.000000,1649933354.713145,0.000000,0.000000,1.000000,0.000000,0.000000,0.000000,0.000000,3.370756,2.356064,-0.570241
1649933354.813296,1310.000000,1649933354.813134,0.000000,0.000000,1.000000,0.000000,0.000000,0.000000,0.000000,3.370813,2.355719,-0.573029
1649933354.913085,1311.000000,1649933354.912982,0.000000,0.000000,1.000000,0.000000,0.000000,0.000000,0.000000,3.372011,2.355375,-0.578910
1649933355.013317,1312.000000,1649933355.013133,0.000000,0.000000,1.000000,0.000000,0.000000,0.000000,0.000000,3.373192,2.356125,-0.586136
1649933355.113162,1313.000000,1649933355.113012,0.000000,0.000000,1.000000,0.000000,0.000000,0.000000,0.000000,3.375440,2.355728,-0.594643
1649933355.213312,1314.000000,1649933355.213134,0.000000,0.000000,1.000000,0.000000,0.000000,0.000000,0.000000,3.377598,2.355338,-0.600334
1649933355.313302,1315.000000,1649933355.313163,0.000000,0.000000,1.000000,0.000000,0.000000,0.000000,0.000000,3.379662,2.354957,-0.604121
1649933355.413118,1316.000000,1649933355.412959,0.000000,0.000000,1.000000,0.000000,0.000000,0.000000,0.000000,3.380538,2.352405,-0.614142
1649933355.513134,1317.000000,1649933355.513007,0.000000,0.000000,1.000000,0.000000,0.000000,0.000000,0.000000,3.380287,2.349991,-0.624487
1649933355.613207,1318.000000,1649933355.613087,0.000000,0.000000,1.000000,0.000000,0.000000,0.000000,0.000000,3.380062,2.347714,-0.639966
1649933355.713238,1319.000000,1649933355.713107,0.000000,0.000000,1.000000,0.000000,0.000000,0.000000,0.000000,3.379862,2.345574,-0.650673
1649933355.813475,1320.000000,1649933355.813222,0.000000,0.000000,1.000000,0.000000,0.000000,0.000000,0.000000,3.378593,2.344659,-0.658401
1649933355.913200,1321.000000,1649933355.913053,0.000000,0.000000,1.000000,0.000000,0.000000,0.000000,0.000000,3.377409,2.343815,-0.666486
1649933356.013147,1322.000000,1649933356.012993,0.000000,0.000000,1.000000,0.000000,0.000000,0.000000,0.000000,3.377398,2.344130,-0.670875
1649933356.113220,1323.000000,1649933356.113074,0.000000,0.000000,1.000000,0.000000,0.000000,0.000000,0.000000,3.377404,2.346628,-0.667683
1649933356.213274,1324.000000,1649933356.213093,0.000000,0.000000,1.000000,0.000000,0.000000,0.000000,0.000000,3.377426,2.349000,-0.664485
1649933356.313318,1325.000000,1649933356.313127,0.000000,0.000000,1.000000,0.000000,0.000000,0.000000,0.000000,3.377462,2.349065,-0.663712
1649933356.413194,1326.000000,1649933356.413022,0.000000,0.000000,1.000000,0.000000,0.000000,0.000000,0.000000,3.377510,2.348039,-0.665272
1649933356.513611,1327.000000,1649933356.513431,0.000000,0.000000,1.000000,0.000000,0.000000,0.000000,0.000000,3.376478,2.347074,-0.667461
1649933356.613281,1328.000000,1649933356.613118,0.000000,0.000000,1.000000,0.000000,0.000000,0.000000,0.000000,3.375517,2.347260,-0.668642
1649933356.713130,1329.000000,1649933356.713013,0.000000,0.000000,1.000000,0.000000,0.000000,0.000000,0.000000,3.374627,2.347443,-0.657568
1649933356.813133,1330.000000,1649933356.813022,0.000000,0.000000,1.000000,0.000000,0.000000,0.000000,0.000000,3.373805,2.348712,-0.650078
1649933356.913049,1331.000000,1649933356.912917,0.000000,0.000000,1.000000,0.000000,0.000000,0.000000,0.000000,3.374139,2.349915,-0.644432
1649933357.013325,1332.000000,1649933357.013149,0.000000,0.000000,1.000000,0.000000,0.000000,0.000000,0.000000,3.374473,2.349959,-0.642181
1649933357.113541,1333.000000,1649933357.113324,0.000000,0.000000,1.000000,0.000000,0.000000,0.000000,0.000000,3.374805,2.349998,-0.641581
1649933357.213552,1334.000000,1649933357.213387,0.000000,0.000000,1.000000,0.000000,0.000000,0.000000,0.000000,3.374044,2.348943,-0.642570
1649933357.313334,1335.000000,1649933357.313201,0.000000,0.000000,1.000000,0.000000,0.000000,0.000000,0.000000,3.373340,2.346856,-0.646696
1649933357.413469,1336.000000,1649933357.413240,0.000000,0.000000,1.000000,0.000000,0.000000,0.000000,0.000000,3.372692,2.344891,-0.652215
1649933357.513543,1337.000000,1649933357.513345,0.000000,0.000000,1.000000,0.000000,0.000000,0.000000,0.000000,3.372098,2.344137,-0.659870
1649933357.613228,1338.000000,1649933357.613113,0.000000,0.000000,1.000000,0.000000,0.000000,0.000000,0.000000,3.372645,2.343439,-0.659888
1649933357.713272,1339.000000,1649933357.713099,0.000000,0.000000,1.000000,0.000000,0.000000,0.000000,0.000000,3.373180,2.342795,-0.660643
1649933357.813193,1340.000000,1649933357.813027,0.000000,0.000000,1.000000,0.000000,0.000000,0.000000,0.000000,3.374789,2.342204,-0.662914
1649933357.913141,1341.000000,1649933357.913013,0.000000,0.000000,1.000000,0.000000,0.000000,0.000000,0.000000,3.376318,2.342754,-0.662607
1649933358.013123,1342.000000,1649933358.013014,0.000000,0.000000,1.000000,0.000000,0.000000,0.000000,0.000000,3.377767,2.343290,-0.659022
1649933358.113189,1343.000000,1649933358.113021,0.000000,0.000000,1.000000,0.000000,0.000000,0.000000,0.000000,3.379135,2.343809,-0.657945
1649933358.213393,1344.000000,1649933358.213198,0.000000,0.000000,1.000000,0.000000,0.000000,0.000000,0.000000,3.380422,2.344311,-0.654441
1649933358.313377,1345.000000,1649933358.313190,0.000000,0.000000,1.000000,0.000000,0.000000,0.000000,0.000000,3.381629,2.343703,-0.651842
1649933358.413138,1346.000000,1649933358.413001,0.000000,0.000000,1.000000,0.000000,0.000000,0.000000,0.000000,3.381667,2.343139,-0.651729
1649933358.513087,1347.000000,1649933358.512978,0.000000,0.000000,1.000000,0.000000,0.000000,0.000000,0.000000,3.381690,2.343706,-0.648361
1649933358.613050,1348.000000,1649933358.612919,0.000000,0.000000,1.000000,0.000000,0.000000,0.000000,0.000000,3.380609,2.344252,-0.647519
1649933358.713105,1349.000000,1649933358.712969,0.000000,0.000000,1.000000,0.000000,0.000000,0.000000,0.000000,3.380670,2.345864,-0.645879
1649933358.813334,1350.000000,1649933358.813182,0.000000,0.000000,1.000000,0.000000,0.000000,0.000000,0.000000,3.379630,2.347389,-0.646703
1649933358.913201,1351.000000,1649933358.913069,0.000000,0.000000,1.000000,0.000000,0.000000,0.000000,0.000000,3.378643,2.348828,-0.642634
1649933359.013252,1352.000000,1649933359.013105,0.000000,0.000000,1.000000,0.000000,0.000000,0.000000,0.000000,3.378799,2.349090,-0.637907
1649933359.113790,1353.000000,1649933359.113624,0.000000,0.000000,1.000000,0.000000,0.000000,0.000000,0.000000,3.378946,2.349328,-0.632559
1649933359.213212,1354.000000,1649933359.213098,0.000000,0.000000,1.000000,0.000000,0.000000,0.000000,0.000000,3.380173,2.349545,-0.629850
1649933359.313314,1355.000000,1649933359.313164,0.000000,0.000000,1.000000,0.000000,0.000000,0.000000,0.000000,3.380239,2.350832,-0.628064
1649933359.413555,1356.000000,1649933359.413388,0.000000,0.000000,1.000000,0.000000,0.000000,0.000000,0.000000,3.380295,2.350946,-0.625554
1649933359.513469,1357.000000,1649933359.513338,0.000000,0.000000,1.000000,0.000000,0.000000,0.000000,0.000000,3.378163,2.351041,-0.625580
1649933359.613611,1358.000000,1649933359.613450,0.000000,0.000000,1.000000,0.000000,0.000000,0.000000,0.000000,3.377240,2.352210,-0.618361
1649933359.713486,1359.000000,1649933359.713215,0.000000,0.000000,1.000000,0.000000,0.000000,0.000000,0.000000,3.376371,2.353300,-0.613877
1649933359.814036,1360.000000,1649933359.813791,0.000000,0.000000,1.000000,0.000000,0.000000,0.000000,0.000000,3.376648,2.353223,-0.612026
1649933359.913580,1361.000000,1649933359.913364,0.000000,0.000000,1.000000,0.000000,0.000000,0.000000,0.000000,3.375825,2.354225,-0.604638
1649933360.013274,1362.000000,1649933360.013109,0.000000,0.000000,1.000000,0.000000,0.000000,0.000000,0.000000,3.373965,2.356244,-0.600012
1649933360.113574,1363.000000,1649933360.113447,0.000000,0.000000,1.000000,0.000000,0.000000,0.000000,0.000000,3.373310,2.359220,-0.590785
1649933360.213521,1364.000000,1649933360.213392,0.000000,0.000000,1.000000,0.000000,0.000000,0.000000,0.000000,3.372706,2.360912,-0.586833
1649933360.313345,1365.000000,1649933360.313206,0.000000,0.000000,1.000000,0.000000,0.000000,0.000000,0.000000,3.372150,2.363567,-0.579076
1649933360.413180,1366.000000,1649933360.413044,0.000000,0.000000,1.000000,0.000000,0.000000,0.000000,0.000000,3.371642,2.364945,-0.570905
1649933360.513193,1367.000000,1649933360.513060,0.000000,0.000000,1.000000,0.000000,0.000000,0.000000,0.000000,3.372269,2.365115,-0.566377
1649933360.613192,1368.000000,1649933360.613017,0.000000,0.000000,1.000000,0.000000,0.000000,0.000000,0.000000,3.373967,2.365234,-0.563739
1649933360.713151,1369.000000,1649933360.713006,0.000000,0.000000,1.000000,0.000000,0.000000,0.000000,0.000000,3.374490,2.365307,-0.564526
1649933360.813119,1370.000000,1649933360.812968,0.000000,0.000000,1.000000,0.000000,0.000000,0.000000,0.000000,3.373900,2.364248,-0.569402
1649933360.913172,1371.000000,1649933360.913032,0.000000,0.000000,1.000000,0.000000,0.000000,0.000000,0.000000,3.374441,2.364305,-0.573352
1649933361.013139,1372.000000,1649933361.012998,0.000000,0.000000,1.000000,0.000000,0.000000,0.000000,0.000000,3.374958,2.363239,-0.577210
1649933361.113087,1373.000000,1649933361.112950,0.000000,0.000000,1.000000,0.000000,0.000000,0.000000,0.000000,3.375450,2.362206,-0.587420
1649933361.213102,1374.000000,1649933361.212965,0.000000,0.000000,1.000000,0.000000,0.000000,0.000000,0.000000,3.377007,2.360118,-0.596450
1649933361.313122,1375.000000,1649933361.312991,0.000000,0.000000,1.000000,0.000000,0.000000,0.000000,0.000000,3.378476,2.359221,-0.602718
1649933361.413377,1376.000000,1649933361.413195,0.000000,0.000000,1.000000,0.000000,0.000000,0.000000,0.000000,3.378767,2.358365,-0.609549
1649933361.513883,1377.000000,1649933361.513721,0.000000,0.000000,1.000000,0.000000,0.000000,0.000000,0.000000,3.379035,2.356458,-0.620133
1649933361.613545,1378.000000,1649933361.613360,0.000000,0.000000,1.000000,0.000000,0.000000,0.000000,0.000000,3.379279,2.356837,-0.623013
1649933361.713482,1379.000000,1649933361.713281,0.000000,0.000000,1.000000,0.000000,0.000000,0.000000,0.000000,3.379501,2.357195,-0.624138
1649933361.813570,1380.000000,1649933361.813433,0.000000,0.000000,1.000000,0.000000,0.000000,0.000000,0.000000,3.380792,2.356440,-0.621967
1649933361.913412,1381.000000,1649933361.913233,0.000000,0.000000,1.000000,0.000000,0.000000,0.000000,0.000000,3.382001,2.355728,-0.617444
1649933362.013277,1382.000000,1649933362.013130,0.000000,0.000000,1.000000,0.000000,0.000000,0.000000,0.000000,3.380947,2.355057,-0.614703
1649933362.113147,1383.000000,1649933362.113011,0.000000,0.000000,1.000000,0.000000,0.000000,0.000000,0.000000,3.379939,2.354427,-0.616098
1649933362.213750,1384.000000,1649933362.213375,0.000000,0.000000,1.000000,0.000000,0.000000,0.000000,0.000000,3.380069,2.352748,-0.617428
1649933362.313259,1385.000000,1649933362.313112,0.000000,0.000000,1.000000,0.000000,0.000000,0.000000,0.000000,3.380185,2.351172,-0.621112
1649933362.413560,1386.000000,1649933362.413454,0.000000,0.000000,1.000000,0.000000,0.000000,0.000000,0.000000,3.381377,2.349697,-0.625437
1649933362.513136,1387.000000,1649933362.512972,0.000000,0.000000,1.000000,0.000000,0.000000,0.000000,0.000000,3.382493,2.349412,-0.626339
1649933362.613373,1388.000000,1649933362.613171,0.000000,0.000000,1.000000,0.000000,0.000000,0.000000,0.000000,3.382445,2.350253,-0.625568
1649933362.713293,1389.000000,1649933362.713124,0.000000,0.000000,1.000000,0.000000,0.000000,0.000000,0.000000,3.383476,2.351063,-0.623193
1649933362.813170,1390.000000,1649933362.813043,0.000000,0.000000,1.000000,0.000000,0.000000,0.000000,0.000000,3.383346,2.350751,-0.624930
1649933362.913192,1391.000000,1649933362.913043,0.000000,0.000000,1.000000,0.000000,0.000000,0.000000,0.000000,3.383209,2.350468,-0.625771
1649933363.013560,1392.000000,1649933363.013384,0.000000,0.000000,1.000000,0.000000,0.000000,0.000000,0.000000,3.383067,2.351303,-0.623333
1649933363.113453,1393.000000,1649933363.113314,0.000000,0.000000,1.000000,0.000000,0.000000,0.000000,0.000000,3.382921,2.353192,-0.621784
1649933363.213228,1394.000000,1649933363.213049,0.000000,0.000000,1.000000,0.000000,0.000000,0.000000,0.000000,3.383863,2.354982,-0.620287
1649933363.313112,1395.000000,1649933363.312994,0.000000,0.000000,1.000000,0.000000,0.000000,0.000000,0.000000,3.383651,2.355580,-0.622068
1649933363.413041,1396.000000,1649933363.412932,0.000000,0.000000,1.000000,0.000000,0.000000,0.000000,0.000000,3.384529,2.357231,-0.618121
1649933363.513202,1397.000000,1649933363.513052,0.000000,0.000000,1.000000,0.000000,0.000000,0.000000,0.000000,3.384255,2.358782,-0.611909
1649933363.613106,1398.000000,1649933363.612978,0.000000,0.000000,1.000000,0.000000,0.000000,0.000000,0.000000,3.382894,2.361326,-0.599503
1649933363.713244,1399.000000,1649933363.713109,0.000000,0.000000,1.000000,0.000000,0.000000,0.000000,0.000000,3.382691,2.362619,-0.590044
1649933363.813708,1400.000000,1649933363.813444,0.000000,0.000000,1.000000,0.000000,0.000000,0.000000,0.000000,3.381402,2.362727,-0.583428
1649933363.913366,1401.000000,1649933363.913166,0.000000,0.000000,1.000000,0.000000,0.000000,0.000000,0.000000,3.380182,2.361716,-0.582776
1649933364.013089,1402.000000,1649933364.012953,0.000000,0.000000,1.000000,0.000000,0.000000,0.000000,0.000000,3.380122,2.359651,-0.583813
1649933364.113057,1403.000000,1649933364.112916,0.000000,0.000000,1.000000,0.000000,0.000000,0.000000,0.000000,3.380067,2.358777,-0.577598
1649933364.213274,1404.000000,1649933364.213119,0.000000,0.000000,1.000000,0.000000,0.000000,0.000000,0.000000,3.380018,2.357944,-0.574915
1649933364.313221,1405.000000,1649933364.313069,0.000000,0.000000,1.000000,0.000000,0.000000,0.000000,0.000000,3.379974,2.357152,-0.571591
1649933364.413198,1406.000000,1649933364.413062,0.000000,0.000000,1.000000,0.000000,0.000000,0.000000,0.000000,3.378845,2.356401,-0.570881
1649933364.513247,1407.000000,1649933364.513057,0.000000,0.000000,1.000000,0.000000,0.000000,0.000000,0.000000,3.379964,2.356782,-0.569453
1649933364.613510,1408.000000,1649933364.613303,0.000000,0.000000,1.000000,0.000000,0.000000,0.000000,0.000000,3.381024,2.357142,-0.568141
1649933364.713189,1409.000000,1649933364.713051,0.000000,0.000000,1.000000,0.000000,0.000000,0.000000,0.000000,3.379844,2.356390,-0.572588
1649933364.813193,1410.000000,1649933364.813031,0.000000,0.000000,1.000000,0.000000,0.000000,0.000000,0.000000,3.380912,2.354590,-0.579323
1649933364.913160,1411.000000,1649933364.913007,0.000000,0.000000,1.000000,0.000000,0.000000,0.000000,0.000000,3.381921,2.353984,-0.583403
1649933365.013139,1412.000000,1649933365.012989,0.000000,0.000000,1.000000,0.000000,0.000000,0.000000,0.000000,3.381780,2.352329,-0.584927
1649933365.113134,1413.000000,1649933365.112985,0.000000,0.000000,1.000000,0.000000,0.000000,0.000000,0.000000,3.380552,2.350777,-0.589639
1649933365.213227,1414.000000,1649933365.213079,0.000000,0.000000,1.000000,0.000000,0.000000,0.000000,0.000000,3.379392,2.350416,-0.593368
1649933365.313191,1415.000000,1649933365.313053,0.000000,0.000000,1.000000,0.000000,0.000000,0.000000,0.000000,3.377210,2.350093,-0.593730
1649933365.413274,1416.000000,1649933365.413105,0.000000,0.000000,1.000000,0.000000,0.000000,0.000000,0.000000,3.375156,2.350894,-0.596503
1649933365.513129,1417.000000,1649933365.512956,0.000000,0.000000,1.000000,0.000000,0.000000,0.000000,0.000000,3.373232,2.351666,-0.597552
1649933365.613104,1418.000000,1649933365.612965,0.000000,0.000000,1.000000,0.000000,0.000000,0.000000,0.000000,3.372524,2.351315,-0.600979
1649933365.713391,1419.000000,1649933365.713259,0.000000,0.000000,1.000000,0.000000,0.000000,0.000000,0.000000,3.372968,2.350994,-0.602649
1649933365.813531,1420.000000,1649933365.813324,0.000000,0.000000,1.000000,0.000000,0.000000,0.000000,0.000000,3.374498,2.351793,-0.600211
1649933365.913413,1421.000000,1649933365.913263,0.000000,0.000000,1.000000,0.000000,0.000000,0.000000,0.000000,3.374869,2.352556,-0.598673
1649933366.013203,1422.000000,1649933366.013072,0.000000,0.000000,1.000000,0.000000,0.000000,0.000000,0.000000,3.376322,2.353282,-0.596389
1649933366.113189,1423.000000,1649933366.113065,0.000000,0.000000,1.000000,0.000000,0.000000,0.000000,0.000000,3.377702,2.353972,-0.596620
1649933366.213155,1424.000000,1649933366.213019,0.000000,0.000000,1.000000,0.000000,0.000000,0.000000,0.000000,3.377919,2.355715,-0.590392
1649933366.313190,1425.000000,1649933366.313053,0.000000,0.000000,1.000000,0.000000,0.000000,0.000000,0.000000,3.377035,2.357357,-0.586847
1649933366.413108,1426.000000,1649933366.412961,0.000000,0.000000,1.000000,0.000000,0.000000,0.000000,0.000000,3.376203,2.356720,-0.587495
1649933366.513442,1427.000000,1649933366.513314,0.000000,0.000000,1.000000,0.000000,0.000000,0.000000,0.000000,3.374333,2.355019,-0.588940
1649933366.613279,1428.000000,1649933366.613070,0.000000,0.000000,1.000000,0.000000,0.000000,0.000000,0.000000,3.373666,2.352319,-0.591952
1649933366.713390,1429.000000,1649933366.713234,0.000000,0.000000,1.000000,0.000000,0.000000,0.000000,0.000000,3.374140,2.349772,-0.597270
1649933366.813306,1430.000000,1649933366.813162,0.000000,0.000000,1.000000,0.000000,0.000000,0.000000,0.000000,3.374599,2.348470,-0.599952
1649933366.913195,1431.000000,1649933366.913044,0.000000,0.000000,1.000000,0.000000,0.000000,0.000000,0.000000,3.375041,2.346165,-0.605746
1649933367.013451,1432.000000,1649933367.013273,0.000000,0.000000,1.000000,0.000000,0.000000,0.000000,0.000000,3.375467,2.346191,-0.604839
1649933367.113604,1433.000000,1649933367.113424,0.000000,0.000000,1.000000,0.000000,0.000000,0.000000,0.000000,3.375875,2.347329,-0.603954
1649933367.213426,1434.000000,1649933367.213285,0.000000,0.000000,1.000000,0.000000,0.000000,0.000000,0.000000,3.376264,2.348422,-0.603094
1649933367.313548,1435.000000,1649933367.313382,0.000000,0.000000,1.000000,0.000000,0.000000,0.000000,0.000000,3.377725,2.349469,-0.603065
1649933367.413530,1436.000000,1649933367.413388,0.000000,0.000000,1.000000,0.000000,0.000000,0.000000,0.000000,3.379103,2.349377,-0.602221
1649933367.513585,1437.000000,1649933367.513453,0.000000,0.000000,1.000000,0.000000,0.000000,0.000000,0.000000,3.380400,2.350390,-0.599791
1649933367.613415,1438.000000,1649933367.613250,0.000000,0.000000,1.000000,0.000000,0.000000,0.000000,0.000000,3.381616,2.352444,-0.599876
1649933367.713431,1439.000000,1649933367.713269,0.000000,0.000000,1.000000,0.000000,0.000000,0.000000,0.000000,3.382752,2.354384,-0.594309
1649933367.813302,1440.000000,1649933367.813119,0.000000,0.000000,1.000000,0.000000,0.000000,0.000000,0.000000,3.383810,2.356210,-0.594618
1649933367.913205,1441.000000,1649933367.913056,0.000000,0.000000,1.000000,0.000000,0.000000,0.000000,0.000000,3.385882,2.356834,-0.595727
1649933368.013259,1442.000000,1649933368.013117,0.000000,0.000000,1.000000,0.000000,0.000000,0.000000,0.000000,3.386726,2.356319,-0.595988
1649933368.113729,1443.000000,1649933368.113593,0.000000,0.000000,1.000000,0.000000,0.000000,0.000000,0.000000,3.386409,2.355821,-0.593822
1649933368.213163,1444.000000,1649933368.213038,0.000000,0.000000,1.000000,0.000000,0.000000,0.000000,0.000000,3.386086,2.356431,-0.590944
1649933368.313139,1445.000000,1649933368.313006,0.000000,0.000000,1.000000,0.000000,0.000000,0.000000,0.000000,3.385760,2.356997,-0.584968
1649933368.413347,1446.000000,1649933368.413172,0.000000,0.000000,1.000000,0.000000,0.000000,0.000000,0.000000,3.385433,2.357520,-0.580866
1649933368.513201,1447.000000,1649933368.513041,0.000000,0.000000,1.000000,0.000000,0.000000,0.000000,0.000000,3.384017,2.359092,-0.575343
1649933368.613567,1448.000000,1649933368.613247,0.000000,0.000000,1.000000,0.000000,0.000000,0.000000,0.000000,3.383757,2.360561,-0.569272
1649933368.713374,1449.000000,1649933368.713227,0.000000,0.000000,1.000000,0.000000,0.000000,0.000000,0.000000,3.383503,2.361929,-0.566715
1649933368.813222,1450.000000,1649933368.813076,0.000000,0.000000,1.000000,0.000000,0.000000,0.000000,0.000000,3.384344,2.362109,-0.565920
1649933368.913373,1451.000000,1649933368.913210,0.000000,0.000000,1.000000,0.000000,0.000000,0.000000,0.000000,3.384039,2.362255,-0.560365
1649933369.013248,1452.000000,1649933369.013108,0.000000,0.000000,1.000000,0.000000,0.000000,0.000000,0.000000,3.382652,2.362372,-0.556700
1649933369.113287,1453.000000,1649933369.113110,0.000000,0.000000,1.000000,0.000000,0.000000,0.000000,0.000000,3.381336,2.361370,-0.558079
1649933369.213548,1454.000000,1649933369.213323,0.000000,0.000000,1.000000,0.000000,0.000000,0.000000,0.000000,3.382273,2.360407,-0.559455
1649933369.313316,1455.000000,1649933369.313165,0.000000,0.000000,1.000000,0.000000,0.000000,0.000000,0.000000,3.382066,2.359482,-0.561630
1649933369.413395,1456.000000,1649933369.413236,0.000000,0.000000,1.000000,0.000000,0.000000,0.000000,0.000000,3.382959,2.358599,-0.567791
1649933369.513382,1457.000000,1649933369.513192,0.000000,0.000000,1.000000,0.000000,0.000000,0.000000,0.000000,3.384889,2.357758,-0.566477
1649933369.613167,1458.000000,1649933369.613063,0.000000,0.000000,1.000000,0.000000,0.000000,0.000000,0.000000,3.386704,2.356960,-0.565246
1649933369.713141,1459.000000,1649933369.713029,0.000000,0.000000,1.000000,0.000000,0.000000,0.000000,0.000000,3.388405,2.358386,-0.560871
1649933369.813174,1460.000000,1649933369.813033,0.000000,0.000000,1.000000,0.000000,0.000000,0.000000,0.000000,3.389993,2.358639,-0.559130
1649933369.913272,1461.000000,1649933369.913069,0.000000,0.000000,1.000000,0.000000,0.000000,0.000000,0.000000,3.390381,2.358873,-0.561531
1649933370.013264,1462.000000,1649933370.013108,0.000000,0.000000,1.000000,0.000000,0.000000,0.000000,0.000000,3.390724,2.357999,-0.571933
1649933370.113158,1463.000000,1649933370.113053,0.000000,0.000000,1.000000,0.000000,0.000000,0.000000,0.000000,3.391025,2.358259,-0.579510
1649933370.213202,1464.000000,1649933370.213053,0.000000,0.000000,1.000000,0.000000,0.000000,0.000000,0.000000,3.391286,2.357412,-0.586784
1649933370.313247,1465.000000,1649933370.313101,0.000000,0.000000,1.000000,0.000000,0.000000,0.000000,0.000000,3.392602,2.356611,-0.595366
1649933370.413189,1466.000000,1649933370.413046,0.000000,0.000000,1.000000,0.000000,0.000000,0.000000,0.000000,3.392730,2.356946,-0.601963
1649933370.513242,1467.000000,1649933370.513098,0.000000,0.000000,1.000000,0.000000,0.000000,0.000000,0.000000,3.392827,2.350721,-0.616324
1649933370.613241,1468.000000,1649933370.613101,0.000000,0.000000,1.000000,0.000000,0.000000,0.000000,0.000000,3.404890,2.345946,-0.587306
1649933370.713138,1469.000000,1649933370.712993,0.000000,0.000000,1.000000,0.000000,0.000000,0.000000,0.000000,3.412965,2.342556,-0.566708
1649933370.813555,1470.000000,1649933370.813375,0.000000,0.000000,1.000000,0.000000,0.000000,0.000000,0.000000,3.418338,2.340484,-0.551808
1649933370.913426,1471.000000,1649933370.913310,0.000000,0.000000,1.000000,0.000000,0.000000,0.000000,0.000000,3.420053,2.339662,-0.535142
1649933371.013741,1472.000000,1649933371.013417,0.000000,0.000000,1.000000,0.000000,0.000000,0.000000,0.000000,3.420490,2.341113,-0.517613
1649933371.113240,1473.000000,1649933371.113110,0.000000,0.000000,1.000000,0.000000,0.000000,0.000000,0.000000,3.419723,2.344705,-0.504121
1649933371.213140,1474.000000,1649933371.213013,0.000000,0.000000,1.000000,0.000000,0.000000,0.000000,0.000000,3.420006,2.348128,-0.494522
1649933371.313155,1475.000000,1649933371.313020,0.000000,0.000000,1.000000,0.000000,0.000000,0.000000,0.000000,3.419105,2.353559,-0.487058
1649933371.413166,1476.000000,1649933371.413023,0.000000,0.000000,1.000000,0.000000,0.000000,0.000000,0.000000,3.417091,2.357599,-0.483262
1649933371.513531,1477.000000,1649933371.513392,0.000000,0.000000,1.000000,0.000000,0.000000,0.000000,0.000000,3.414036,2.360313,-0.478955
1649933371.613153,1478.000000,1649933371.613038,0.000000,0.000000,1.000000,0.000000,0.000000,0.000000,0.000000,3.412191,2.360674,-0.480610
1649933371.713175,1479.000000,1649933371.712999,0.000000,0.000000,1.000000,0.000000,0.000000,0.000000,0.000000,3.410407,2.360991,-0.484752
1649933371.813271,1480.000000,1649933371.813095,0.000000,0.000000,1.000000,0.000000,0.000000,0.000000,0.000000,3.409779,2.362357,-0.488849
1649933371.913194,1481.000000,1649933371.913011,0.000000,0.000000,1.000000,0.000000,0.000000,0.000000,0.000000,3.409159,2.363623,-0.489665
1649933372.013353,1482.000000,1649933372.013208,0.000000,0.000000,1.000000,0.000000,0.000000,0.000000,0.000000,3.408548,2.364791,-0.493778
1649933372.113634,1483.000000,1649933372.113467,0.000000,0.000000,1.000000,0.000000,0.000000,0.000000,0.000000,3.406860,2.365864,-0.496204
1649933372.213413,1484.000000,1649933372.213261,0.000000,0.000000,1.000000,0.000000,0.000000,0.000000,0.000000,3.405250,2.367937,-0.497004
1649933372.313499,1485.000000,1649933372.313295,0.000000,0.000000,1.000000,0.000000,0.000000,0.000000,0.000000,3.403719,2.368769,-0.498658
1649933372.413559,1486.000000,1649933372.413431,0.000000,0.000000,1.000000,0.000000,0.000000,0.000000,0.000000,3.401179,2.370609,-0.500319
1649933372.513692,1487.000000,1649933372.513456,0.000000,0.000000,1.000000,0.000000,0.000000,0.000000,0.000000,3.398782,2.370126,-0.502787
1649933372.613770,1488.000000,1649933372.613526,0.000000,0.000000,1.000000,0.000000,0.000000,0.000000,0.000000,3.396529,2.369632,-0.507635
1649933372.713428,1489.000000,1649933372.713232,0.000000,0.000000,1.000000,0.000000,0.000000,0.000000,0.000000,3.393326,2.369132,-0.512338
1649933372.813530,1490.000000,1649933372.813406,0.000000,0.000000,1.000000,0.000000,0.000000,0.000000,0.000000,3.390327,2.368628,-0.518503
1649933372.913433,1491.000000,1649933372.913299,0.000000,0.000000,1.000000,0.000000,0.000000,0.000000,0.000000,3.387526,2.369216,-0.523642
1649933373.013503,1492.000000,1649933373.013360,0.000000,0.000000,1.000000,0.000000,0.000000,0.000000,0.000000,3.386011,2.367564,-0.533429
1649933373.113517,1493.000000,1649933373.113357,0.000000,0.000000,1.000000,0.000000,0.000000,0.000000,0.000000,3.384623,2.367071,-0.539597
1649933373.213503,1494.000000,1649933373.213344,0.000000,0.000000,1.000000,0.000000,0.000000,0.000000,0.000000,3.384448,2.366588,-0.540667
1649933373.313552,1495.000000,1649933373.313386,0.000000,0.000000,1.000000,0.000000,0.000000,0.000000,0.000000,3.384327,2.366116,-0.540876
1649933373.413939,1496.000000,1649933373.413758,0.000000,0.000000,1.000000,0.000000,0.000000,0.000000,0.000000,3.385345,2.365657,-0.543484
1649933373.513565,1497.000000,1649933373.513390,0.000000,0.000000,1.000000,0.000000,0.000000,0.000000,0.000000,3.386344,2.366303,-0.542746
1649933373.613446,1498.000000,1649933373.613281,0.000000,0.000000,1.000000,0.000000,0.000000,0.000000,0.000000,3.386230,2.365812,-0.546057
1649933373.713195,1499.000000,1649933373.713087,0.000000,0.000000,1.000000,0.000000,0.000000,0.000000,0.000000,3.385062,2.365337,-0.547603
1649933373.813094,1500.000000,1649933373.812986,0.000000,0.000000,1.000000,0.000000,0.000000,0.000000,0.000000,3.383989,2.365971,-0.546647
1649933373.913102,1501.000000,1649933373.912952,0.000000,0.000000,1.000000,0.000000,0.000000,0.000000,0.000000,3.383008,2.365471,-0.549744
1649933374.013371,1502.000000,1649933374.013181,0.000000,0.000000,1.000000,0.000000,0.000000,0.000000,0.000000,3.382116,2.364991,-0.556726
1649933374.113690,1503.000000,1649933374.113474,0.000000,0.000000,1.000000,0.000000,0.000000,0.000000,0.000000,3.382397,2.364531,-0.569845
1649933374.214030,1504.000000,1649933374.213646,0.000000,0.000000,1.000000,0.000000,0.000000,0.000000,0.000000,3.381605,2.364094,-0.577542
1649933374.313682,1505.000000,1649933374.313546,0.000000,0.000000,1.000000,0.000000,0.000000,0.000000,0.000000,3.380890,2.363678,-0.585671
1649933374.413190,1506.000000,1649933374.413059,0.000000,0.000000,1.000000,0.000000,0.000000,0.000000,0.000000,3.380247,2.363285,-0.590170
1649933374.513074,1507.000000,1649933374.512950,0.000000,0.000000,1.000000,0.000000,0.000000,0.000000,0.000000,3.379672,2.362913,-0.595214
1649933374.613153,1508.000000,1649933374.613001,0.000000,0.000000,1.000000,0.000000,0.000000,0.000000,0.000000,3.378072,2.361474,-0.604002
1649933374.713235,1509.000000,1649933374.713086,0.000000,0.000000,1.000000,0.000000,0.000000,0.000000,0.000000,3.377686,2.359029,-0.610725
1649933374.813483,1510.000000,1649933374.813330,0.000000,0.000000,1.000000,0.000000,0.000000,0.000000,0.000000,3.376266,2.356731,-0.616267
1649933374.913272,1511.000000,1649933374.913118,0.000000,0.000000,1.000000,0.000000,0.000000,0.000000,0.000000,3.374962,2.355668,-0.619057
1649933375.013275,1512.000000,1649933375.013123,0.000000,0.000000,1.000000,0.000000,0.000000,0.000000,0.000000,3.374859,2.355776,-0.615980
1649933375.113115,1513.000000,1649933375.112913,0.000000,0.000000,1.000000,0.000000,0.000000,0.000000,0.000000,3.373709,2.355899,-0.617766
1649933375.213210,1514.000000,1649933375.213091,0.000000,0.000000,1.000000,0.000000,0.000000,0.000000,0.000000,3.372661,2.357125,-0.621801
1649933375.313165,1515.000000,1649933375.313027,0.000000,0.000000,1.000000,0.000000,0.000000,0.000000,0.000000,3.372801,2.359388,-0.619927
1649933375.413214,1516.000000,1649933375.413083,0.000000,0.000000,1.000000,0.000000,0.000000,0.000000,0.000000,3.372971,2.360444,-0.621261
1649933375.513057,1517.000000,1649933375.512937,0.000000,0.000000,1.000000,0.000000,0.000000,0.000000,0.000000,3.373167,2.361445,-0.623256
1649933375.613360,1518.000000,1649933375.613219,0.000000,0.000000,1.000000,0.000000,0.000000,0.000000,0.000000,3.373385,2.360210,-0.627498
1649933375.713603,1519.000000,1649933375.713378,0.000000,0.000000,1.000000,0.000000,0.000000,0.000000,0.000000,3.373620,2.359045,-0.628248
1649933375.813720,1520.000000,1649933375.813427,0.000000,0.000000,1.000000,0.000000,0.000000,0.000000,0.000000,3.372779,2.357950,-0.625651
1649933375.913513,1521.000000,1649933375.913336,0.000000,0.000000,1.000000,0.000000,0.000000,0.000000,0.000000,3.372013,2.356925,-0.627913
1649933376.013555,1522.000000,1649933376.013366,0.000000,0.000000,1.000000,0.000000,0.000000,0.000000,0.000000,3.372408,2.355968,-0.629999
1649933376.113565,1523.000000,1649933376.113367,0.000000,0.000000,1.000000,0.000000,0.000000,0.000000,0.000000,3.372808,2.356168,-0.631917
1649933376.213398,1524.000000,1649933376.213275,0.000000,0.000000,1.000000,0.000000,0.000000,0.000000,0.000000,3.372119,2.356370,-0.631255
1649933376.313175,1525.000000,1649933376.313034,0.000000,0.000000,1.000000,0.000000,0.000000,0.000000,0.000000,3.370401,2.356574,-0.632959
1649933376.413364,1526.000000,1649933376.413221,0.000000,0.000000,1.000000,0.000000,0.000000,0.000000,0.000000,3.368805,2.356776,-0.636129
1649933376.513838,1527.000000,1649933376.513694,0.000000,0.000000,1.000000,0.000000,0.000000,0.000000,0.000000,3.368418,2.356977,-0.634252
1649933376.614293,1528.000000,1649933376.613822,0.000000,0.000000,1.000000,0.000000,0.000000,0.000000,0.000000,3.368084,2.357175,-0.633989
1649933376.713500,1529.000000,1649933376.713298,0.000000,0.000000,1.000000,0.000000,0.000000,0.000000,0.000000,3.367797,2.356279,-0.637698
1649933376.813595,1530.000000,1649933376.813452,0.000000,0.000000,1.000000,0.000000,0.000000,0.000000,0.000000,3.367556,2.355440,-0.638764
1649933376.913374,1531.000000,1649933376.913183,0.000000,0.000000,1.000000,0.000000,0.000000,0.000000,0.000000,3.368447,2.355750,-0.634876
1649933377.013270,1532.000000,1649933377.013159,0.000000,0.000000,1.000000,0.000000,0.000000,0.000000,0.000000,3.370404,2.353872,-0.635920
1649933377.113127,1533.000000,1649933377.113037,0.000000,0.000000,1.000000,0.000000,0.000000,0.000000,0.000000,3.372271,2.352111,-0.635247
1649933377.213151,1534.000000,1649933377.213028,0.000000,0.000000,1.000000,0.000000,0.000000,0.000000,0.000000,3.374046,2.352647,-0.626478
1649933377.313200,1535.000000,1649933377.313078,0.000000,0.000000,1.000000,0.000000,0.000000,0.000000,0.000000,3.374637,2.353170,-0.618828
1649933377.413242,1536.000000,1649933377.413113,0.000000,0.000000,1.000000,0.000000,0.000000,0.000000,0.000000,3.375198,2.353680,-0.611459
1649933377.513097,1537.000000,1649933377.512968,0.000000,0.000000,1.000000,0.000000,0.000000,0.000000,0.000000,3.376818,2.354173,-0.600343
1649933377.613208,1538.000000,1649933377.613096,0.000000,0.000000,1.000000,0.000000,0.000000,0.000000,0.000000,3.378344,2.354650,-0.594520
1649933377.713368,1539.000000,1649933377.713247,0.000000,0.000000,1.000000,0.000000,0.000000,0.000000,0.000000,3.379777,2.356199,-0.590561
1649933377.813324,1540.000000,1649933377.813136,0.000000,0.000000,1.000000,0.000000,0.000000,0.000000,0.000000,3.378938,2.357665,-0.588396
1649933377.913191,1541.000000,1649933377.913022,0.000000,0.000000,1.000000,0.000000,0.000000,0.000000,0.000000,3.378134,2.360140,-0.581505
1649933378.013263,1542.000000,1649933378.013121,0.000000,0.000000,1.000000,0.000000,0.000000,0.000000,0.000000,3.376276,2.362470,-0.575734
1649933378.113236,1543.000000,1649933378.113090,0.000000,0.000000,1.000000,0.000000,0.000000,0.000000,0.000000,3.374518,2.364656,-0.569433
1649933378.213253,1544.000000,1649933378.213107,0.000000,0.000000,1.000000,0.000000,0.000000,0.000000,0.000000,3.375041,2.365610,-0.569084
1649933378.313414,1545.000000,1649933378.313292,0.000000,0.000000,1.000000,0.000000,0.000000,0.000000,0.000000,3.375539,2.365397,-0.572832
1649933378.413260,1546.000000,1649933378.413137,0.000000,0.000000,1.000000,0.000000,0.000000,0.000000,0.000000,3.377100,2.362993,-0.582117
1649933378.513529,1547.000000,1649933378.513384,0.000000,0.000000,1.000000,0.000000,0.000000,0.000000,0.000000,3.378573,2.359615,-0.594278
1649933378.613384,1548.000000,1649933378.613174,0.000000,0.000000,1.000000,0.000000,0.000000,0.000000,0.000000,3.381047,2.356420,-0.602727
1649933378.713513,1549.000000,1649933378.713336,0.000000,0.000000,1.000000,0.000000,0.000000,0.000000,0.000000,3.383371,2.353407,-0.607598
1649933378.813665,1550.000000,1649933378.813422,0.000000,0.000000,1.000000,0.000000,0.000000,0.000000,0.000000,3.384455,2.351665,-0.613061
1649933378.913545,1551.000000,1649933378.913388,0.000000,0.000000,1.000000,0.000000,0.000000,0.000000,0.000000,3.385456,2.350040,-0.619889
1649933379.013371,1552.000000,1649933379.013211,0.000000,0.000000,1.000000,0.000000,0.000000,0.000000,0.000000,3.386377,2.348529,-0.624791
1649933379.113459,1553.000000,1649933379.113261,0.000000,0.000000,1.000000,0.000000,0.000000,0.000000,0.000000,3.387220,2.347129,-0.627839
1649933379.213176,1554.000000,1649933379.213061,0.000000,0.000000,1.000000,0.000000,0.000000,0.000000,0.000000,3.386898,2.346927,-0.631522
1649933379.313284,1555.000000,1649933379.313149,0.000000,0.000000,1.000000,0.000000,0.000000,0.000000,0.000000,3.386568,2.345676,-0.638230
1649933379.413296,1556.000000,1649933379.413139,0.000000,0.000000,1.000000,0.000000,0.000000,0.000000,0.000000,3.386233,2.344526,-0.647026
1649933379.513278,1557.000000,1649933379.513113,0.000000,0.000000,1.000000,0.000000,0.000000,0.000000,0.000000,3.385895,2.343473,-0.654588
1649933379.613384,1558.000000,1649933379.613232,0.000000,0.000000,1.000000,0.000000,0.000000,0.000000,0.000000,3.384466,2.343603,-0.660148
1649933379.713257,1559.000000,1649933379.713128,0.000000,0.000000,1.000000,0.000000,0.000000,0.000000,0.000000,3.384193,2.344850,-0.659750
1649933379.813451,1560.000000,1649933379.813309,0.000000,0.000000,1.000000,0.000000,0.000000,0.000000,0.000000,3.383922,2.343875,-0.666542
1649933379.913218,1561.000000,1649933379.913094,0.000000,0.000000,1.000000,0.000000,0.000000,0.000000,0.000000,3.384748,2.344072,-0.668935
1649933380.013218,1562.000000,1649933380.013095,0.000000,0.000000,1.000000,0.000000,0.000000,0.000000,0.000000,3.384425,2.345376,-0.671944
1649933380.113259,1563.000000,1649933380.113129,0.000000,0.000000,1.000000,0.000000,0.000000,0.000000,0.000000,3.383020,2.345539,-0.673126
1649933380.213145,1564.000000,1649933380.213012,0.000000,0.000000,1.000000,0.000000,0.000000,0.000000,0.000000,3.382776,2.346803,-0.670942
1649933380.313195,1565.000000,1649933380.313063,0.000000,0.000000,1.000000,0.000000,0.000000,0.000000,0.000000,3.382542,2.348012,-0.665535
1649933380.413379,1566.000000,1649933380.413207,0.000000,0.000000,1.000000,0.000000,0.000000,0.000000,0.000000,3.382317,2.349165,-0.660275
1649933380.513272,1567.000000,1649933380.513127,0.000000,0.000000,1.000000,0.000000,0.000000,0.000000,0.000000,3.382102,2.349170,-0.658392
1649933380.613354,1568.000000,1649933380.613201,0.000000,0.000000,1.000000,0.000000,0.000000,0.000000,0.000000,3.380807,2.350269,-0.655725
1649933380.713170,1569.000000,1649933380.713006,0.000000,0.000000,1.000000,0.000000,0.000000,0.000000,0.000000,3.379585,2.350220,-0.653118
1649933380.813192,1570.000000,1649933380.813067,0.000000,0.000000,1.000000,0.000000,0.000000,0.000000,0.000000,3.379526,2.350175,-0.654607
1649933380.913376,1571.000000,1649933380.913150,0.000000,0.000000,1.000000,0.000000,0.000000,0.000000,0.000000,3.378386,2.350134,-0.651962
1649933381.013125,1572.000000,1649933381.012986,0.000000,0.000000,1.000000,0.000000,0.000000,0.000000,0.000000,3.377318,2.351186,-0.648582
1649933381.113457,1573.000000,1649933381.113289,0.000000,0.000000,1.000000,0.000000,0.000000,0.000000,0.000000,3.376320,2.352180,-0.642890
1649933381.213524,1574.000000,1649933381.213388,0.000000,0.000000,1.000000,0.000000,0.000000,0.000000,0.000000,3.376482,2.352023,-0.639023
1649933381.313649,1575.000000,1649933381.313509,0.000000,0.000000,1.000000,0.000000,0.000000,0.000000,0.000000,3.375558,2.352962,-0.635301
1649933381.413948,1576.000000,1649933381.413742,0.000000,0.000000,1.000000,0.000000,0.000000,0.000000,0.000000,3.374699,2.352752,-0.630114
1649933381.513824,1577.000000,1649933381.513636,0.000000,0.000000,1.000000,0.000000,0.000000,0.000000,0.000000,3.374995,2.352548,-0.624334
1649933381.613309,1578.000000,1649933381.613156,0.000000,0.000000,1.000000,0.000000,0.000000,0.000000,0.000000,3.374200,2.353440,-0.618803
1649933381.713134,1579.000000,1649933381.713013,0.000000,0.000000,1.000000,0.000000,0.000000,0.000000,0.000000,3.373465,2.354276,-0.613518
1649933381.813454,1580.000000,1649933381.813225,0.000000,0.000000,1.000000,0.000000,0.000000,0.000000,0.000000,3.372789,2.355057,-0.612510
1649933381.913520,1581.000000,1649933381.913359,0.000000,0.000000,1.000000,0.000000,0.000000,0.000000,0.000000,3.372168,2.354694,-0.613995
1649933382.013235,1582.000000,1649933382.013102,0.000000,0.000000,1.000000,0.000000,0.000000,0.000000,0.000000,3.371602,2.355431,-0.613835
1649933382.113248,1583.000000,1649933382.113103,0.000000,0.000000,1.000000,0.000000,0.000000,0.000000,0.000000,3.371087,2.356117,-0.620160
1649933382.213158,1584.000000,1649933382.213044,0.000000,0.000000,1.000000,0.000000,0.000000,0.000000,0.000000,3.371712,2.355662,-0.626246
1649933382.313262,1585.000000,1649933382.313122,0.000000,0.000000,1.000000,0.000000,0.000000,0.000000,0.000000,3.373412,2.355220,-0.630478
1649933382.413160,1586.000000,1649933382.412984,0.000000,0.000000,1.000000,0.000000,0.000000,0.000000,0.000000,3.375030,2.355885,-0.632117
1649933382.513198,1587.000000,1649933382.513053,0.000000,0.000000,1.000000,0.000000,0.000000,0.000000,0.000000,3.376566,2.356503,-0.631266
1649933382.613260,1588.000000,1649933382.613142,0.000000,0.000000,1.000000,0.000000,0.000000,0.000000,0.000000,3.378020,2.357075,-0.628026
1649933382.713221,1589.000000,1649933382.713037,0.000000,0.000000,1.000000,0.000000,0.000000,0.000000,0.000000,3.379390,2.356513,-0.623305
1649933382.813225,1590.000000,1649933382.813085,0.000000,0.000000,1.000000,0.000000,0.000000,0.000000,0.000000,3.380677,2.355972,-0.617171
1649933382.913249,1591.000000,1649933382.913065,0.000000,0.000000,1.000000,0.000000,0.000000,0.000000,0.000000,3.380793,2.356542,-0.603239
1649933383.013299,1592.000000,1649933383.013157,0.000000,0.000000,1.000000,0.000000,0.000000,0.000000,0.000000,3.380891,2.355981,-0.600396
1649933383.113833,1593.000000,1649933383.113659,0.000000,0.000000,1.000000,0.000000,0.000000,0.000000,0.000000,3.380972,2.356535,-0.597713
1649933383.213210,1594.000000,1649933383.213089,0.000000,0.000000,1.000000,0.000000,0.000000,0.000000,0.000000,3.379948,2.357050,-0.595992
1649933383.313471,1595.000000,1649933383.313312,0.000000,0.000000,1.000000,0.000000,0.000000,0.000000,0.000000,3.378973,2.357527,-0.596003
1649933383.413462,1596.000000,1649933383.413298,0.000000,0.000000,1.000000,0.000000,0.000000,0.000000,0.000000,3.376958,2.359058,-0.592028
1649933383.513157,1597.000000,1649933383.513021,0.000000,0.000000,1.000000,0.000000,0.000000,0.000000,0.000000,3.376146,2.360491,-0.590685
1649933383.613250,1598.000000,1649933383.613112,0.000000,0.000000,1.000000,0.000000,0.000000,0.000000,0.000000,3.374294,2.361828,-0.590254
1649933383.713288,1599.000000,1649933383.713120,0.000000,0.000000,1.000000,0.000000,0.000000,0.000000,0.000000,3.372553,2.364160,-0.589891
1649933383.813225,1600.000000,1649933383.813068,0.000000,0.000000,1.000000,0.000000,0.000000,0.000000,0.000000,3.370924,2.366338,-0.588785
1649933383.913202,1601.000000,1649933383.913076,0.000000,0.000000,1.000000,0.000000,0.000000,0.000000,0.000000,3.370493,2.367274,-0.594223
1649933384.013148,1602.000000,1649933384.013033,0.000000,0.000000,1.000000,0.000000,0.000000,0.000000,0.000000,3.370107,2.367035,-0.599480
1649933384.113190,1603.000000,1649933384.113060,0.000000,0.000000,1.000000,0.000000,0.000000,0.000000,0.000000,3.370852,2.367868,-0.598908
1649933384.213479,1604.000000,1649933384.213306,0.000000,0.000000,1.000000,0.000000,0.000000,0.000000,0.000000,3.371574,2.367533,-0.599191
1649933384.313546,1605.000000,1649933384.313379,0.000000,0.000000,1.000000,0.000000,0.000000,0.000000,0.000000,3.372270,2.367188,-0.595456
1649933384.413551,1606.000000,1649933384.413409,0.000000,0.000000,1.000000,0.000000,0.000000,0.000000,0.000000,3.374029,2.365744,-0.592708
1649933384.513486,1607.000000,1649933384.513348,0.000000,0.000000,1.000000,0.000000,0.000000,0.000000,0.000000,3.374606,2.365449,-0.584460
1649933384.613473,1608.000000,1649933384.613278,0.000000,0.000000,1.000000,0.000000,0.000000,0.000000,0.000000,3.376245,2.366243,-0.575784
1649933384.713723,1609.000000,1649933384.713506,0.000000,0.000000,1.000000,0.000000,0.000000,0.000000,0.000000,3.377792,2.365883,-0.568324
1649933384.813576,1610.000000,1649933384.813417,0.000000,0.000000,1.000000,0.000000,0.000000,0.000000,0.000000,3.379247,2.365525,-0.564459
1649933384.913480,1611.000000,1649933384.913273,0.000000,0.000000,1.000000,0.000000,0.000000,0.000000,0.000000,3.380611,2.365172,-0.563243
1649933385.013509,1612.000000,1649933385.013388,0.000000,0.000000,1.000000,0.000000,0.000000,0.000000,0.000000,3.380794,2.363734,-0.564567
1649933385.113103,1613.000000,1649933385.112985,0.000000,0.000000,1.000000,0.000000,0.000000,0.000000,0.000000,3.380953,2.363457,-0.563484
1649933385.213275,1614.000000,1649933385.213127,0.000000,0.000000,1.000000,0.000000,0.000000,0.000000,0.000000,3.381089,2.363188,-0.557673
1649933385.313205,1615.000000,1649933385.313077,0.000000,0.000000,1.000000,0.000000,0.000000,0.000000,0.000000,3.380112,2.362929,-0.554588
1649933385.413404,1616.000000,1649933385.413209,0.000000,0.000000,1.000000,0.000000,0.000000,0.000000,0.000000,3.379179,2.361589,-0.554121
1649933385.513221,1617.000000,1649933385.513085,0.000000,0.000000,1.000000,0.000000,0.000000,0.000000,0.000000,3.379379,2.359232,-0.557779
1649933385.613387,1618.000000,1649933385.613236,0.000000,0.000000,1.000000,0.000000,0.000000,0.000000,0.000000,3.379562,2.357010,-0.563771
1649933385.713487,1619.000000,1649933385.713361,0.000000,0.000000,1.000000,0.000000,0.000000,0.000000,0.000000,3.379728,2.354924,-0.568767
1649933385.814014,1620.000000,1649933385.813881,0.000000,0.000000,1.000000,0.000000,0.000000,0.000000,0.000000,3.379877,2.350791,-0.576020
1649933385.913286,1621.000000,1649933385.913147,0.000000,0.000000,1.000000,0.000000,0.000000,0.000000,0.000000,3.380011,2.348005,-0.578168
1649933386.013286,1622.000000,1649933386.013148,0.000000,0.000000,1.000000,0.000000,0.000000,0.000000,0.000000,3.380130,2.347591,-0.578638
1649933386.113438,1623.000000,1649933386.113211,0.000000,0.000000,1.000000,0.000000,0.000000,0.000000,0.000000,3.384597,2.343965,-0.550076
1649933386.214354,1624.000000,1649933386.213761,0.000000,0.000000,1.000000,0.000000,0.000000,0.000000,0.000000,3.388799,2.341675,-0.529184
1649933386.313464,1625.000000,1649933386.313241,0.000000,0.000000,1.000000,0.000000,0.000000,0.000000,0.000000,3.391650,2.339560,-0.516492
1649933386.413595,1626.000000,1649933386.413353,0.000000,0.000000,1.000000,0.000000,0.000000,0.000000,0.000000,3.393214,2.337616,-0.510881
1649933386.513513,1627.000000,1649933386.513394,0.000000,0.000000,1.000000,0.000000,0.000000,0.000000,0.000000,3.394651,2.334746,-0.511262
1649933386.613222,1628.000000,1649933386.613053,0.000000,0.000000,1.000000,0.000000,0.000000,0.000000,0.000000,3.395964,2.332096,-0.513357
1649933386.713165,1629.000000,1649933386.713040,0.000000,0.000000,1.000000,0.000000,0.000000,0.000000,0.000000,3.397160,2.329659,-0.519507
1649933386.813325,1630.000000,1649933386.813171,0.000000,0.000000,1.000000,0.000000,0.000000,0.000000,0.000000,3.399334,2.328517,-0.524696
1649933386.913515,1631.000000,1649933386.913364,0.000000,0.000000,1.000000,0.000000,0.000000,0.000000,0.000000,3.399157,2.328599,-0.528142
1649933387.013582,1632.000000,1649933387.013359,0.000000,0.000000,1.000000,0.000000,0.000000,0.000000,0.000000,3.398942,2.328745,-0.530714
1649933387.113411,1633.000000,1649933387.113228,0.000000,0.000000,1.000000,0.000000,0.000000,0.000000,0.000000,3.398694,2.331125,-0.531632
1649933387.213574,1634.000000,1649933387.213419,0.000000,0.000000,1.000000,0.000000,0.000000,0.000000,0.000000,3.397328,2.333428,-0.533379
1649933387.313390,1635.000000,1649933387.313240,0.000000,0.000000,1.000000,0.000000,0.000000,0.000000,0.000000,3.394911,2.335647,-0.537528
1649933387.413184,1636.000000,1649933387.413028,0.000000,0.000000,1.000000,0.000000,0.000000,0.000000,0.000000,3.393691,2.337778,-0.540749
1649933387.513164,1637.000000,1649933387.513033,0.000000,0.000000,1.000000,0.000000,0.000000,0.000000,0.000000,3.391428,2.339816,-0.545489
1649933387.613259,1638.000000,1649933387.613104,0.000000,0.000000,1.000000,0.000000,0.000000,0.000000,0.000000,3.390368,2.341758,-0.550066
1649933387.713101,1639.000000,1649933387.712979,0.000000,0.000000,1.000000,0.000000,0.000000,0.000000,0.000000,3.387177,2.345785,-0.552864
1649933387.813558,1640.000000,1649933387.813296,0.000000,0.000000,1.000000,0.000000,0.000000,0.000000,0.000000,3.384162,2.348497,-0.556369
1649933387.913625,1641.000000,1649933387.913510,0.000000,0.000000,1.000000,0.000000,0.000000,0.000000,0.000000,3.381325,2.349959,-0.562158
1649933388.013206,1642.000000,1649933388.013093,0.000000,0.000000,1.000000,0.000000,0.000000,0.000000,0.000000,3.378663,2.351324,-0.566097
1649933388.113116,1643.000000,1649933388.112999,0.000000,0.000000,1.000000,0.000000,0.000000,0.000000,0.000000,3.377264,2.352595,-0.566642
1649933388.213371,1644.000000,1649933388.213180,0.000000,0.000000,1.000000,0.000000,0.000000,0.000000,0.000000,3.374881,2.354864,-0.567961
1649933388.313236,1645.000000,1649933388.313118,0.000000,0.000000,1.000000,0.000000,0.000000,0.000000,0.000000,3.373755,2.356982,-0.570021
1649933388.413210,1646.000000,1649933388.413106,0.000000,0.000000,1.000000,0.000000,0.000000,0.000000,0.000000,3.373818,2.358950,-0.572788
1649933388.513343,1647.000000,1649933388.513171,0.000000,0.000000,1.000000,0.000000,0.000000,0.000000,0.000000,3.373914,2.359683,-0.577038
1649933388.613388,1648.000000,1649933388.613248,0.000000,0.000000,1.000000,0.000000,0.000000,0.000000,0.000000,3.374037,2.360338,-0.578671
