__time,/dwm1001/id_458E/pose_kf/header/seq,/dwm1001/id_458E/pose_kf/header/stamp,/dwm1001/id_458E/pose_kf/pose/orientation/pitch_deg,/dwm1001/id_458E/pose_kf/pose/orientation/roll_deg,/dwm1001/id_458E/pose_kf/pose/orientation/w,/dwm1001/id_458E/pose_kf/pose/orientation/x,/dwm1001/id_458E/pose_kf/pose/orientation/y,/dwm1001/id_458E/pose_kf/pose/orientation/yaw_deg,/dwm1001/id_458E/pose_kf/pose/orientation/z,/dwm1001/id_458E/pose_kf/pose/position/x,/dwm1001/id_458E/pose_kf/pose/position/y,/dwm1001/id_458E/pose_kf/pose/position/z
1649933788.514585,3612.000000,1649933788.514421,0.000000,0.000000,1.000000,0.000000,0.000000,0.000000,0.000000,1.797106,7.889701,-0.173510
1649933788.615603,3613.000000,1649933788.615251,0.000000,0.000000,1.000000,0.000000,0.000000,0.000000,0.000000,1.810385,7.885970,-0.218356
1649933788.715249,3614.000000,1649933788.715118,0.000000,0.000000,1.000000,0.000000,0.000000,0.000000,0.000000,1.805209,7.889087,-0.227814
1649933788.814605,3615.000000,1649933788.814474,0.000000,0.000000,1.000000,0.000000,0.000000,0.000000,0.000000,1.807693,7.888851,-0.257350
1649933788.914521,3616.000000,1649933788.914380,0.000000,0.000000,1.000000,0.000000,0.000000,0.000000,0.000000,1.806524,7.889801,-0.254511
1649933789.014636,3617.000000,1649933789.014453,0.000000,0.000000,1.000000,0.000000,0.000000,0.000000,0.000000,1.806280,7.889684,-0.225469
1649933789.114588,3618.000000,1649933789.114437,0.000000,0.000000,1.000000,0.000000,0.000000,0.000000,0.000000,1.803654,7.891826,-0.181028
1649933789.214120,3619.000000,1649933789.214006,0.000000,0.000000,1.000000,0.000000,0.000000,0.000000,0.000000,1.805338,7.892821,-0.159807
1649933789.314220,3620.000000,1649933789.314070,0.000000,0.000000,1.000000,0.000000,0.000000,0.000000,0.000000,1.798019,7.895997,-0.121403
1649933789.414723,3621.000000,1649933789.414403,0.000000,0.000000,1.000000,0.000000,0.000000,0.000000,0.000000,1.784401,7.901220,-0.073038
1649933789.514518,3622.000000,1649933789.514386,0.000000,0.000000,1.000000,0.000000,0.000000,0.000000,0.000000,1.782327,7.901820,-0.061979
1649933789.614174,3623.000000,1649933789.614048,0.000000,0.000000,1.000000,0.000000,0.000000,0.000000,0.000000,1.781366,7.903496,-0.030295
1649933789.714304,3624.000000,1649933789.714177,0.000000,0.000000,1.000000,0.000000,0.000000,0.000000,0.000000,1.785827,7.902913,-0.032102
1649933789.814495,3625.000000,1649933789.814342,0.000000,0.000000,1.000000,0.000000,0.000000,0.000000,0.000000,1.796496,7.900194,-0.056370
1649933789.914656,3626.000000,1649933789.914523,0.000000,0.000000,1.000000,0.000000,0.000000,0.000000,0.000000,1.808645,7.896554,-0.098123
1649933790.014389,3627.000000,1649933790.014207,0.000000,0.000000,1.000000,0.000000,0.000000,0.000000,0.000000,1.823252,7.892053,-0.150138
1649933790.114369,3628.000000,1649933790.114227,0.000000,0.000000,1.000000,0.000000,0.000000,0.000000,0.000000,1.835785,7.888932,-0.161112
1649933790.214678,3629.000000,1649933790.214556,0.000000,0.000000,1.000000,0.000000,0.000000,0.000000,0.000000,1.849599,7.886032,-0.189950
1649933790.314778,3630.000000,1649933790.314637,0.000000,0.000000,1.000000,0.000000,0.000000,0.000000,0.000000,1.847148,7.887709,-0.191536
1649933790.414111,3631.000000,1649933790.413994,0.000000,0.000000,1.000000,0.000000,0.000000,0.000000,0.000000,1.833700,7.893705,-0.171819
1649933790.514224,3632.000000,1649933790.514105,0.000000,0.000000,1.000000,0.000000,0.000000,0.000000,0.000000,1.829538,7.896130,-0.178474
1649933790.614600,3633.000000,1649933790.614377,0.000000,0.000000,1.000000,0.000000,0.000000,0.000000,0.000000,1.823274,7.898441,-0.157213
1649933790.714293,3634.000000,1649933790.714155,0.000000,0.000000,1.000000,0.000000,0.000000,0.000000,0.000000,1.823774,7.898455,-0.164044
1649933790.814205,3635.000000,1649933790.814088,0.000000,0.000000,1.000000,0.000000,0.000000,0.000000,0.000000,1.829585,7.896297,-0.188155
1649933790.914184,3636.000000,1649933790.914054,0.000000,0.000000,1.000000,0.000000,0.000000,0.000000,0.000000,1.830592,7.896451,-0.180428
1649933791.014799,3637.000000,1649933791.014422,0.000000,0.000000,1.000000,0.000000,0.000000,0.000000,0.000000,1.837965,7.895521,-0.197814
1649933791.114329,3638.000000,1649933791.114136,0.000000,0.000000,1.000000,0.000000,0.000000,0.000000,0.000000,1.838256,7.895748,-0.182828
1649933791.214567,3639.000000,1649933791.214401,0.000000,0.000000,1.000000,0.000000,0.000000,0.000000,0.000000,1.846033,7.893797,-0.194875
1649933791.314465,3640.000000,1649933791.314312,0.000000,0.000000,1.000000,0.000000,0.000000,0.000000,0.000000,1.855420,7.890880,-0.224787
1649933791.414245,3641.000000,1649933791.414080,0.000000,0.000000,1.000000,0.000000,0.000000,0.000000,0.000000,1.864127,7.888151,-0.265350
1649933791.514577,3642.000000,1649933791.514452,0.000000,0.000000,1.000000,0.000000,0.000000,0.000000,0.000000,1.872173,7.883424,-0.316077
1649933791.614254,3643.000000,1649933791.614110,0.000000,0.000000,1.000000,0.000000,0.000000,0.000000,0.000000,1.870856,7.882273,-0.324871
1649933791.714309,3644.000000,1649933791.714179,0.000000,0.000000,1.000000,0.000000,0.000000,0.000000,0.000000,1.857432,7.885595,-0.311972
1649933791.815168,3645.000000,1649933791.814930,0.000000,0.000000,1.000000,0.000000,0.000000,0.000000,0.000000,1.850059,7.886591,-0.322645
1649933791.914474,3646.000000,1649933791.914297,0.000000,0.000000,1.000000,0.000000,0.000000,0.000000,0.000000,1.841895,7.889743,-0.301906
1649933792.014397,3647.000000,1649933792.014267,0.000000,0.000000,1.000000,0.000000,0.000000,0.000000,0.000000,1.830835,7.893832,-0.261552
1649933792.114422,3648.000000,1649933792.114289,0.000000,0.000000,1.000000,0.000000,0.000000,0.000000,0.000000,1.818166,7.897703,-0.204875
1649933792.214707,3649.000000,1649933792.214494,0.000000,0.000000,1.000000,0.000000,0.000000,0.000000,0.000000,1.812740,7.898084,-0.185057
1649933792.314342,3650.000000,1649933792.314190,0.000000,0.000000,1.000000,0.000000,0.000000,0.000000,0.000000,1.814179,7.896255,-0.190166
1649933792.414145,3651.000000,1649933792.413996,0.000000,0.000000,1.000000,0.000000,0.000000,0.000000,0.000000,1.805747,7.897794,-0.172418
1649933792.514430,3652.000000,1649933792.514257,0.000000,0.000000,1.000000,0.000000,0.000000,0.000000,0.000000,1.805453,7.897061,-0.177927
1649933792.615464,3653.000000,1649933792.615274,0.000000,0.000000,1.000000,0.000000,0.000000,0.000000,0.000000,1.807401,7.895273,-0.195265
1649933792.714605,3654.000000,1649933792.714415,0.000000,0.000000,1.000000,0.000000,0.000000,0.000000,0.000000,1.796194,7.899036,-0.187638
1649933792.814774,3655.000000,1649933792.814639,0.000000,0.000000,1.000000,0.000000,0.000000,0.000000,0.000000,1.792209,7.899313,-0.202842
1649933792.914483,3656.000000,1649933792.914366,0.000000,0.000000,1.000000,0.000000,0.000000,0.000000,0.000000,1.781976,7.901744,-0.189126
1649933793.014137,3657.000000,1649933793.014023,0.000000,0.000000,1.000000,0.000000,0.000000,0.000000,0.000000,1.760412,7.908387,-0.153329
1649933793.114350,3658.000000,1649933793.114197,0.000000,0.000000,1.000000,0.000000,0.000000,0.000000,0.000000,1.752185,7.911359,-0.148822
1649933793.214351,3659.000000,1649933793.214221,0.000000,0.000000,1.000000,0.000000,0.000000,0.000000,0.000000,1.755492,7.910853,-0.163062
1649933793.314280,3660.000000,1649933793.314086,0.000000,0.000000,1.000000,0.000000,0.000000,0.000000,0.000000,1.745698,7.914695,-0.150106
1649933793.414866,3661.000000,1649933793.414690,0.000000,0.000000,1.000000,0.000000,0.000000,0.000000,0.000000,1.743163,7.915007,-0.161880
1649933793.514089,3662.000000,1649933793.513960,0.000000,0.000000,1.000000,0.000000,0.000000,0.000000,0.000000,1.737676,7.916344,-0.146559
1649933793.614558,3663.000000,1649933793.614379,0.000000,0.000000,1.000000,0.000000,0.000000,0.000000,0.000000,1.726134,7.919738,-0.112521
1649933793.714307,3664.000000,1649933793.714106,0.000000,0.000000,1.000000,0.000000,0.000000,0.000000,0.000000,1.723068,7.919619,-0.108963
1649933793.814350,3665.000000,1649933793.814225,0.000000,0.000000,1.000000,0.000000,0.000000,0.000000,0.000000,1.729102,7.917271,-0.124983
1649933793.914386,3666.000000,1649933793.914247,0.000000,0.000000,1.000000,0.000000,0.000000,0.000000,0.000000,1.739349,7.912827,-0.158954
1649933794.014318,3667.000000,1649933794.014181,0.000000,0.000000,1.000000,0.000000,0.000000,0.000000,0.000000,1.739361,7.912960,-0.157675
1649933794.114182,3668.000000,1649933794.114036,0.000000,0.000000,1.000000,0.000000,0.000000,0.000000,0.000000,1.737321,7.913060,-0.131438
1649933794.214449,3669.000000,1649933794.214194,0.000000,0.000000,1.000000,0.000000,0.000000,0.000000,0.000000,1.742063,7.910948,-0.132908
1649933794.314102,3670.000000,1649933794.313934,0.000000,0.000000,1.000000,0.000000,0.000000,0.000000,0.000000,1.739020,7.911116,-0.112578
1649933794.414317,3671.000000,1649933794.414138,0.000000,0.000000,1.000000,0.000000,0.000000,0.000000,0.000000,1.732980,7.913439,-0.073777
1649933794.514247,3672.000000,1649933794.514118,0.000000,0.000000,1.000000,0.000000,0.000000,0.000000,0.000000,1.728482,7.914523,-0.018927
1649933794.614185,3673.000000,1649933794.613961,0.000000,0.000000,1.000000,0.000000,0.000000,0.000000,0.000000,1.721087,7.917704,0.043980
1649933794.714281,3674.000000,1649933794.714127,0.000000,0.000000,1.000000,0.000000,0.000000,0.000000,0.000000,1.715330,7.919588,0.114521
1649933794.814400,3675.000000,1649933794.814269,0.000000,0.000000,1.000000,0.000000,0.000000,0.000000,0.000000,1.711132,7.921332,0.185832
1649933794.914144,3676.000000,1649933794.914010,0.000000,0.000000,1.000000,0.000000,0.000000,0.000000,0.000000,1.710593,7.921850,0.259390
1649933795.014949,3677.000000,1649933795.014713,0.000000,0.000000,1.000000,0.000000,0.000000,0.000000,0.000000,1.700421,7.926661,0.323712
1649933795.114218,3678.000000,1649933795.114037,0.000000,0.000000,1.000000,0.000000,0.000000,0.000000,0.000000,1.700792,7.927887,0.343603
1649933795.214166,3679.000000,1649933795.214021,0.000000,0.000000,1.000000,0.000000,0.000000,0.000000,0.000000,1.699125,7.930082,0.374076
1649933795.314168,3680.000000,1649933795.314038,0.000000,0.000000,1.000000,0.000000,0.000000,0.000000,0.000000,1.705341,7.928830,0.367103
1649933795.414500,3681.000000,1649933795.414296,0.000000,0.000000,1.000000,0.000000,0.000000,0.000000,0.000000,1.714620,7.925414,0.341977
1649933795.514327,3682.000000,1649933795.514180,0.000000,0.000000,1.000000,0.000000,0.000000,0.000000,0.000000,1.725668,7.921058,0.305952
1649933795.614372,3683.000000,1649933795.614214,0.000000,0.000000,1.000000,0.000000,0.000000,0.000000,0.000000,1.743801,7.915828,0.252298
1649933795.714357,3684.000000,1649933795.714204,0.000000,0.000000,1.000000,0.000000,0.000000,0.000000,0.000000,1.763121,7.909790,0.188290
1649933795.815056,3685.000000,1649933795.814839,0.000000,0.000000,1.000000,0.000000,0.000000,0.000000,0.000000,1.780230,7.904097,0.114472
1649933795.914447,3686.000000,1649933795.914300,0.000000,0.000000,1.000000,0.000000,0.000000,0.000000,0.000000,1.788658,7.900927,0.082989
1649933796.014175,3687.000000,1649933796.014049,0.000000,0.000000,1.000000,0.000000,0.000000,0.000000,0.000000,1.799762,7.895791,0.034130
1649933796.114285,3688.000000,1649933796.114099,0.000000,0.000000,1.000000,0.000000,0.000000,0.000000,0.000000,1.805735,7.893171,0.023522
1649933796.214391,3689.000000,1649933796.214196,0.000000,0.000000,1.000000,0.000000,0.000000,0.000000,0.000000,1.799215,7.895115,0.033512
1649933796.314738,3690.000000,1649933796.314576,0.000000,0.000000,1.000000,0.000000,0.000000,0.000000,0.000000,1.801630,7.894822,0.017285
1649933796.414387,3691.000000,1649933796.414239,0.000000,0.000000,1.000000,0.000000,0.000000,0.000000,0.000000,1.805953,7.893504,-0.012785
1649933796.514538,3692.000000,1649933796.514388,0.000000,0.000000,1.000000,0.000000,0.000000,0.000000,0.000000,1.806622,7.894488,-0.011734
1649933796.614745,3693.000000,1649933796.614522,0.000000,0.000000,1.000000,0.000000,0.000000,0.000000,0.000000,1.812565,7.893282,-0.034854
1649933796.714342,3694.000000,1649933796.714160,0.000000,0.000000,1.000000,0.000000,0.000000,0.000000,0.000000,1.816942,7.893277,-0.026295
1649933796.814025,3695.000000,1649933796.813898,0.000000,0.000000,1.000000,0.000000,0.000000,0.000000,0.000000,1.819834,7.893315,0.004582
1649933796.914285,3696.000000,1649933796.914040,0.000000,0.000000,1.000000,0.000000,0.000000,0.000000,0.000000,1.822412,7.893391,0.051178
1649933797.014917,3697.000000,1649933797.014782,0.000000,0.000000,1.000000,0.000000,0.000000,0.000000,0.000000,1.809428,7.897861,0.105520
1649933797.114271,3698.000000,1649933797.114133,0.000000,0.000000,1.000000,0.000000,0.000000,0.000000,0.000000,1.793774,7.903200,0.164786
1649933797.214465,3699.000000,1649933797.214296,0.000000,0.000000,1.000000,0.000000,0.000000,0.000000,0.000000,1.787645,7.904980,0.181104
1649933797.314654,3700.000000,1649933797.314470,0.000000,0.000000,1.000000,0.000000,0.000000,0.000000,0.000000,1.786183,7.903389,0.165864
1649933797.415002,3701.000000,1649933797.414765,0.000000,0.000000,1.000000,0.000000,0.000000,0.000000,0.000000,1.788050,7.901888,0.136503
1649933797.514139,3702.000000,1649933797.513994,0.000000,0.000000,1.000000,0.000000,0.000000,0.000000,0.000000,1.778885,7.903746,0.135585
1649933797.614263,3703.000000,1649933797.614108,0.000000,0.000000,1.000000,0.000000,0.000000,0.000000,0.000000,1.777856,7.903324,0.111165
1649933797.714148,3704.000000,1649933797.713969,0.000000,0.000000,1.000000,0.000000,0.000000,0.000000,0.000000,1.769256,7.906197,0.110207
1649933797.814410,3705.000000,1649933797.814233,0.000000,0.000000,1.000000,0.000000,0.000000,0.000000,0.000000,1.766611,7.905636,0.084997
1649933797.914350,3706.000000,1649933797.914188,0.000000,0.000000,1.000000,0.000000,0.000000,0.000000,0.000000,1.754336,7.908372,0.080912
1649933798.014259,3707.000000,1649933798.014123,0.000000,0.000000,1.000000,0.000000,0.000000,0.000000,0.000000,1.750438,7.908765,0.051145
1649933798.114221,3708.000000,1649933798.114108,0.000000,0.000000,1.000000,0.000000,0.000000,0.000000,0.000000,1.751198,7.908032,0.013716
1649933798.214425,3709.000000,1649933798.214180,0.000000,0.000000,1.000000,0.000000,0.000000,0.000000,0.000000,1.747632,7.907329,0.008515
1649933798.314382,3710.000000,1649933798.314242,0.000000,0.000000,1.000000,0.000000,0.000000,0.000000,0.000000,1.754158,7.905566,-0.019785
1649933798.414435,3711.000000,1649933798.414307,0.000000,0.000000,1.000000,0.000000,0.000000,0.000000,0.000000,1.738579,7.911530,-0.020207
1649933798.514617,3712.000000,1649933798.514452,0.000000,0.000000,1.000000,0.000000,0.000000,0.000000,0.000000,1.734856,7.913878,-0.034202
1649933798.614512,3713.000000,1649933798.614362,0.000000,0.000000,1.000000,0.000000,0.000000,0.000000,0.000000,1.733626,7.916070,-0.020076
1649933798.714657,3714.000000,1649933798.714498,0.000000,0.000000,1.000000,0.000000,0.000000,0.000000,0.000000,1.740203,7.915931,-0.034636
1649933798.814638,3715.000000,1649933798.814493,0.000000,0.000000,1.000000,0.000000,0.000000,0.000000,0.000000,1.751954,7.913589,-0.069449
1649933798.914547,3716.000000,1649933798.914403,0.000000,0.000000,1.000000,0.000000,0.000000,0.000000,0.000000,1.768556,7.910263,-0.116387
1649933799.014885,3717.000000,1649933799.014625,0.000000,0.000000,1.000000,0.000000,0.000000,0.000000,0.000000,1.776605,7.907110,-0.124888
1649933799.114329,3718.000000,1649933799.114146,0.000000,0.000000,1.000000,0.000000,0.000000,0.000000,0.000000,1.783084,7.904130,-0.104563
1649933799.214344,3719.000000,1649933799.214204,0.000000,0.000000,1.000000,0.000000,0.000000,0.000000,0.000000,1.791333,7.900232,-0.111457
1649933799.314179,3720.000000,1649933799.314004,0.000000,0.000000,1.000000,0.000000,0.000000,0.000000,0.000000,1.795781,7.897660,-0.092052
1649933799.414195,3721.000000,1649933799.414056,0.000000,0.000000,1.000000,0.000000,0.000000,0.000000,0.000000,1.792264,7.899618,-0.059546
1649933799.514545,3722.000000,1649933799.514423,0.000000,0.000000,1.000000,0.000000,0.000000,0.000000,0.000000,1.795406,7.899311,-0.060497
1649933799.614363,3723.000000,1649933799.614241,0.000000,0.000000,1.000000,0.000000,0.000000,0.000000,0.000000,1.797207,7.899041,-0.035495
1649933799.714184,3724.000000,1649933799.714041,0.000000,0.000000,1.000000,0.000000,0.000000,0.000000,0.000000,1.801010,7.898807,0.004689
1649933799.815120,3725.000000,1649933799.814976,0.000000,0.000000,1.000000,0.000000,0.000000,0.000000,0.000000,1.808880,7.896425,0.022275
1649933799.914212,3726.000000,1649933799.914082,0.000000,0.000000,1.000000,0.000000,0.000000,0.000000,0.000000,1.809670,7.896380,0.057662
1649933800.014084,3727.000000,1649933800.013947,0.000000,0.000000,1.000000,0.000000,0.000000,0.000000,0.000000,1.796139,7.902906,0.090719
1649933800.114415,3728.000000,1649933800.114255,0.000000,0.000000,1.000000,0.000000,0.000000,0.000000,0.000000,1.788741,7.905807,0.089230
1649933800.214766,3729.000000,1649933800.214620,0.000000,0.000000,1.000000,0.000000,0.000000,0.000000,0.000000,1.784989,7.905274,0.062659
1649933800.314705,3730.000000,1649933800.314482,0.000000,0.000000,1.000000,0.000000,0.000000,0.000000,0.000000,1.778154,7.906946,0.064490
1649933800.414656,3731.000000,1649933800.414490,0.000000,0.000000,1.000000,0.000000,0.000000,0.000000,0.000000,1.758614,7.912880,0.071802
1649933800.514704,3732.000000,1649933800.514510,0.000000,0.000000,1.000000,0.000000,0.000000,0.000000,0.000000,1.751111,7.915192,0.050497
1649933800.615250,3733.000000,1649933800.615065,0.000000,0.000000,1.000000,0.000000,0.000000,0.000000,0.000000,1.743013,7.919525,0.054992
1649933800.714562,3734.000000,1649933800.714432,0.000000,0.000000,1.000000,0.000000,0.000000,0.000000,0.000000,1.743098,7.920307,0.031824
1649933800.814453,3735.000000,1649933800.814275,0.000000,0.000000,1.000000,0.000000,0.000000,0.000000,0.000000,1.728014,7.926454,0.038602
1649933800.914666,3736.000000,1649933800.914460,0.000000,0.000000,1.000000,0.000000,0.000000,0.000000,0.000000,1.722618,7.928933,0.020075
1649933801.014625,3737.000000,1649933801.014400,0.000000,0.000000,1.000000,0.000000,0.000000,0.000000,0.000000,1.710036,7.933392,0.031329
1649933801.114743,3738.000000,1649933801.114612,0.000000,0.000000,1.000000,0.000000,0.000000,0.000000,0.000000,1.690689,7.940804,0.052595
1649933801.214583,3739.000000,1649933801.214425,0.000000,0.000000,1.000000,0.000000,0.000000,0.000000,0.000000,1.663907,7.950988,0.089079
1649933801.314661,3740.000000,1649933801.314408,0.000000,0.000000,1.000000,0.000000,0.000000,0.000000,0.000000,1.643249,7.958316,0.134465
1649933801.415042,3741.000000,1649933801.414830,0.000000,0.000000,1.000000,0.000000,0.000000,0.000000,0.000000,1.629520,7.962926,0.190740
1649933801.514747,3742.000000,1649933801.514602,0.000000,0.000000,1.000000,0.000000,0.000000,0.000000,0.000000,1.624546,7.962779,0.204957
1649933801.614571,3743.000000,1649933801.614413,0.000000,0.000000,1.000000,0.000000,0.000000,0.000000,0.000000,1.630025,7.959233,0.189284
1649933801.714394,3744.000000,1649933801.714278,0.000000,0.000000,1.000000,0.000000,0.000000,0.000000,0.000000,1.642078,7.953584,0.151416
1649933801.814240,3745.000000,1649933801.814097,0.000000,0.000000,1.000000,0.000000,0.000000,0.000000,0.000000,1.643934,7.947060,0.151191
1649933801.914290,3746.000000,1649933801.914141,0.000000,0.000000,1.000000,0.000000,0.000000,0.000000,0.000000,1.654664,7.938645,0.125005
1649933802.014426,3747.000000,1649933802.014256,0.000000,0.000000,1.000000,0.000000,0.000000,0.000000,0.000000,1.669374,7.929562,0.090084
1649933802.114662,3748.000000,1649933802.114455,0.000000,0.000000,1.000000,0.000000,0.000000,0.000000,0.000000,1.680156,7.923149,0.088779
1649933802.215073,3749.000000,1649933802.214912,0.000000,0.000000,1.000000,0.000000,0.000000,0.000000,0.000000,1.691545,7.918192,0.110062
1649933802.314562,3750.000000,1649933802.314434,0.000000,0.000000,1.000000,0.000000,0.000000,0.000000,0.000000,1.705645,7.912445,0.109441
1649933802.414245,3751.000000,1649933802.414108,0.000000,0.000000,1.000000,0.000000,0.000000,0.000000,0.000000,1.715720,7.909237,0.131351
1649933802.514293,3752.000000,1649933802.514142,0.000000,0.000000,1.000000,0.000000,0.000000,0.000000,0.000000,1.715412,7.909530,0.161946
1649933802.614546,3753.000000,1649933802.614392,0.000000,0.000000,1.000000,0.000000,0.000000,0.000000,0.000000,1.720557,7.907676,0.157282
1649933802.714327,3754.000000,1649933802.714187,0.000000,0.000000,1.000000,0.000000,0.000000,0.000000,0.000000,1.725388,7.905976,0.172824
1649933802.814212,3755.000000,1649933802.814010,0.000000,0.000000,1.000000,0.000000,0.000000,0.000000,0.000000,1.724458,7.906604,0.202902
1649933802.914186,3756.000000,1649933802.914039,0.000000,0.000000,1.000000,0.000000,0.000000,0.000000,0.000000,1.724630,7.907248,0.246076
1649933803.014986,3757.000000,1649933803.014802,0.000000,0.000000,1.000000,0.000000,0.000000,0.000000,0.000000,1.718211,7.910083,0.297724
1649933803.114171,3758.000000,1649933803.114030,0.000000,0.000000,1.000000,0.000000,0.000000,0.000000,0.000000,1.721939,7.909526,0.305815
1649933803.214283,3759.000000,1649933803.214124,0.000000,0.000000,1.000000,0.000000,0.000000,0.000000,0.000000,1.731979,7.906852,0.281781
1649933803.314395,3760.000000,1649933803.314259,0.000000,0.000000,1.000000,0.000000,0.000000,0.000000,0.000000,1.746868,7.903273,0.238264
1649933803.414675,3761.000000,1649933803.414535,0.000000,0.000000,1.000000,0.000000,0.000000,0.000000,0.000000,1.746670,7.905389,0.214844
1649933803.514528,3762.000000,1649933803.514390,0.000000,0.000000,1.000000,0.000000,0.000000,0.000000,0.000000,1.739847,7.909611,0.213180
1649933803.614680,3763.000000,1649933803.614532,0.000000,0.000000,1.000000,0.000000,0.000000,0.000000,0.000000,1.732237,7.912536,0.230790
1649933803.714532,3764.000000,1649933803.714396,0.000000,0.000000,1.000000,0.000000,0.000000,0.000000,0.000000,1.734816,7.912044,0.216875
1649933803.815281,3765.000000,1649933803.815082,0.000000,0.000000,1.000000,0.000000,0.000000,0.000000,0.000000,1.737210,7.911592,0.227575
1649933803.914394,3766.000000,1649933803.914269,0.000000,0.000000,1.000000,0.000000,0.000000,0.000000,0.000000,1.732881,7.913361,0.251400
1649933804.014686,3767.000000,1649933804.014402,0.000000,0.000000,1.000000,0.000000,0.000000,0.000000,0.000000,1.725482,7.917222,0.284564
1649933804.114478,3768.000000,1649933804.114313,0.000000,0.000000,1.000000,0.000000,0.000000,0.000000,0.000000,1.727202,7.917597,0.279865
1649933804.214603,3769.000000,1649933804.214467,0.000000,0.000000,1.000000,0.000000,0.000000,0.000000,0.000000,1.713549,7.923399,0.292881
1649933804.314621,3770.000000,1649933804.314397,0.000000,0.000000,1.000000,0.000000,0.000000,0.000000,0.000000,1.701761,7.928861,0.319659
1649933804.414524,3771.000000,1649933804.414356,0.000000,0.000000,1.000000,0.000000,0.000000,0.000000,0.000000,1.698313,7.930715,0.318479
1649933804.514147,3772.000000,1649933804.514000,0.000000,0.000000,1.000000,0.000000,0.000000,0.000000,0.000000,1.698397,7.930245,0.337256
1649933804.614674,3773.000000,1649933804.614484,0.000000,0.000000,1.000000,0.000000,0.000000,0.000000,0.000000,1.703997,7.928671,0.334840
1649933804.714302,3774.000000,1649933804.714073,0.000000,0.000000,1.000000,0.000000,0.000000,0.000000,0.000000,1.695164,7.931512,0.337104
1649933804.814671,3775.000000,1649933804.814483,0.000000,0.000000,1.000000,0.000000,0.000000,0.000000,0.000000,1.697788,7.930890,0.309992
1649933804.914698,3776.000000,1649933804.914522,0.000000,0.000000,1.000000,0.000000,0.000000,0.000000,0.000000,1.707961,7.928085,0.260392
1649933805.014691,3777.000000,1649933805.014520,0.000000,0.000000,1.000000,0.000000,0.000000,0.000000,0.000000,1.720875,7.924320,0.211882
1649933805.114782,3778.000000,1649933805.114600,0.000000,0.000000,1.000000,0.000000,0.000000,0.000000,0.000000,1.733067,7.920749,0.195150
1649933805.214677,3779.000000,1649933805.214490,0.000000,0.000000,1.000000,0.000000,0.000000,0.000000,0.000000,1.744540,7.916283,0.154106
1649933805.314670,3780.000000,1649933805.314476,0.000000,0.000000,1.000000,0.000000,0.000000,0.000000,0.000000,1.760752,7.912076,0.106734
1649933805.415153,3781.000000,1649933805.414962,0.000000,0.000000,1.000000,0.000000,0.000000,0.000000,0.000000,1.779218,7.907036,0.044496
1649933805.514299,3782.000000,1649933805.514176,0.000000,0.000000,1.000000,0.000000,0.000000,0.000000,0.000000,1.785589,7.905583,0.019701
1649933805.614479,3783.000000,1649933805.614315,0.000000,0.000000,1.000000,0.000000,0.000000,0.000000,0.000000,1.794691,7.902073,-0.023966
1649933805.714386,3784.000000,1649933805.714270,0.000000,0.000000,1.000000,0.000000,0.000000,0.000000,0.000000,1.800904,7.898807,-0.031651
1649933805.814665,3785.000000,1649933805.814538,0.000000,0.000000,1.000000,0.000000,0.000000,0.000000,0.000000,1.800018,7.899049,-0.015289
1649933805.914354,3786.000000,1649933805.914135,0.000000,0.000000,1.000000,0.000000,0.000000,0.000000,0.000000,1.792434,7.901515,0.015236
1649933806.014284,3787.000000,1649933806.014135,0.000000,0.000000,1.000000,0.000000,0.000000,0.000000,0.000000,1.773101,7.908253,0.059290
1649933806.114666,3788.000000,1649933806.114542,0.000000,0.000000,1.000000,0.000000,0.000000,0.000000,0.000000,1.749272,7.915735,0.104951
1649933806.214840,3789.000000,1649933806.214650,0.000000,0.000000,1.000000,0.000000,0.000000,0.000000,0.000000,1.725634,7.922805,0.153684
1649933806.314175,3790.000000,1649933806.314032,0.000000,0.000000,1.000000,0.000000,0.000000,0.000000,0.000000,1.709885,7.927284,0.210119
1649933806.414172,3791.000000,1649933806.414047,0.000000,0.000000,1.000000,0.000000,0.000000,0.000000,0.000000,1.704912,7.928209,0.231106
1649933806.514458,3792.000000,1649933806.514321,0.000000,0.000000,1.000000,0.000000,0.000000,0.000000,0.000000,1.709048,7.926864,0.217238
1649933806.614187,3793.000000,1649933806.614020,0.000000,0.000000,1.000000,0.000000,0.000000,0.000000,0.000000,1.710872,7.926650,0.226401
1649933806.714366,3794.000000,1649933806.714205,0.000000,0.000000,1.000000,0.000000,0.000000,0.000000,0.000000,1.706139,7.928598,0.247171
1649933806.814546,3795.000000,1649933806.814079,0.000000,0.000000,1.000000,0.000000,0.000000,0.000000,0.000000,1.710480,7.927134,0.236309
1649933806.914323,3796.000000,1649933806.914197,0.000000,0.000000,1.000000,0.000000,0.000000,0.000000,0.000000,1.722293,7.926812,0.203177
1649933807.015028,3797.000000,1649933807.014827,0.000000,0.000000,1.000000,0.000000,0.000000,0.000000,0.000000,1.731314,7.925392,0.200350
1649933807.114574,3798.000000,1649933807.114417,0.000000,0.000000,1.000000,0.000000,0.000000,0.000000,0.000000,1.744208,7.922940,0.190321
1649933807.214396,3799.000000,1649933807.214239,0.000000,0.000000,1.000000,0.000000,0.000000,0.000000,0.000000,1.746549,7.922792,0.199209
1649933807.314366,3800.000000,1649933807.314194,0.000000,0.000000,1.000000,0.000000,0.000000,0.000000,0.000000,1.737815,7.925913,0.214138
1649933807.414633,3801.000000,1649933807.414460,0.000000,0.000000,1.000000,0.000000,0.000000,0.000000,0.000000,1.727363,7.928846,0.242909
1649933807.514223,3802.000000,1649933807.514066,0.000000,0.000000,1.000000,0.000000,0.000000,0.000000,0.000000,1.726224,7.929411,0.234916
1649933807.614161,3803.000000,1649933807.614052,0.000000,0.000000,1.000000,0.000000,0.000000,0.000000,0.000000,1.715357,7.933189,0.249725
1649933807.714413,3804.000000,1649933807.714201,0.000000,0.000000,1.000000,0.000000,0.000000,0.000000,0.000000,1.700776,7.937815,0.276718
1649933807.814493,3805.000000,1649933807.814285,0.000000,0.000000,1.000000,0.000000,0.000000,0.000000,0.000000,1.697991,7.938867,0.266171
1649933807.914496,3806.000000,1649933807.914358,0.000000,0.000000,1.000000,0.000000,0.000000,0.000000,0.000000,1.704183,7.936541,0.231717
1649933808.014342,3807.000000,1649933808.014203,0.000000,0.000000,1.000000,0.000000,0.000000,0.000000,0.000000,1.704662,7.935392,0.224385
1649933808.114191,3808.000000,1649933808.114071,0.000000,0.000000,1.000000,0.000000,0.000000,0.000000,0.000000,1.701914,7.935361,0.235032
1649933808.214183,3809.000000,1649933808.214068,0.000000,0.000000,1.000000,0.000000,0.000000,0.000000,0.000000,1.691758,7.937481,0.258887
1649933808.314166,3810.000000,1649933808.314052,0.000000,0.000000,1.000000,0.000000,0.000000,0.000000,0.000000,1.688801,7.936178,0.257475
1649933808.414231,3811.000000,1649933808.414106,0.000000,0.000000,1.000000,0.000000,0.000000,0.000000,0.000000,1.685020,7.934914,0.275371
1649933808.514181,3812.000000,1649933808.514063,0.000000,0.000000,1.000000,0.000000,0.000000,0.000000,0.000000,1.679376,7.935876,0.307738
1649933808.615078,3813.000000,1649933808.614826,0.000000,0.000000,1.000000,0.000000,0.000000,0.000000,0.000000,1.682885,7.934577,0.300718
1649933808.714098,3814.000000,1649933808.714002,0.000000,0.000000,1.000000,0.000000,0.000000,0.000000,0.000000,1.681947,7.935510,0.308337
1649933808.814151,3815.000000,1649933808.814008,0.000000,0.000000,1.000000,0.000000,0.000000,0.000000,0.000000,1.680072,7.935278,0.329999
1649933808.914350,3816.000000,1649933808.914243,0.000000,0.000000,1.000000,0.000000,0.000000,0.000000,0.000000,1.674039,7.936129,0.359464
1649933809.014198,3817.000000,1649933809.014074,0.000000,0.000000,1.000000,0.000000,0.000000,0.000000,0.000000,1.673901,7.935821,0.399599
1649933809.114262,3818.000000,1649933809.114129,0.000000,0.000000,1.000000,0.000000,0.000000,0.000000,0.000000,1.682603,7.934420,0.395886
1649933809.214154,3819.000000,1649933809.214026,0.000000,0.000000,1.000000,0.000000,0.000000,0.000000,0.000000,1.680002,7.936352,0.399304
1649933809.314137,3820.000000,1649933809.313990,0.000000,0.000000,1.000000,0.000000,0.000000,0.000000,0.000000,1.676532,7.939250,0.416023
1649933809.415171,3821.000000,1649933809.415048,0.000000,0.000000,1.000000,0.000000,0.000000,0.000000,0.000000,1.679878,7.938691,0.409199
1649933809.514289,3822.000000,1649933809.514171,0.000000,0.000000,1.000000,0.000000,0.000000,0.000000,0.000000,1.689654,7.935957,0.374159
1649933809.614120,3823.000000,1649933809.613994,0.000000,0.000000,1.000000,0.000000,0.000000,0.000000,0.000000,1.696752,7.933358,0.365338
1649933809.714255,3824.000000,1649933809.714141,0.000000,0.000000,1.000000,0.000000,0.000000,0.000000,0.000000,1.708926,7.929806,0.329283
1649933809.814374,3825.000000,1649933809.814117,0.000000,0.000000,1.000000,0.000000,0.000000,0.000000,0.000000,1.725860,7.924272,0.274417
1649933809.914297,3826.000000,1649933809.914188,0.000000,0.000000,1.000000,0.000000,0.000000,0.000000,0.000000,1.737431,7.921244,0.252402
1649933810.014293,3827.000000,1649933810.014172,0.000000,0.000000,1.000000,0.000000,0.000000,0.000000,0.000000,1.751530,7.916231,0.207920
1649933810.114106,3828.000000,1649933810.113981,0.000000,0.000000,1.000000,0.000000,0.000000,0.000000,0.000000,1.764712,7.911537,0.195983
1649933810.215333,3829.000000,1649933810.215167,0.000000,0.000000,1.000000,0.000000,0.000000,0.000000,0.000000,1.758457,7.913699,0.206423
1649933810.314719,3830.000000,1649933810.314521,0.000000,0.000000,1.000000,0.000000,0.000000,0.000000,0.000000,1.760022,7.913610,0.183477
1649933810.414872,3831.000000,1649933810.414742,0.000000,0.000000,1.000000,0.000000,0.000000,0.000000,0.000000,1.766806,7.910300,0.138203
1649933810.514522,3832.000000,1649933810.514365,0.000000,0.000000,1.000000,0.000000,0.000000,0.000000,0.000000,1.780692,7.906132,0.078830
1649933810.614761,3833.000000,1649933810.614559,0.000000,0.000000,1.000000,0.000000,0.000000,0.000000,0.000000,1.785993,7.904435,0.056019
1649933810.714439,3834.000000,1649933810.714296,0.000000,0.000000,1.000000,0.000000,0.000000,0.000000,0.000000,1.776629,7.909438,0.060257
1649933810.814261,3835.000000,1649933810.814123,0.000000,0.000000,1.000000,0.000000,0.000000,0.000000,0.000000,1.764344,7.914213,0.083175
1649933810.914254,3836.000000,1649933810.914105,0.000000,0.000000,1.000000,0.000000,0.000000,0.000000,0.000000,1.750435,7.918756,0.119131
1649933811.015086,3837.000000,1649933811.014935,0.000000,0.000000,1.000000,0.000000,0.000000,0.000000,0.000000,1.745945,7.919792,0.116720
1649933811.114640,3838.000000,1649933811.114453,0.000000,0.000000,1.000000,0.000000,0.000000,0.000000,0.000000,1.732933,7.924050,0.125873
1649933811.214732,3839.000000,1649933811.214569,0.000000,0.000000,1.000000,0.000000,0.000000,0.000000,0.000000,1.731532,7.924799,0.104164
1649933811.314745,3840.000000,1649933811.314596,0.000000,0.000000,1.000000,0.000000,0.000000,0.000000,0.000000,1.725850,7.925499,0.105289
1649933811.414806,3841.000000,1649933811.414596,0.000000,0.000000,1.000000,0.000000,0.000000,0.000000,0.000000,1.729223,7.923970,0.089607
1649933811.514992,3842.000000,1649933811.514828,0.000000,0.000000,1.000000,0.000000,0.000000,0.000000,0.000000,1.738963,7.920339,0.050557
1649933811.614555,3843.000000,1649933811.614405,0.000000,0.000000,1.000000,0.000000,0.000000,0.000000,0.000000,1.748152,7.919094,0.043170
1649933811.714606,3844.000000,1649933811.714470,0.000000,0.000000,1.000000,0.000000,0.000000,0.000000,0.000000,1.748067,7.921199,0.055690
1649933811.815027,3845.000000,1649933811.814868,0.000000,0.000000,1.000000,0.000000,0.000000,0.000000,0.000000,1.749032,7.922102,0.086475
1649933811.914154,3846.000000,1649933811.914024,0.000000,0.000000,1.000000,0.000000,0.000000,0.000000,0.000000,1.756439,7.920776,0.083114
1649933812.014617,3847.000000,1649933812.014469,0.000000,0.000000,1.000000,0.000000,0.000000,0.000000,0.000000,1.767738,7.916255,0.056661
1649933812.114453,3848.000000,1649933812.114313,0.000000,0.000000,1.000000,0.000000,0.000000,0.000000,0.000000,1.766328,7.916361,0.050826
1649933812.214559,3849.000000,1649933812.214434,0.000000,0.000000,1.000000,0.000000,0.000000,0.000000,0.000000,1.773629,7.914297,0.019618
1649933812.314258,3850.000000,1649933812.314133,0.000000,0.000000,1.000000,0.000000,0.000000,0.000000,0.000000,1.761889,7.917820,0.014104
1649933812.414412,3851.000000,1649933812.414228,0.000000,0.000000,1.000000,0.000000,0.000000,0.000000,0.000000,1.759448,7.917890,-0.015138
1649933812.514182,3852.000000,1649933812.514060,0.000000,0.000000,1.000000,0.000000,0.000000,0.000000,0.000000,1.755998,7.919057,-0.013081
1649933812.615474,3853.000000,1649933812.615098,0.000000,0.000000,1.000000,0.000000,0.000000,0.000000,0.000000,1.760330,7.916894,-0.035034
1649933812.714474,3854.000000,1649933812.714320,0.000000,0.000000,1.000000,0.000000,0.000000,0.000000,0.000000,1.770919,7.912679,-0.075971
1649933812.814405,3855.000000,1649933812.814248,0.000000,0.000000,1.000000,0.000000,0.000000,0.000000,0.000000,1.777580,7.909809,-0.083457
1649933812.914530,3856.000000,1649933812.914393,0.000000,0.000000,1.000000,0.000000,0.000000,0.000000,0.000000,1.771787,7.912580,-0.074164
1649933813.014177,3857.000000,1649933813.014048,0.000000,0.000000,1.000000,0.000000,0.000000,0.000000,0.000000,1.760785,7.916311,-0.048800
1649933813.114285,3858.000000,1649933813.114090,0.000000,0.000000,1.000000,0.000000,0.000000,0.000000,0.000000,1.748167,7.919847,-0.009681
1649933813.214535,3859.000000,1649933813.214352,0.000000,0.000000,1.000000,0.000000,0.000000,0.000000,0.000000,1.734064,7.924278,0.040948
1649933813.314293,3860.000000,1649933813.314127,0.000000,0.000000,1.000000,0.000000,0.000000,0.000000,0.000000,1.732776,7.925179,0.054950
1649933813.414882,3861.000000,1649933813.414734,0.000000,0.000000,1.000000,0.000000,0.000000,0.000000,0.000000,1.738152,7.923831,0.039417
1649933813.514161,3862.000000,1649933813.514028,0.000000,0.000000,1.000000,0.000000,0.000000,0.000000,0.000000,1.747630,7.920363,0.005241
1649933813.614364,3863.000000,1649933813.614220,0.000000,0.000000,1.000000,0.000000,0.000000,0.000000,0.000000,1.759865,7.914901,-0.044352
1649933813.714266,3864.000000,1649933813.714161,0.000000,0.000000,1.000000,0.000000,0.000000,0.000000,0.000000,1.765943,7.911933,-0.056244
1649933813.814378,3865.000000,1649933813.814226,0.000000,0.000000,1.000000,0.000000,0.000000,0.000000,0.000000,1.775997,7.906970,-0.088394
1649933813.914376,3866.000000,1649933813.914236,0.000000,0.000000,1.000000,0.000000,0.000000,0.000000,0.000000,1.787602,7.902315,-0.136717
1649933814.014536,3867.000000,1649933814.014393,0.000000,0.000000,1.000000,0.000000,0.000000,0.000000,0.000000,1.791917,7.900145,-0.147262
1649933814.114309,3868.000000,1649933814.114167,0.000000,0.000000,1.000000,0.000000,0.000000,0.000000,0.000000,1.801328,7.897058,-0.178809
1649933814.215334,3869.000000,1649933814.215057,0.000000,0.000000,1.000000,0.000000,0.000000,0.000000,0.000000,1.812262,7.893109,-0.211116
1649933814.314631,3870.000000,1649933814.314469,0.000000,0.000000,1.000000,0.000000,0.000000,0.000000,0.000000,1.818069,7.892717,-0.209437
1649933814.414445,3871.000000,1649933814.414292,0.000000,0.000000,1.000000,0.000000,0.000000,0.000000,0.000000,1.811386,7.895684,-0.188066
1649933814.514383,3872.000000,1649933814.514211,0.000000,0.000000,1.000000,0.000000,0.000000,0.000000,0.000000,1.810372,7.895273,-0.195431
1649933814.614470,3873.000000,1649933814.614316,0.000000,0.000000,1.000000,0.000000,0.000000,0.000000,0.000000,1.811458,7.892756,-0.221504
1649933814.714612,3874.000000,1649933814.714457,0.000000,0.000000,1.000000,0.000000,0.000000,0.000000,0.000000,1.807993,7.892613,-0.214696
1649933814.815003,3875.000000,1649933814.814853,0.000000,0.000000,1.000000,0.000000,0.000000,0.000000,0.000000,1.799151,7.894713,-0.186843
1649933814.914594,3876.000000,1649933814.914419,0.000000,0.000000,1.000000,0.000000,0.000000,0.000000,0.000000,1.791802,7.896744,-0.140468
1649933815.015097,3877.000000,1649933815.014928,0.000000,0.000000,1.000000,0.000000,0.000000,0.000000,0.000000,1.791345,7.896519,-0.129634
1649933815.114499,3878.000000,1649933815.114281,0.000000,0.000000,1.000000,0.000000,0.000000,0.000000,0.000000,1.779963,7.899611,-0.101324
1649933815.214482,3879.000000,1649933815.214353,0.000000,0.000000,1.000000,0.000000,0.000000,0.000000,0.000000,1.759380,7.905828,-0.064360
1649933815.314516,3880.000000,1649933815.314391,0.000000,0.000000,1.000000,0.000000,0.000000,0.000000,0.000000,1.751969,7.908438,-0.060289
1649933815.414746,3881.000000,1649933815.414609,0.000000,0.000000,1.000000,0.000000,0.000000,0.000000,0.000000,1.753762,7.908717,-0.081341
1649933815.514697,3882.000000,1649933815.514515,0.000000,0.000000,1.000000,0.000000,0.000000,0.000000,0.000000,1.760977,7.906794,-0.117600
1649933815.614550,3883.000000,1649933815.614388,0.000000,0.000000,1.000000,0.000000,0.000000,0.000000,0.000000,1.754755,7.908245,-0.126459
1649933815.714380,3884.000000,1649933815.714236,0.000000,0.000000,1.000000,0.000000,0.000000,0.000000,0.000000,1.741297,7.911793,-0.109819
1649933815.814825,3885.000000,1649933815.814500,0.000000,0.000000,1.000000,0.000000,0.000000,0.000000,0.000000,1.725398,7.916223,-0.072773
1649933815.914293,3886.000000,1649933815.914148,0.000000,0.000000,1.000000,0.000000,0.000000,0.000000,0.000000,1.720319,7.918201,-0.056536
1649933816.014358,3887.000000,1649933816.014141,0.000000,0.000000,1.000000,0.000000,0.000000,0.000000,0.000000,1.711305,7.921128,-0.019973
1649933816.114218,3888.000000,1649933816.114097,0.000000,0.000000,1.000000,0.000000,0.000000,0.000000,0.000000,1.701861,7.922764,0.031193
1649933816.214185,3889.000000,1649933816.214042,0.000000,0.000000,1.000000,0.000000,0.000000,0.000000,0.000000,1.682216,7.928628,0.089839
1649933816.314415,3890.000000,1649933816.314268,0.000000,0.000000,1.000000,0.000000,0.000000,0.000000,0.000000,1.656249,7.936295,0.147505
1649933816.414245,3891.000000,1649933816.414113,0.000000,0.000000,1.000000,0.000000,0.000000,0.000000,0.000000,1.646179,7.939102,0.162206
1649933816.514621,3892.000000,1649933816.514461,0.000000,0.000000,1.000000,0.000000,0.000000,0.000000,0.000000,1.645702,7.938400,0.146146
1649933816.614906,3893.000000,1649933816.614387,0.000000,0.000000,1.000000,0.000000,0.000000,0.000000,0.000000,1.646647,7.937659,0.157865
1649933816.714555,3894.000000,1649933816.714450,0.000000,0.000000,1.000000,0.000000,0.000000,0.000000,0.000000,1.641282,7.939069,0.182525
1649933816.814200,3895.000000,1649933816.814063,0.000000,0.000000,1.000000,0.000000,0.000000,0.000000,0.000000,1.644127,7.938149,0.222801
1649933816.914212,3896.000000,1649933816.914065,0.000000,0.000000,1.000000,0.000000,0.000000,0.000000,0.000000,1.655799,7.935036,0.224784
1649933817.014241,3897.000000,1649933817.014108,0.000000,0.000000,1.000000,0.000000,0.000000,0.000000,0.000000,1.663771,7.933131,0.245674
1649933817.114271,3898.000000,1649933817.114143,0.000000,0.000000,1.000000,0.000000,0.000000,0.000000,0.000000,1.662757,7.934560,0.276625
1649933817.214200,3899.000000,1649933817.214067,0.000000,0.000000,1.000000,0.000000,0.000000,0.000000,0.000000,1.670685,7.932596,0.271228
1649933817.314406,3900.000000,1649933817.314245,0.000000,0.000000,1.000000,0.000000,0.000000,0.000000,0.000000,1.687034,7.928523,0.240651
1649933817.414768,3901.000000,1649933817.414527,0.000000,0.000000,1.000000,0.000000,0.000000,0.000000,0.000000,1.708014,7.923562,0.191624
1649933817.514431,3902.000000,1649933817.514220,0.000000,0.000000,1.000000,0.000000,0.000000,0.000000,0.000000,1.713677,7.923229,0.176600
1649933817.614131,3903.000000,1649933817.613991,0.000000,0.000000,1.000000,0.000000,0.000000,0.000000,0.000000,1.710291,7.925093,0.179727
1649933817.714254,3904.000000,1649933817.714105,0.000000,0.000000,1.000000,0.000000,0.000000,0.000000,0.000000,1.714716,7.923576,0.154310
1649933817.814536,3905.000000,1649933817.814306,0.000000,0.000000,1.000000,0.000000,0.000000,0.000000,0.000000,1.727604,7.919958,0.108807
1649933817.914761,3906.000000,1649933817.914539,0.000000,0.000000,1.000000,0.000000,0.000000,0.000000,0.000000,1.744092,7.915456,0.049757
1649933818.014797,3907.000000,1649933818.014592,0.000000,0.000000,1.000000,0.000000,0.000000,0.000000,0.000000,1.748671,7.915583,0.022163
1649933818.114606,3908.000000,1649933818.114477,0.000000,0.000000,1.000000,0.000000,0.000000,0.000000,0.000000,1.758337,7.913544,-0.021166
1649933818.215511,3909.000000,1649933818.215282,0.000000,0.000000,1.000000,0.000000,0.000000,0.000000,0.000000,1.771699,7.909460,-0.074686
1649933818.314556,3910.000000,1649933818.314413,0.000000,0.000000,1.000000,0.000000,0.000000,0.000000,0.000000,1.786340,7.905637,-0.126613
1649933818.414349,3911.000000,1649933818.414230,0.000000,0.000000,1.000000,0.000000,0.000000,0.000000,0.000000,1.796703,7.902069,-0.137417
1649933818.514220,3912.000000,1649933818.514100,0.000000,0.000000,1.000000,0.000000,0.000000,0.000000,0.000000,1.803000,7.899842,-0.120847
1649933818.614352,3913.000000,1649933818.614186,0.000000,0.000000,1.000000,0.000000,0.000000,0.000000,0.000000,1.813079,7.896705,-0.131275
1649933818.714523,3914.000000,1649933818.714304,0.000000,0.000000,1.000000,0.000000,0.000000,0.000000,0.000000,1.828896,7.891625,-0.159541
1649933818.814334,3915.000000,1649933818.814216,0.000000,0.000000,1.000000,0.000000,0.000000,0.000000,0.000000,1.834839,7.889080,-0.154891
1649933818.914178,3916.000000,1649933818.914062,0.000000,0.000000,1.000000,0.000000,0.000000,0.000000,0.000000,1.828172,7.891117,-0.126737
1649933819.015226,3917.000000,1649933819.015093,0.000000,0.000000,1.000000,0.000000,0.000000,0.000000,0.000000,1.828157,7.890933,-0.130121
1649933819.114249,3918.000000,1649933819.114117,0.000000,0.000000,1.000000,0.000000,0.000000,0.000000,0.000000,1.813728,7.896278,-0.120226
1649933819.214157,3919.000000,1649933819.214023,0.000000,0.000000,1.000000,0.000000,0.000000,0.000000,0.000000,1.802086,7.900288,-0.086325
1649933819.314284,3920.000000,1649933819.314161,0.000000,0.000000,1.000000,0.000000,0.000000,0.000000,0.000000,1.798578,7.901929,-0.073805
1649933819.414373,3921.000000,1649933819.414224,0.000000,0.000000,1.000000,0.000000,0.000000,0.000000,0.000000,1.799508,7.901325,-0.073770
1649933819.514462,3922.000000,1649933819.514280,0.000000,0.000000,1.000000,0.000000,0.000000,0.000000,0.000000,1.804639,7.898597,-0.084913
1649933819.614433,3923.000000,1649933819.614270,0.000000,0.000000,1.000000,0.000000,0.000000,0.000000,0.000000,1.810460,7.894960,-0.103544
1649933819.714241,3924.000000,1649933819.714078,0.000000,0.000000,1.000000,0.000000,0.000000,0.000000,0.000000,1.811471,7.893743,-0.092239
1649933819.815166,3925.000000,1649933819.814995,0.000000,0.000000,1.000000,0.000000,0.000000,0.000000,0.000000,1.801395,7.896996,-0.066745
1649933819.914333,3926.000000,1649933819.914174,0.000000,0.000000,1.000000,0.000000,0.000000,0.000000,0.000000,1.789599,7.901193,-0.022845
1649933820.014196,3927.000000,1649933820.014023,0.000000,0.000000,1.000000,0.000000,0.000000,0.000000,0.000000,1.789304,7.901905,-0.012970
1649933820.114248,3928.000000,1649933820.114109,0.000000,0.000000,1.000000,0.000000,0.000000,0.000000,0.000000,1.794434,7.901500,-0.010767
1649933820.214350,3929.000000,1649933820.214212,0.000000,0.000000,1.000000,0.000000,0.000000,0.000000,0.000000,1.802500,7.898949,-0.032059
1649933820.314416,3930.000000,1649933820.314295,0.000000,0.000000,1.000000,0.000000,0.000000,0.000000,0.000000,1.814410,7.894377,-0.070216
1649933820.414402,3931.000000,1649933820.414281,0.000000,0.000000,1.000000,0.000000,0.000000,0.000000,0.000000,1.828830,7.888996,-0.120463
1649933820.514355,3932.000000,1649933820.514196,0.000000,0.000000,1.000000,0.000000,0.000000,0.000000,0.000000,1.835773,7.886137,-0.132230
1649933820.615337,3933.000000,1649933820.614955,0.000000,0.000000,1.000000,0.000000,0.000000,0.000000,0.000000,1.844355,7.883488,-0.157861
1649933820.714654,3934.000000,1649933820.714419,0.000000,0.000000,1.000000,0.000000,0.000000,0.000000,0.000000,1.843565,7.884315,-0.152408
1649933820.814307,3935.000000,1649933820.814120,0.000000,0.000000,1.000000,0.000000,0.000000,0.000000,0.000000,1.839379,7.886240,-0.122786
1649933820.914688,3936.000000,1649933820.914502,0.000000,0.000000,1.000000,0.000000,0.000000,0.000000,0.000000,1.840728,7.885924,-0.123253
1649933821.014596,3937.000000,1649933821.014439,0.000000,0.000000,1.000000,0.000000,0.000000,0.000000,0.000000,1.838591,7.885669,-0.097764
1649933821.114719,3938.000000,1649933821.114581,0.000000,0.000000,1.000000,0.000000,0.000000,0.000000,0.000000,1.829902,7.887649,-0.056283
1649933821.214370,3939.000000,1649933821.214223,0.000000,0.000000,1.000000,0.000000,0.000000,0.000000,0.000000,1.828136,7.887373,-0.051143
1649933821.314338,3940.000000,1649933821.314185,0.000000,0.000000,1.000000,0.000000,0.000000,0.000000,0.000000,1.820935,7.888234,-0.022823
1649933821.415090,3941.000000,1649933821.414541,0.000000,0.000000,1.000000,0.000000,0.000000,0.000000,0.000000,1.810801,7.890166,0.020437
1649933821.514575,3942.000000,1649933821.514457,0.000000,0.000000,1.000000,0.000000,0.000000,0.000000,0.000000,1.789206,7.896373,0.074737
1649933821.614253,3943.000000,1649933821.614135,0.000000,0.000000,1.000000,0.000000,0.000000,0.000000,0.000000,1.767748,7.903332,0.137125
1649933821.714386,3944.000000,1649933821.714178,0.000000,0.000000,1.000000,0.000000,0.000000,0.000000,0.000000,1.753026,7.907707,0.203954
1649933821.814381,3945.000000,1649933821.814262,0.000000,0.000000,1.000000,0.000000,0.000000,0.000000,0.000000,1.738171,7.913990,0.270105
1649933821.914296,3946.000000,1649933821.914151,0.000000,0.000000,1.000000,0.000000,0.000000,0.000000,0.000000,1.718866,7.923148,0.328251
1649933822.014272,3947.000000,1649933822.014154,0.000000,0.000000,1.000000,0.000000,0.000000,0.000000,0.000000,1.706307,7.930637,0.390735
1649933822.114411,3948.000000,1649933822.114241,0.000000,0.000000,1.000000,0.000000,0.000000,0.000000,0.000000,1.705603,7.933260,0.407299
1649933822.214672,3949.000000,1649933822.214511,0.000000,0.000000,1.000000,0.000000,0.000000,0.000000,0.000000,1.712826,7.932367,0.390279
1649933822.314265,3950.000000,1649933822.314112,0.000000,0.000000,1.000000,0.000000,0.000000,0.000000,0.000000,1.714421,7.932522,0.396730
1649933822.414587,3951.000000,1649933822.414381,0.000000,0.000000,1.000000,0.000000,0.000000,0.000000,0.000000,1.715038,7.932580,0.419268
1649933822.514527,3952.000000,1649933822.514370,0.000000,0.000000,1.000000,0.000000,0.000000,0.000000,0.000000,1.710356,7.934734,0.451586
1649933822.614512,3953.000000,1649933822.614326,0.000000,0.000000,1.000000,0.000000,0.000000,0.000000,0.000000,1.717023,7.933416,0.448099
1649933822.714744,3954.000000,1649933822.714598,0.000000,0.000000,1.000000,0.000000,0.000000,0.000000,0.000000,1.730028,7.929912,0.415929
1649933822.814814,3955.000000,1649933822.814590,0.000000,0.000000,1.000000,0.000000,0.000000,0.000000,0.000000,1.744613,7.925450,0.361955
1649933822.914385,3956.000000,1649933822.914210,0.000000,0.000000,1.000000,0.000000,0.000000,0.000000,0.000000,1.760641,7.920097,0.294428
1649933823.015049,3957.000000,1649933823.014871,0.000000,0.000000,1.000000,0.000000,0.000000,0.000000,0.000000,1.780159,7.915013,0.230156
1649933823.115100,3958.000000,1649933823.114959,0.000000,0.000000,1.000000,0.000000,0.000000,0.000000,0.000000,1.787652,7.912381,0.203804
1649933823.215184,3959.000000,1649933823.215070,0.000000,0.000000,1.000000,0.000000,0.000000,0.000000,0.000000,1.797927,7.908804,0.157444
1649933823.314293,3960.000000,1649933823.314168,0.000000,0.000000,1.000000,0.000000,0.000000,0.000000,0.000000,1.808627,7.904346,0.111320
1649933823.414606,3961.000000,1649933823.414448,0.000000,0.000000,1.000000,0.000000,0.000000,0.000000,0.000000,1.813157,7.902339,0.099373
1649933823.514351,3962.000000,1649933823.514215,0.000000,0.000000,1.000000,0.000000,0.000000,0.000000,0.000000,1.820570,7.899382,0.063791
1649933823.614487,3963.000000,1649933823.614353,0.000000,0.000000,1.000000,0.000000,0.000000,0.000000,0.000000,1.831784,7.895536,0.011229
1649933823.714759,3964.000000,1649933823.714645,0.000000,0.000000,1.000000,0.000000,0.000000,0.000000,0.000000,1.845476,7.891948,-0.051900
1649933823.814881,3965.000000,1649933823.814601,0.000000,0.000000,1.000000,0.000000,0.000000,0.000000,0.000000,1.858207,7.887523,-0.121040
1649933823.914314,3966.000000,1649933823.914194,0.000000,0.000000,1.000000,0.000000,0.000000,0.000000,0.000000,1.856917,7.887769,-0.155521
1649933824.014542,3967.000000,1649933824.014312,0.000000,0.000000,1.000000,0.000000,0.000000,0.000000,0.000000,1.857653,7.888065,-0.195411
1649933824.114757,3968.000000,1649933824.114506,0.000000,0.000000,1.000000,0.000000,0.000000,0.000000,0.000000,1.851593,7.889494,-0.197700
1649933824.214868,3969.000000,1649933824.214655,0.000000,0.000000,1.000000,0.000000,0.000000,0.000000,0.000000,1.851132,7.888715,-0.221986
1649933824.314696,3970.000000,1649933824.314513,0.000000,0.000000,1.000000,0.000000,0.000000,0.000000,0.000000,1.847254,7.890211,-0.215749
1649933824.414572,3971.000000,1649933824.414409,0.000000,0.000000,1.000000,0.000000,0.000000,0.000000,0.000000,1.851071,7.889487,-0.232671
1649933824.514394,3972.000000,1649933824.514229,0.000000,0.000000,1.000000,0.000000,0.000000,0.000000,0.000000,1.856709,7.886664,-0.263745
1649933824.615397,3973.000000,1649933824.615144,0.000000,0.000000,1.000000,0.000000,0.000000,0.000000,0.000000,1.860789,7.884045,-0.299498
1649933824.714322,3974.000000,1649933824.714162,0.000000,0.000000,1.000000,0.000000,0.000000,0.000000,0.000000,1.865572,7.880532,-0.346153
1649933824.814335,3975.000000,1649933824.814187,0.000000,0.000000,1.000000,0.000000,0.000000,0.000000,0.000000,1.860111,7.881634,-0.358056
1649933824.914650,3976.000000,1649933824.914413,0.000000,0.000000,1.000000,0.000000,0.000000,0.000000,0.000000,1.861346,7.881642,-0.387418
1649933825.014643,3977.000000,1649933825.014468,0.000000,0.000000,1.000000,0.000000,0.000000,0.000000,0.000000,1.858014,7.883882,-0.381092
1649933825.114597,3978.000000,1649933825.114413,0.000000,0.000000,1.000000,0.000000,0.000000,0.000000,0.000000,1.842749,7.889313,-0.347006
1649933825.214568,3979.000000,1649933825.214400,0.000000,0.000000,1.000000,0.000000,0.000000,0.000000,0.000000,1.824978,7.895562,-0.296038
1649933825.314355,3980.000000,1649933825.314216,0.000000,0.000000,1.000000,0.000000,0.000000,0.000000,0.000000,1.813622,7.899291,-0.270913
1649933825.414795,3981.000000,1649933825.414617,0.000000,0.000000,1.000000,0.000000,0.000000,0.000000,0.000000,1.810548,7.900626,-0.273068
1649933825.514246,3982.000000,1649933825.514126,0.000000,0.000000,1.000000,0.000000,0.000000,0.000000,0.000000,1.812042,7.899693,-0.295770
1649933825.614274,3983.000000,1649933825.614132,0.000000,0.000000,1.000000,0.000000,0.000000,0.000000,0.000000,1.817847,7.897711,-0.331713
1649933825.714357,3984.000000,1649933825.714218,0.000000,0.000000,1.000000,0.000000,0.000000,0.000000,0.000000,1.826618,7.894743,-0.376287
1649933825.814748,3985.000000,1649933825.814489,0.000000,0.000000,1.000000,0.000000,0.000000,0.000000,0.000000,1.827262,7.893033,-0.381504
1649933825.914547,3986.000000,1649933825.914424,0.000000,0.000000,1.000000,0.000000,0.000000,0.000000,0.000000,1.820221,7.894699,-0.357832
1649933826.014598,3987.000000,1649933826.014466,0.000000,0.000000,1.000000,0.000000,0.000000,0.000000,0.000000,1.820110,7.894099,-0.359721
1649933826.114701,3988.000000,1649933826.114488,0.000000,0.000000,1.000000,0.000000,0.000000,0.000000,0.000000,1.813469,7.896810,-0.336959
1649933826.215312,3989.000000,1649933826.215158,0.000000,0.000000,1.000000,0.000000,0.000000,0.000000,0.000000,1.814848,7.897190,-0.338983
1649933826.314515,3990.000000,1649933826.314334,0.000000,0.000000,1.000000,0.000000,0.000000,0.000000,0.000000,1.812901,7.896456,-0.314803
1649933826.414512,3991.000000,1649933826.414336,0.000000,0.000000,1.000000,0.000000,0.000000,0.000000,0.000000,1.799090,7.900123,-0.269562
1649933826.514961,3992.000000,1649933826.514720,0.000000,0.000000,1.000000,0.000000,0.000000,0.000000,0.000000,1.775196,7.905759,-0.217906
1649933826.614603,3993.000000,1649933826.614452,0.000000,0.000000,1.000000,0.000000,0.000000,0.000000,0.000000,1.763645,7.907787,-0.199706
1649933826.714372,3994.000000,1649933826.714250,0.000000,0.000000,1.000000,0.000000,0.000000,0.000000,0.000000,1.746348,7.911853,-0.161227
1649933826.814165,3995.000000,1649933826.814018,0.000000,0.000000,1.000000,0.000000,0.000000,0.000000,0.000000,1.723662,7.916742,-0.113837
1649933826.914342,3996.000000,1649933826.914152,0.000000,0.000000,1.000000,0.000000,0.000000,0.000000,0.000000,1.713387,7.919127,-0.089427
1649933827.015053,3997.000000,1649933827.014719,0.000000,0.000000,1.000000,0.000000,0.000000,0.000000,0.000000,1.701779,7.922410,-0.049205
1649933827.114511,3998.000000,1649933827.114345,0.000000,0.000000,1.000000,0.000000,0.000000,0.000000,0.000000,1.688929,7.925446,0.006130
1649933827.214243,3999.000000,1649933827.214098,0.000000,0.000000,1.000000,0.000000,0.000000,0.000000,0.000000,1.678201,7.929333,0.070239
1649933827.314230,4000.000000,1649933827.314065,0.000000,0.000000,1.000000,0.000000,0.000000,0.000000,0.000000,1.664040,7.934017,0.133799
1649933827.414319,4001.000000,1649933827.414168,0.000000,0.000000,1.000000,0.000000,0.000000,0.000000,0.000000,1.661924,7.935082,0.154000
1649933827.514221,4002.000000,1649933827.514084,0.000000,0.000000,1.000000,0.000000,0.000000,0.000000,0.000000,1.660279,7.935999,0.193058
1649933827.614197,4003.000000,1649933827.614066,0.000000,0.000000,1.000000,0.000000,0.000000,0.000000,0.000000,1.668876,7.934598,0.196136
1649933827.714700,4004.000000,1649933827.714534,0.000000,0.000000,1.000000,0.000000,0.000000,0.000000,0.000000,1.682750,7.931014,0.172766
1649933827.815062,4005.000000,1649933827.814516,0.000000,0.000000,1.000000,0.000000,0.000000,0.000000,0.000000,1.699372,7.926472,0.132139
1649933827.914226,4006.000000,1649933827.914111,0.000000,0.000000,1.000000,0.000000,0.000000,0.000000,0.000000,1.717436,7.922133,0.093587
1649933828.014473,4007.000000,1649933828.014321,0.000000,0.000000,1.000000,0.000000,0.000000,0.000000,0.000000,1.737887,7.916912,0.043399
1649933828.114794,4008.000000,1649933828.114573,0.000000,0.000000,1.000000,0.000000,0.000000,0.000000,0.000000,1.746351,7.915236,0.026494
1649933828.214621,4009.000000,1649933828.214485,0.000000,0.000000,1.000000,0.000000,0.000000,0.000000,0.000000,1.751084,7.914737,0.038344
1649933828.314696,4010.000000,1649933828.314501,0.000000,0.000000,1.000000,0.000000,0.000000,0.000000,0.000000,1.741371,7.917534,0.071322
1649933828.414800,4011.000000,1649933828.414557,0.000000,0.000000,1.000000,0.000000,0.000000,0.000000,0.000000,1.727843,7.922348,0.116465
1649933828.514566,4012.000000,1649933828.514424,0.000000,0.000000,1.000000,0.000000,0.000000,0.000000,0.000000,1.710750,7.927964,0.165957
1649933828.615367,4013.000000,1649933828.615119,0.000000,0.000000,1.000000,0.000000,0.000000,0.000000,0.000000,1.689246,7.935414,0.225195
1649933828.714548,4014.000000,1649933828.714389,0.000000,0.000000,1.000000,0.000000,0.000000,0.000000,0.000000,1.677808,7.940213,0.290475
1649933828.814564,4015.000000,1649933828.814382,0.000000,0.000000,1.000000,0.000000,0.000000,0.000000,0.000000,1.666100,7.944677,0.357430
1649933828.914455,4016.000000,1649933828.914297,0.000000,0.000000,1.000000,0.000000,0.000000,0.000000,0.000000,1.655253,7.948814,0.426706
1649933829.014596,4017.000000,1649933829.014431,0.000000,0.000000,1.000000,0.000000,0.000000,0.000000,0.000000,1.644151,7.953723,0.494895
1649933829.114666,4018.000000,1649933829.114526,0.000000,0.000000,1.000000,0.000000,0.000000,0.000000,0.000000,1.642641,7.954991,0.524856
1649933829.214678,4019.000000,1649933829.214506,0.000000,0.000000,1.000000,0.000000,0.000000,0.000000,0.000000,1.636016,7.957180,0.556824
1649933829.314606,4020.000000,1649933829.314445,0.000000,0.000000,1.000000,0.000000,0.000000,0.000000,0.000000,1.619109,7.963509,0.597149
1649933829.415318,4021.000000,1649933829.415096,0.000000,0.000000,1.000000,0.000000,0.000000,0.000000,0.000000,1.605603,7.969378,0.642235
1649933829.514687,4022.000000,1649933829.514553,0.000000,0.000000,1.000000,0.000000,0.000000,0.000000,0.000000,1.593156,7.973709,0.686206
1649933829.614504,4023.000000,1649933829.614342,0.000000,0.000000,1.000000,0.000000,0.000000,0.000000,0.000000,1.583913,7.976581,0.729071
1649933829.714567,4024.000000,1649933829.714391,0.000000,0.000000,1.000000,0.000000,0.000000,0.000000,0.000000,1.585341,7.974799,0.728905
1649933829.814687,4025.000000,1649933829.814495,0.000000,0.000000,1.000000,0.000000,0.000000,0.000000,0.000000,1.577206,7.976263,0.732645
1649933829.914669,4026.000000,1649933829.914485,0.000000,0.000000,1.000000,0.000000,0.000000,0.000000,0.000000,1.581845,7.974257,0.700652
1649933830.014663,4027.000000,1649933830.014478,0.000000,0.000000,1.000000,0.000000,0.000000,0.000000,0.000000,1.581080,7.974435,0.687683
1649933830.114703,4028.000000,1649933830.114531,0.000000,0.000000,1.000000,0.000000,0.000000,0.000000,0.000000,1.589367,7.971232,0.655931
1649933830.215216,4029.000000,1649933830.215088,0.000000,0.000000,1.000000,0.000000,0.000000,0.000000,0.000000,1.603989,7.964848,0.598981
1649933830.314664,4030.000000,1649933830.314490,0.000000,0.000000,1.000000,0.000000,0.000000,0.000000,0.000000,1.623450,7.957661,0.523618
1649933830.414381,4031.000000,1649933830.414272,0.000000,0.000000,1.000000,0.000000,0.000000,0.000000,0.000000,1.647414,7.949741,0.436381
1649933830.514220,4032.000000,1649933830.514116,0.000000,0.000000,1.000000,0.000000,0.000000,0.000000,0.000000,1.675556,7.941156,0.342750
1649933830.614418,4033.000000,1649933830.614260,0.000000,0.000000,1.000000,0.000000,0.000000,0.000000,0.000000,1.704285,7.931969,0.246379
1649933830.714411,4034.000000,1649933830.714228,0.000000,0.000000,1.000000,0.000000,0.000000,0.000000,0.000000,1.732392,7.923331,0.147544
1649933830.814454,4035.000000,1649933830.814326,0.000000,0.000000,1.000000,0.000000,0.000000,0.000000,0.000000,1.753289,7.916326,0.096507
1649933830.914317,4036.000000,1649933830.914206,0.000000,0.000000,1.000000,0.000000,0.000000,0.000000,0.000000,1.761864,7.913065,0.080128
1649933831.015090,4037.000000,1649933831.014798,0.000000,0.000000,1.000000,0.000000,0.000000,0.000000,0.000000,1.776223,7.907897,0.040570
1649933831.114518,4038.000000,1649933831.114356,0.000000,0.000000,1.000000,0.000000,0.000000,0.000000,0.000000,1.789481,7.902026,-0.014729
1649933831.214222,4039.000000,1649933831.214116,0.000000,0.000000,1.000000,0.000000,0.000000,0.000000,0.000000,1.797312,7.898774,-0.032636
1649933831.314198,4040.000000,1649933831.314100,0.000000,0.000000,1.000000,0.000000,0.000000,0.000000,0.000000,1.802189,7.896912,-0.023522
