__time,/dwm1001/id_458E/pose_kf/header/seq,/dwm1001/id_458E/pose_kf/header/stamp,/dwm1001/id_458E/pose_kf/pose/orientation/pitch_deg,/dwm1001/id_458E/pose_kf/pose/orientation/roll_deg,/dwm1001/id_458E/pose_kf/pose/orientation/w,/dwm1001/id_458E/pose_kf/pose/orientation/x,/dwm1001/id_458E/pose_kf/pose/orientation/y,/dwm1001/id_458E/pose_kf/pose/orientation/yaw_deg,/dwm1001/id_458E/pose_kf/pose/orientation/z,/dwm1001/id_458E/pose_kf/pose/position/x,/dwm1001/id_458E/pose_kf/pose/position/y,/dwm1001/id_458E/pose_kf/pose/position/z
1650625671.007952,4809.000000,1650625671.007783,0.000000,0.000000,1.000000,0.000000,0.000000,0.000000,0.000000,0.655263,23.988222,-1.144708
1650625671.107936,4810.000000,1650625671.107764,0.000000,0.000000,1.000000,0.000000,0.000000,0.000000,0.000000,0.654290,23.987322,-1.147347
1650625671.207911,4811.000000,1650625671.207688,0.000000,0.000000,1.000000,0.000000,0.000000,0.000000,0.000000,0.654486,23.987563,-1.146624
1650625671.307922,4812.000000,1650625671.307643,0.000000,0.000000,1.000000,0.000000,0.000000,0.000000,0.000000,0.653606,23.986703,-1.148322
1650625671.407812,4813.000000,1650625671.407623,0.000000,0.000000,1.000000,0.000000,0.000000,0.000000,0.000000,0.652799,23.988076,-1.153956
1650625671.507566,4814.000000,1650625671.507348,0.000000,0.000000,1.000000,0.000000,0.000000,0.000000,0.000000,0.652062,23.990464,-1.160131
1650625671.607748,4815.000000,1650625671.607446,0.000000,0.000000,1.000000,0.000000,0.000000,0.000000,0.000000,0.649211,23.992715,-1.161979
1650625671.707992,4816.000000,1650625671.707832,0.000000,0.000000,1.000000,0.000000,0.000000,0.000000,0.000000,0.646551,23.993739,-1.162093
1650625671.807645,4817.000000,1650625671.807460,0.000000,0.000000,1.000000,0.000000,0.000000,0.000000,0.000000,0.637534,23.997962,-1.111349
1650625671.907548,4818.000000,1650625671.907392,0.000000,0.000000,1.000000,0.000000,0.000000,0.000000,0.000000,0.631256,24.000835,-1.074790
1650625672.007973,4819.000000,1650625672.007703,0.000000,0.000000,1.000000,0.000000,0.000000,0.000000,0.000000,0.628675,24.001335,-1.051904
1650625672.107861,4820.000000,1650625672.107583,0.000000,0.000000,1.000000,0.000000,0.000000,0.000000,0.000000,0.629591,24.001772,-1.036529
1650625672.207794,4821.000000,1650625672.207510,0.000000,0.000000,1.000000,0.000000,0.000000,0.000000,0.000000,0.630536,24.002151,-1.025157
1650625672.307637,4822.000000,1650625672.307400,0.000000,0.000000,1.000000,0.000000,0.000000,0.000000,0.000000,0.632590,24.002474,-1.013607
1650625672.407625,4823.000000,1650625672.407391,0.000000,0.000000,1.000000,0.000000,0.000000,0.000000,0.000000,0.634594,24.001656,-1.003512
1650625672.508013,4824.000000,1650625672.507790,0.000000,0.000000,1.000000,0.000000,0.000000,0.000000,0.000000,0.627815,24.005216,-0.946434
1650625672.607538,4825.000000,1650625672.607334,0.000000,0.000000,1.000000,0.000000,0.000000,0.000000,0.000000,0.624746,24.007453,-0.908067
1650625672.707908,4826.000000,1650625672.707562,0.000000,0.000000,1.000000,0.000000,0.000000,0.000000,0.000000,0.621919,24.008435,-0.882064
1650625672.807982,4827.000000,1650625672.807714,0.000000,0.000000,1.000000,0.000000,0.000000,0.000000,0.000000,0.621506,24.009319,-0.866343
1650625672.907727,4828.000000,1650625672.907508,0.000000,0.000000,1.000000,0.000000,0.000000,0.000000,0.000000,0.615739,24.012292,-0.812116
1650625673.007724,4829.000000,1650625673.007484,0.000000,0.000000,1.000000,0.000000,0.000000,0.000000,0.000000,0.612557,24.013962,-0.776655
1650625673.107622,4830.000000,1650625673.107427,0.000000,0.000000,1.000000,0.000000,0.000000,0.000000,0.000000,0.612914,24.013308,-0.751180
1650625673.207813,4831.000000,1650625673.207513,0.000000,0.000000,1.000000,0.000000,0.000000,0.000000,0.000000,0.617701,24.012640,-0.744990
1650625673.308222,4832.000000,1650625673.308022,0.000000,0.000000,1.000000,0.000000,0.000000,0.000000,0.000000,0.623386,24.013057,-0.751649
1650625673.407869,4833.000000,1650625673.407653,0.000000,0.000000,1.000000,0.000000,0.000000,0.000000,0.000000,0.626627,24.012318,-0.760125
1650625673.507955,4834.000000,1650625673.507802,0.000000,0.000000,1.000000,0.000000,0.000000,0.000000,0.000000,0.625362,24.012673,-0.778374
1650625673.607780,4835.000000,1650625673.607436,0.000000,0.000000,1.000000,0.000000,0.000000,0.000000,0.000000,0.624202,24.012972,-0.798694
1650625673.707787,4836.000000,1650625673.707592,0.000000,0.000000,1.000000,0.000000,0.000000,0.000000,0.000000,0.625322,24.013220,-0.824179
1650625673.807572,4837.000000,1650625673.807334,0.000000,0.000000,1.000000,0.000000,0.000000,0.000000,0.000000,0.625322,24.012330,-0.847303
1650625673.907660,4838.000000,1650625673.907455,0.000000,0.000000,1.000000,0.000000,0.000000,0.000000,0.000000,0.623171,24.010370,-0.860852
1650625674.007718,4839.000000,1650625674.007520,0.000000,0.000000,1.000000,0.000000,0.000000,0.000000,0.000000,0.623353,24.008494,-0.878891
1650625674.107930,4840.000000,1650625674.107695,0.000000,0.000000,1.000000,0.000000,0.000000,0.000000,0.000000,0.622466,24.005617,-0.893941
1650625674.207797,4841.000000,1650625674.207634,0.000000,0.000000,1.000000,0.000000,0.000000,0.000000,0.000000,0.621660,24.002892,-0.906897
1650625674.307606,4842.000000,1650625674.307391,0.000000,0.000000,1.000000,0.000000,0.000000,0.000000,0.000000,0.617661,24.002501,-0.869428
1650625674.408082,4843.000000,1650625674.407787,0.000000,0.000000,1.000000,0.000000,0.000000,0.000000,0.000000,0.617194,24.002137,-0.847337
1650625674.507933,4844.000000,1650625674.507660,0.000000,0.000000,1.000000,0.000000,0.000000,0.000000,0.000000,0.616796,24.000709,-0.835195
1650625674.607607,4845.000000,1650625674.607398,0.000000,0.000000,1.000000,0.000000,0.000000,0.000000,0.000000,0.619733,23.999369,-0.836647
1650625674.707786,4846.000000,1650625674.707578,0.000000,0.000000,1.000000,0.000000,0.000000,0.000000,0.000000,0.623631,23.999206,-0.850328
1650625674.807783,4847.000000,1650625674.807608,0.000000,0.000000,1.000000,0.000000,0.000000,0.000000,0.000000,0.629513,23.999067,-0.866841
1650625674.907879,4848.000000,1650625674.907629,0.000000,0.000000,1.000000,0.000000,0.000000,0.000000,0.000000,0.635071,23.997858,-0.880394
1650625675.007869,4849.000000,1650625675.007670,0.000000,0.000000,1.000000,0.000000,0.000000,0.000000,0.000000,0.642487,23.996731,-0.897529
1650625675.107517,4850.000000,1650625675.107349,0.000000,0.000000,1.000000,0.000000,0.000000,0.000000,0.000000,0.649456,23.996776,-0.915650
1650625675.207994,4851.000000,1650625675.207781,0.000000,0.000000,1.000000,0.000000,0.000000,0.000000,0.000000,0.655984,23.996835,-0.936295
1650625675.307938,4852.000000,1650625675.307698,0.000000,0.000000,1.000000,0.000000,0.000000,0.000000,0.000000,0.662076,23.995818,-0.956102
1650625675.407588,4853.000000,1650625675.407395,0.000000,0.000000,1.000000,0.000000,0.000000,0.000000,0.000000,0.667743,23.995965,-0.975876
1650625675.507661,4854.000000,1650625675.507472,0.000000,0.000000,1.000000,0.000000,0.000000,0.000000,0.000000,0.670814,23.995032,-0.990750
1650625675.607726,4855.000000,1650625675.607558,0.000000,0.000000,1.000000,0.000000,0.000000,0.000000,0.000000,0.673609,23.994168,-1.005736
1650625675.708124,4856.000000,1650625675.707829,0.000000,0.000000,1.000000,0.000000,0.000000,0.000000,0.000000,0.677229,23.992282,-1.018390
1650625675.808005,4857.000000,1650625675.807719,0.000000,0.000000,1.000000,0.000000,0.000000,0.000000,0.000000,0.681625,23.990525,-1.032015
1650625675.907898,4858.000000,1650625675.907469,0.000000,0.000000,1.000000,0.000000,0.000000,0.000000,0.000000,0.685657,23.989983,-1.044941
1650625676.007929,4859.000000,1650625676.007640,0.000000,0.000000,1.000000,0.000000,0.000000,0.000000,0.000000,0.687159,23.989500,-1.057181
1650625676.107756,4860.000000,1650625676.107444,0.000000,0.000000,1.000000,0.000000,0.000000,0.000000,0.000000,0.687362,23.989074,-1.061490
1650625676.207633,4861.000000,1650625676.207382,0.000000,0.000000,1.000000,0.000000,0.000000,0.000000,0.000000,0.678711,23.991970,-1.018672
1650625676.307864,4862.000000,1650625676.307610,0.000000,0.000000,1.000000,0.000000,0.000000,0.000000,0.000000,0.672625,23.993637,-0.985546
1650625676.407895,4863.000000,1650625676.407626,0.000000,0.000000,1.000000,0.000000,0.000000,0.000000,0.000000,0.664628,23.994135,-0.960975
1650625676.508460,4864.000000,1650625676.508187,0.000000,0.000000,1.000000,0.000000,0.000000,0.000000,0.000000,0.658124,23.994615,-0.948689
1650625676.608279,4865.000000,1650625676.607940,0.000000,0.000000,1.000000,0.000000,0.000000,0.000000,0.000000,0.655234,23.995077,-0.941762
1650625676.708260,4866.000000,1650625676.708047,0.000000,0.000000,1.000000,0.000000,0.000000,0.000000,0.000000,0.651411,23.994429,-0.938377
1650625676.808053,4867.000000,1650625676.807791,0.000000,0.000000,1.000000,0.000000,0.000000,0.000000,0.000000,0.652168,23.991643,-0.937588
1650625676.908222,4868.000000,1650625676.907985,0.000000,0.000000,1.000000,0.000000,0.000000,0.000000,0.000000,0.653982,23.990115,-0.943322
1650625677.008446,4869.000000,1650625677.008245,0.000000,0.000000,1.000000,0.000000,0.000000,0.000000,0.000000,0.654609,23.989780,-0.952080
1650625677.108044,4870.000000,1650625677.107806,0.000000,0.000000,1.000000,0.000000,0.000000,0.000000,0.000000,0.655201,23.990574,-0.967755
1650625677.207958,4871.000000,1650625677.207738,0.000000,0.000000,1.000000,0.000000,0.000000,0.000000,0.000000,0.657940,23.992431,-0.990042
1650625677.307981,4872.000000,1650625677.307801,0.000000,0.000000,1.000000,0.000000,0.000000,0.000000,0.000000,0.659429,23.995286,-1.010572
1650625677.407549,4873.000000,1650625677.407332,0.000000,0.000000,1.000000,0.000000,0.000000,0.000000,0.000000,0.660821,23.995805,-1.022127
1650625677.507914,4874.000000,1650625677.507777,0.000000,0.000000,1.000000,0.000000,0.000000,0.000000,0.000000,0.661030,23.997384,-1.031502
1650625677.607904,4875.000000,1650625677.607638,0.000000,0.000000,1.000000,0.000000,0.000000,0.000000,0.000000,0.659028,23.998870,-1.040387
1650625677.707823,4876.000000,1650625677.707523,0.000000,0.000000,1.000000,0.000000,0.000000,0.000000,0.000000,0.658215,23.999174,-1.049598
1650625677.807813,4877.000000,1650625677.807511,0.000000,0.000000,1.000000,0.000000,0.000000,0.000000,0.000000,0.659620,24.000540,-1.061531
1650625677.907731,4878.000000,1650625677.907426,0.000000,0.000000,1.000000,0.000000,0.000000,0.000000,0.000000,0.659847,24.000726,-1.071222
1650625678.007698,4879.000000,1650625678.007460,0.000000,0.000000,1.000000,0.000000,0.000000,0.000000,0.000000,0.663321,24.000888,-1.084397
1650625678.107943,4880.000000,1650625678.107708,0.000000,0.000000,1.000000,0.000000,0.000000,0.000000,0.000000,0.666584,24.001026,-1.092029
1650625678.207908,4881.000000,1650625678.207732,0.000000,0.000000,1.000000,0.000000,0.000000,0.000000,0.000000,0.667458,24.001143,-1.102400
1650625678.308309,4882.000000,1650625678.308023,0.000000,0.000000,1.000000,0.000000,0.000000,0.000000,0.000000,0.667162,24.000149,-1.108132
1650625678.408132,4883.000000,1650625678.407849,0.000000,0.000000,1.000000,0.000000,0.000000,0.000000,0.000000,0.667944,23.998110,-1.113441
1650625678.507943,4884.000000,1650625678.507714,0.000000,0.000000,1.000000,0.000000,0.000000,0.000000,0.000000,0.670834,23.996179,-1.118345
1650625678.607847,4885.000000,1650625678.607656,0.000000,0.000000,1.000000,0.000000,0.000000,0.000000,0.000000,0.672440,23.995447,-1.124471
1650625678.707941,4886.000000,1650625678.707748,0.000000,0.000000,1.000000,0.000000,0.000000,0.000000,0.000000,0.672827,23.994760,-1.130963
1650625678.808250,4887.000000,1650625678.807953,0.000000,0.000000,1.000000,0.000000,0.000000,0.000000,0.000000,0.666612,23.996300,-1.086189
1650625678.908647,4888.000000,1650625678.908242,0.000000,0.000000,1.000000,0.000000,0.000000,0.000000,0.000000,0.662900,23.995577,-1.051978
1650625679.008164,4889.000000,1650625679.007919,0.000000,0.000000,1.000000,0.000000,0.000000,0.000000,0.000000,0.650662,23.998168,-0.981998
1650625679.107943,4890.000000,1650625679.107699,0.000000,0.000000,1.000000,0.000000,0.000000,0.000000,0.000000,0.640215,23.999525,-0.931038
1650625679.208136,4891.000000,1650625679.207839,0.000000,0.000000,1.000000,0.000000,0.000000,0.000000,0.000000,0.631493,24.000799,-0.898415
1650625679.308262,4892.000000,1650625679.308093,0.000000,0.000000,1.000000,0.000000,0.000000,0.000000,0.000000,0.626606,24.001992,-0.876180
1650625679.408234,4893.000000,1650625679.408029,0.000000,0.000000,1.000000,0.000000,0.000000,0.000000,0.000000,0.625356,24.003105,-0.867171
1650625679.508163,4894.000000,1650625679.507935,0.000000,0.000000,1.000000,0.000000,0.000000,0.000000,0.000000,0.628633,24.003051,-0.865213
1650625679.608174,4895.000000,1650625679.607916,0.000000,0.000000,1.000000,0.000000,0.000000,0.000000,0.000000,0.633994,24.001892,-0.868404
1650625679.708313,4896.000000,1650625679.708110,0.000000,0.000000,1.000000,0.000000,0.000000,0.000000,0.000000,0.635851,24.000785,-0.877327
1650625679.808315,4897.000000,1650625679.808099,0.000000,0.000000,1.000000,0.000000,0.000000,0.000000,0.000000,0.637658,23.998640,-0.884470
1650625679.907988,4898.000000,1650625679.907796,0.000000,0.000000,1.000000,0.000000,0.000000,0.000000,0.000000,0.638318,23.997703,-0.896334
1650625680.008361,4899.000000,1650625680.008050,0.000000,0.000000,1.000000,0.000000,0.000000,0.000000,0.000000,0.640070,23.996819,-0.908671
1650625680.108161,4900.000000,1650625680.107958,0.000000,0.000000,1.000000,0.000000,0.000000,0.000000,0.000000,0.640666,23.994898,-0.917401
1650625680.207979,4901.000000,1650625680.207703,0.000000,0.000000,1.000000,0.000000,0.000000,0.000000,0.000000,0.641256,23.994183,-0.932329
1650625680.308175,4902.000000,1650625680.307971,0.000000,0.000000,1.000000,0.000000,0.000000,0.000000,0.000000,0.641837,23.993520,-0.946723
1650625680.408151,4903.000000,1650625680.407951,0.000000,0.000000,1.000000,0.000000,0.000000,0.000000,0.000000,0.640224,23.992907,-0.957352
1650625680.508657,4904.000000,1650625680.508258,0.000000,0.000000,1.000000,0.000000,0.000000,0.000000,0.000000,0.637633,23.993433,-0.969186
1650625680.607580,4905.000000,1650625680.607426,0.000000,0.000000,1.000000,0.000000,0.000000,0.000000,0.000000,0.636304,23.992853,-0.978930
1650625680.707553,4906.000000,1650625680.707398,0.000000,0.000000,1.000000,0.000000,0.000000,0.000000,0.000000,0.636170,23.992318,-0.989071
1650625680.808044,4907.000000,1650625680.807817,0.000000,0.000000,1.000000,0.000000,0.000000,0.000000,0.000000,0.628443,23.994007,-0.956835
1650625680.907855,4908.000000,1650625680.907695,0.000000,0.000000,1.000000,0.000000,0.000000,0.000000,0.000000,0.623371,23.993432,-0.928341
1650625681.007850,4909.000000,1650625681.007624,0.000000,0.000000,1.000000,0.000000,0.000000,0.000000,0.000000,0.616461,23.992898,-0.910742
1650625681.107869,4910.000000,1650625681.107693,0.000000,0.000000,1.000000,0.000000,0.000000,0.000000,0.000000,0.613284,23.990224,-0.896370
1650625681.207713,4911.000000,1650625681.207496,0.000000,0.000000,1.000000,0.000000,0.000000,0.000000,0.000000,0.613640,23.988804,-0.888339
1650625681.308049,4912.000000,1650625681.307872,0.000000,0.000000,1.000000,0.000000,0.000000,0.000000,0.000000,0.608609,23.989664,-0.835597
1650625681.408033,4913.000000,1650625681.407885,0.000000,0.000000,1.000000,0.000000,0.000000,0.000000,0.000000,0.609398,23.990496,-0.802127
1650625681.507840,4914.000000,1650625681.507582,0.000000,0.000000,1.000000,0.000000,0.000000,0.000000,0.000000,0.610231,23.992387,-0.787199
1650625681.608163,4915.000000,1650625681.607826,0.000000,0.000000,1.000000,0.000000,0.000000,0.000000,0.000000,0.612188,23.993092,-0.782017
1650625681.708148,4916.000000,1650625681.707750,0.000000,0.000000,1.000000,0.000000,0.000000,0.000000,0.000000,0.613016,23.992674,-0.784571
1650625681.808237,4917.000000,1650625681.807930,0.000000,0.000000,1.000000,0.000000,0.000000,0.000000,0.000000,0.616041,23.992284,-0.796148
1650625681.908137,4918.000000,1650625681.907926,0.000000,0.000000,1.000000,0.000000,0.000000,0.000000,0.000000,0.618950,23.990832,-0.805870
1650625682.008179,4919.000000,1650625682.007963,0.000000,0.000000,1.000000,0.000000,0.000000,0.000000,0.000000,0.625009,23.990561,-0.818624
1650625682.108278,4920.000000,1650625682.108061,0.000000,0.000000,1.000000,0.000000,0.000000,0.000000,0.000000,0.630753,23.991406,-0.837483
1650625682.208240,4921.000000,1650625682.207968,0.000000,0.000000,1.000000,0.000000,0.000000,0.000000,0.000000,0.636180,23.992213,-0.854905
1650625682.308298,4922.000000,1650625682.308098,0.000000,0.000000,1.000000,0.000000,0.000000,0.000000,0.000000,0.642382,23.990800,-0.872525
1650625682.408164,4923.000000,1650625682.407880,0.000000,0.000000,1.000000,0.000000,0.000000,0.000000,0.000000,0.649298,23.989473,-0.891109
1650625682.508193,4924.000000,1650625682.507887,0.000000,0.000000,1.000000,0.000000,0.000000,0.000000,0.000000,0.651417,23.989322,-0.909776
1650625682.607975,4925.000000,1650625682.607713,0.000000,0.000000,1.000000,0.000000,0.000000,0.000000,0.000000,0.656630,23.988101,-0.925265
1650625682.708217,4926.000000,1650625682.708010,0.000000,0.000000,1.000000,0.000000,0.000000,0.000000,0.000000,0.660394,23.986962,-0.936065
1650625682.808100,4927.000000,1650625682.807879,0.000000,0.000000,1.000000,0.000000,0.000000,0.000000,0.000000,0.662781,23.985904,-0.951219
1650625682.908481,4928.000000,1650625682.908222,0.000000,0.000000,1.000000,0.000000,0.000000,0.000000,0.000000,0.662773,23.984924,-0.964882
1650625683.008321,4929.000000,1650625683.008101,0.000000,0.000000,1.000000,0.000000,0.000000,0.000000,0.000000,0.655052,23.987291,-0.929515
1650625683.107914,4930.000000,1650625683.107724,0.000000,0.000000,1.000000,0.000000,0.000000,0.000000,0.000000,0.647701,23.988452,-0.913285
1650625683.207961,4931.000000,1650625683.207665,0.000000,0.000000,1.000000,0.000000,0.000000,0.000000,0.000000,0.642906,23.989559,-0.907387
1650625683.308166,4932.000000,1650625683.307945,0.000000,0.000000,1.000000,0.000000,0.000000,0.000000,0.000000,0.639454,23.990612,-0.910607
1650625683.407867,4933.000000,1650625683.407630,0.000000,0.000000,1.000000,0.000000,0.000000,0.000000,0.000000,0.638374,23.990518,-0.914507
1650625683.507748,4934.000000,1650625683.507459,0.000000,0.000000,1.000000,0.000000,0.000000,0.000000,0.000000,0.630817,23.994793,-0.873892
1650625683.607650,4935.000000,1650625683.607423,0.000000,0.000000,1.000000,0.000000,0.000000,0.000000,0.000000,0.626972,23.997733,-0.851916
1650625683.708117,4936.000000,1650625683.707904,0.000000,0.000000,1.000000,0.000000,0.000000,0.000000,0.000000,0.626648,23.998311,-0.841409
1650625683.807882,4937.000000,1650625683.807686,0.000000,0.000000,1.000000,0.000000,0.000000,0.000000,0.000000,0.628561,23.997747,-0.835472
1650625683.907841,4938.000000,1650625683.907578,0.000000,0.000000,1.000000,0.000000,0.000000,0.000000,0.000000,0.632581,23.997196,-0.839571
1650625684.007660,4939.000000,1650625684.007445,0.000000,0.000000,1.000000,0.000000,0.000000,0.000000,0.000000,0.636399,23.996659,-0.849257
1650625684.107995,4940.000000,1650625684.107814,0.000000,0.000000,1.000000,0.000000,0.000000,0.000000,0.000000,0.640011,23.996139,-0.859446
1650625684.207617,4941.000000,1650625684.207419,0.000000,0.000000,1.000000,0.000000,0.000000,0.000000,0.000000,0.641238,23.995637,-0.873322
1650625684.307995,4942.000000,1650625684.307666,0.000000,0.000000,1.000000,0.000000,0.000000,0.000000,0.000000,0.640205,23.995154,-0.885871
1650625684.407864,4943.000000,1650625684.407664,0.000000,0.000000,1.000000,0.000000,0.000000,0.000000,0.000000,0.640311,23.994692,-0.899544
1650625684.508378,4944.000000,1650625684.508190,0.000000,0.000000,1.000000,0.000000,0.000000,0.000000,0.000000,0.642584,23.994250,-0.918303
1650625684.607923,4945.000000,1650625684.607757,0.000000,0.000000,1.000000,0.000000,0.000000,0.000000,0.000000,0.645810,23.994921,-0.937073
1650625684.708277,4946.000000,1650625684.708064,0.000000,0.000000,1.000000,0.000000,0.000000,0.000000,0.000000,0.649926,23.995550,-0.957437
1650625684.808264,4947.000000,1650625684.808049,0.000000,0.000000,1.000000,0.000000,0.000000,0.000000,0.000000,0.647240,23.998319,-0.927686
1650625684.908350,4948.000000,1650625684.908116,0.000000,0.000000,1.000000,0.000000,0.000000,0.000000,0.000000,0.635953,24.003103,-0.862797
1650625685.008071,4949.000000,1650625685.007810,0.000000,0.000000,1.000000,0.000000,0.000000,0.000000,0.000000,0.627473,24.005418,-0.815105
1650625685.108069,4950.000000,1650625685.107850,0.000000,0.000000,1.000000,0.000000,0.000000,0.000000,0.000000,0.623855,24.007571,-0.789640
1650625685.207775,4951.000000,1650625685.207572,0.000000,0.000000,1.000000,0.000000,0.000000,0.000000,0.000000,0.622663,24.007388,-0.776674
1650625685.308396,4952.000000,1650625685.308134,0.000000,0.000000,1.000000,0.000000,0.000000,0.000000,0.000000,0.622673,24.008268,-0.773296
1650625685.408081,4953.000000,1650625685.407909,0.000000,0.000000,1.000000,0.000000,0.000000,0.000000,0.000000,0.623819,24.009063,-0.776699
1650625685.508388,4954.000000,1650625685.508145,0.000000,0.000000,1.000000,0.000000,0.000000,0.000000,0.000000,0.626033,24.008687,-0.789015
1650625685.608351,4955.000000,1650625685.608066,0.000000,0.000000,1.000000,0.000000,0.000000,0.000000,0.000000,0.628156,24.008297,-0.798565
1650625685.708355,4956.000000,1650625685.708151,0.000000,0.000000,1.000000,0.000000,0.000000,0.000000,0.000000,0.628004,24.006807,-0.809472
1650625685.808251,4957.000000,1650625685.807898,0.000000,0.000000,1.000000,0.000000,0.000000,0.000000,0.000000,0.630062,24.005374,-0.825688
1650625685.908252,4958.000000,1650625685.907916,0.000000,0.000000,1.000000,0.000000,0.000000,0.000000,0.000000,0.633111,24.004001,-0.835678
1650625686.008352,4959.000000,1650625686.008123,0.000000,0.000000,1.000000,0.000000,0.000000,0.000000,0.000000,0.635997,24.000508,-0.836447
1650625686.108653,4960.000000,1650625686.108167,0.000000,0.000000,1.000000,0.000000,0.000000,0.000000,0.000000,0.634358,24.000475,-0.791266
1650625686.207913,4961.000000,1650625686.207731,0.000000,0.000000,1.000000,0.000000,0.000000,0.000000,0.000000,0.633898,24.001533,-0.764158
1650625686.308194,4962.000000,1650625686.307893,0.000000,0.000000,1.000000,0.000000,0.000000,0.000000,0.000000,0.633463,24.001439,-0.750403
1650625686.408613,4963.000000,1650625686.408162,0.000000,0.000000,1.000000,0.000000,0.000000,0.000000,0.000000,0.633054,24.001346,-0.742223
1650625686.508451,4964.000000,1650625686.508089,0.000000,0.000000,1.000000,0.000000,0.000000,0.000000,0.000000,0.631580,24.000164,-0.741010
1650625686.608341,4965.000000,1650625686.608038,0.000000,0.000000,1.000000,0.000000,0.000000,0.000000,0.000000,0.631284,23.997957,-0.744867
1650625686.708343,4966.000000,1650625686.708140,0.000000,0.000000,1.000000,0.000000,0.000000,0.000000,0.000000,0.629922,23.996968,-0.754380
1650625686.808386,4967.000000,1650625686.808032,0.000000,0.000000,1.000000,0.000000,0.000000,0.000000,0.000000,0.631917,23.993862,-0.761234
1650625686.908311,4968.000000,1650625686.908097,0.000000,0.000000,1.000000,0.000000,0.000000,0.000000,0.000000,0.635990,23.990945,-0.770357
1650625687.008316,4969.000000,1650625687.007935,0.000000,0.000000,1.000000,0.000000,0.000000,0.000000,0.000000,0.638741,23.988214,-0.771960
1650625687.108254,4970.000000,1650625687.108002,0.000000,0.000000,1.000000,0.000000,0.000000,0.000000,0.000000,0.640237,23.984575,-0.779241
1650625687.208458,4971.000000,1650625687.208089,0.000000,0.000000,1.000000,0.000000,0.000000,0.000000,0.000000,0.642721,23.981179,-0.789537
1650625687.308261,4972.000000,1650625687.307877,0.000000,0.000000,1.000000,0.000000,0.000000,0.000000,0.000000,0.643952,23.980201,-0.803511
1650625687.408410,4973.000000,1650625687.408150,0.000000,0.000000,1.000000,0.000000,0.000000,0.000000,0.000000,0.645087,23.979328,-0.823407
1650625687.508386,4974.000000,1650625687.508084,0.000000,0.000000,1.000000,0.000000,0.000000,0.000000,0.000000,0.645039,23.978554,-0.832824
1650625687.608142,4975.000000,1650625687.607778,0.000000,0.000000,1.000000,0.000000,0.000000,0.000000,0.000000,0.648236,23.977874,-0.848296
1650625687.708376,4976.000000,1650625687.708127,0.000000,0.000000,1.000000,0.000000,0.000000,0.000000,0.000000,0.652311,23.978372,-0.867135
1650625687.807896,4977.000000,1650625687.807544,0.000000,0.000000,1.000000,0.000000,0.000000,0.000000,0.000000,0.653936,23.978888,-0.881110
1650625687.907926,4978.000000,1650625687.907659,0.000000,0.000000,1.000000,0.000000,0.000000,0.000000,0.000000,0.656512,23.978328,-0.896042
1650625688.007672,4979.000000,1650625688.007461,0.000000,0.000000,1.000000,0.000000,0.000000,0.000000,0.000000,0.658892,23.976749,-0.906226
1650625688.107889,4980.000000,1650625688.107713,0.000000,0.000000,1.000000,0.000000,0.000000,0.000000,0.000000,0.661082,23.977481,-0.922323
1650625688.207804,4981.000000,1650625688.207614,0.000000,0.000000,1.000000,0.000000,0.000000,0.000000,0.000000,0.663090,23.977121,-0.935204
1650625688.308241,4982.000000,1650625688.308061,0.000000,0.000000,1.000000,0.000000,0.000000,0.000000,0.000000,0.657289,23.980090,-0.898208
1650625688.407920,4983.000000,1650625688.407728,0.000000,0.000000,1.000000,0.000000,0.000000,0.000000,0.000000,0.652851,23.981833,-0.872285
1650625688.508132,4984.000000,1650625688.507885,0.000000,0.000000,1.000000,0.000000,0.000000,0.000000,0.000000,0.644266,23.984590,-0.814296
1650625688.607993,4985.000000,1650625688.607813,0.000000,0.000000,1.000000,0.000000,0.000000,0.000000,0.000000,0.640511,23.987207,-0.780471
1650625688.708020,4986.000000,1650625688.707850,0.000000,0.000000,1.000000,0.000000,0.000000,0.000000,0.000000,0.640244,23.989682,-0.763442
1650625688.808002,4987.000000,1650625688.807752,0.000000,0.000000,1.000000,0.000000,0.000000,0.000000,0.000000,0.641096,23.992014,-0.756909
1650625688.908011,4988.000000,1650625688.907690,0.000000,0.000000,1.000000,0.000000,0.000000,0.000000,0.000000,0.641910,23.994206,-0.762874
1650625689.007972,4989.000000,1650625689.007682,0.000000,0.000000,1.000000,0.000000,0.000000,0.000000,0.000000,0.642687,23.995168,-0.770335
1650625689.108023,4990.000000,1650625689.107791,0.000000,0.000000,1.000000,0.000000,0.000000,0.000000,0.000000,0.643425,23.994965,-0.775180
1650625689.207936,4991.000000,1650625689.207600,0.000000,0.000000,1.000000,0.000000,0.000000,0.000000,0.000000,0.643034,23.994752,-0.784761
1650625689.308337,4992.000000,1650625689.308164,0.000000,0.000000,1.000000,0.000000,0.000000,0.000000,0.000000,0.640485,23.996714,-0.803705
1650625689.408024,4993.000000,1650625689.407805,0.000000,0.000000,1.000000,0.000000,0.000000,0.000000,0.000000,0.639176,23.998546,-0.825148
1650625689.508334,4994.000000,1650625689.508141,0.000000,0.000000,1.000000,0.000000,0.000000,0.000000,0.000000,0.636861,23.999159,-0.841693
1650625689.608404,4995.000000,1650625689.608174,0.000000,0.000000,1.000000,0.000000,0.000000,0.000000,0.000000,0.635783,23.999711,-0.863188
1650625689.708415,4996.000000,1650625689.708197,0.000000,0.000000,1.000000,0.000000,0.000000,0.000000,0.000000,0.633696,24.000204,-0.880526
1650625689.808368,4997.000000,1650625689.808085,0.000000,0.000000,1.000000,0.000000,0.000000,0.000000,0.000000,0.633931,24.000643,-0.901913
1650625689.908352,4998.000000,1650625689.908049,0.000000,0.000000,1.000000,0.000000,0.000000,0.000000,0.000000,0.634179,24.001029,-0.921508
1650625690.008244,4999.000000,1650625690.007978,0.000000,0.000000,1.000000,0.000000,0.000000,0.000000,0.000000,0.632255,24.000277,-0.938549
1650625690.108380,5000.000000,1650625690.108155,0.000000,0.000000,1.000000,0.000000,0.000000,0.000000,0.000000,0.632645,24.000632,-0.959568
1650625690.207977,5001.000000,1650625690.207752,0.000000,0.000000,1.000000,0.000000,0.000000,0.000000,0.000000,0.635219,24.000945,-0.981150
1650625690.308348,5002.000000,1650625690.308072,0.000000,0.000000,1.000000,0.000000,0.000000,0.000000,0.000000,0.639850,24.002308,-1.005665
1650625690.408334,5003.000000,1650625690.408118,0.000000,0.000000,1.000000,0.000000,0.000000,0.000000,0.000000,0.644228,24.003570,-1.027316
1650625690.508352,5004.000000,1650625690.508077,0.000000,0.000000,1.000000,0.000000,0.000000,0.000000,0.000000,0.647263,24.003646,-1.044580
1650625690.608275,5005.000000,1650625690.608039,0.000000,0.000000,1.000000,0.000000,0.000000,0.000000,0.000000,0.651201,24.002599,-1.060843
1650625690.708220,5006.000000,1650625690.707948,0.000000,0.000000,1.000000,0.000000,0.000000,0.000000,0.000000,0.649439,24.003768,-1.024518
1650625690.808269,5007.000000,1650625690.808039,0.000000,0.000000,1.000000,0.000000,0.000000,0.000000,0.000000,0.646656,24.005940,-1.009574
1650625690.907994,5008.000000,1650625690.907781,0.000000,0.000000,1.000000,0.000000,0.000000,0.000000,0.000000,0.646190,24.006872,-1.004700
1650625691.007531,5009.000000,1650625691.007373,0.000000,0.000000,1.000000,0.000000,0.000000,0.000000,0.000000,0.647916,24.006633,-1.001443
1650625691.108016,5010.000000,1650625691.107810,0.000000,0.000000,1.000000,0.000000,0.000000,0.000000,0.000000,0.650621,24.006377,-1.003784
1650625691.208147,5011.000000,1650625691.207903,0.000000,0.000000,1.000000,0.000000,0.000000,0.000000,0.000000,0.653153,24.005019,-1.002629
1650625691.307986,5012.000000,1650625691.307655,0.000000,0.000000,1.000000,0.000000,0.000000,0.000000,0.000000,0.655514,24.003715,-1.007807
1650625691.407974,5013.000000,1650625691.407763,0.000000,0.000000,1.000000,0.000000,0.000000,0.000000,0.000000,0.658800,24.002466,-1.013416
1650625691.507853,5014.000000,1650625691.507621,0.000000,0.000000,1.000000,0.000000,0.000000,0.000000,0.000000,0.660770,24.002366,-1.025080
1650625691.607966,5015.000000,1650625691.607666,0.000000,0.000000,1.000000,0.000000,0.000000,0.000000,0.000000,0.662584,24.002261,-1.032865
1650625691.708078,5016.000000,1650625691.707805,0.000000,0.000000,1.000000,0.000000,0.000000,0.000000,0.000000,0.665337,24.002154,-1.043374
1650625691.807935,5017.000000,1650625691.807720,0.000000,0.000000,1.000000,0.000000,0.000000,0.000000,0.000000,0.668972,24.000955,-1.052455
1650625691.907984,5018.000000,1650625691.907741,0.000000,0.000000,1.000000,0.000000,0.000000,0.000000,0.000000,0.673434,23.999817,-1.062578
1650625692.007918,5019.000000,1650625692.007694,0.000000,0.000000,1.000000,0.000000,0.000000,0.000000,0.000000,0.677576,23.998742,-1.072886
1650625692.108400,5020.000000,1650625692.108185,0.000000,0.000000,1.000000,0.000000,0.000000,0.000000,0.000000,0.683589,23.997729,-1.082555
1650625692.208371,5021.000000,1650625692.208112,0.000000,0.000000,1.000000,0.000000,0.000000,0.000000,0.000000,0.689175,23.996777,-1.093219
1650625692.308174,5022.000000,1650625692.307871,0.000000,0.000000,1.000000,0.000000,0.000000,0.000000,0.000000,0.694346,23.993706,-1.091119
1650625692.408170,5023.000000,1650625692.407893,0.000000,0.000000,1.000000,0.000000,0.000000,0.000000,0.000000,0.699115,23.989731,-1.091298
1650625692.508265,5024.000000,1650625692.507961,0.000000,0.000000,1.000000,0.000000,0.000000,0.000000,0.000000,0.702404,23.986001,-1.096094
1650625692.608034,5025.000000,1650625692.607840,0.000000,0.000000,1.000000,0.000000,0.000000,0.000000,0.000000,0.705383,23.983606,-1.103708
1650625692.708347,5026.000000,1650625692.707979,0.000000,0.000000,1.000000,0.000000,0.000000,0.000000,0.000000,0.706976,23.981385,-1.105959
1650625692.808331,5027.000000,1650625692.807968,0.000000,0.000000,1.000000,0.000000,0.000000,0.000000,0.000000,0.706170,23.980426,-1.114358
1650625692.908284,5028.000000,1650625692.907963,0.000000,0.000000,1.000000,0.000000,0.000000,0.000000,0.000000,0.706378,23.980659,-1.123813
1650625693.008252,5029.000000,1650625693.008015,0.000000,0.000000,1.000000,0.000000,0.000000,0.000000,0.000000,0.708641,23.979835,-1.133469
1650625693.108310,5030.000000,1650625693.108053,0.000000,0.000000,1.000000,0.000000,0.000000,0.000000,0.000000,0.710665,23.980192,-1.142503
1650625693.208219,5031.000000,1650625693.207901,0.000000,0.000000,1.000000,0.000000,0.000000,0.000000,0.000000,0.712465,23.980572,-1.152549
1650625693.308599,5032.000000,1650625693.308324,0.000000,0.000000,1.000000,0.000000,0.000000,0.000000,0.000000,0.710782,23.982060,-1.163559
1650625693.408344,5033.000000,1650625693.408102,0.000000,0.000000,1.000000,0.000000,0.000000,0.000000,0.000000,0.709089,23.983499,-1.171453
1650625693.508380,5034.000000,1650625693.508064,0.000000,0.000000,1.000000,0.000000,0.000000,0.000000,0.000000,0.707397,23.984885,-1.178773
1650625693.608427,5035.000000,1650625693.608185,0.000000,0.000000,1.000000,0.000000,0.000000,0.000000,0.000000,0.706808,23.987305,-1.188767
1650625693.708249,5036.000000,1650625693.707923,0.000000,0.000000,1.000000,0.000000,0.000000,0.000000,0.000000,0.705086,23.988514,-1.198094
1650625693.808047,5037.000000,1650625693.807739,0.000000,0.000000,1.000000,0.000000,0.000000,0.000000,0.000000,0.703395,23.989663,-1.206778
1650625693.908277,5038.000000,1650625693.907936,0.000000,0.000000,1.000000,0.000000,0.000000,0.000000,0.000000,0.700651,23.988571,-1.210001
1650625694.008309,5039.000000,1650625694.008010,0.000000,0.000000,1.000000,0.000000,0.000000,0.000000,0.000000,0.696922,23.986454,-1.211216
1650625694.108775,5040.000000,1650625694.108406,0.000000,0.000000,1.000000,0.000000,0.000000,0.000000,0.000000,0.695548,23.983374,-1.203254
1650625694.207722,5041.000000,1650625694.207468,0.000000,0.000000,1.000000,0.000000,0.000000,0.000000,0.000000,0.693136,23.980482,-1.191349
1650625694.308030,5042.000000,1650625694.307848,0.000000,0.000000,1.000000,0.000000,0.000000,0.000000,0.000000,0.688661,23.979958,-1.186979
1650625694.407982,5043.000000,1650625694.407756,0.000000,0.000000,1.000000,0.000000,0.000000,0.000000,0.000000,0.685521,23.979491,-1.184212
1650625694.508068,5044.000000,1650625694.507806,0.000000,0.000000,1.000000,0.000000,0.000000,0.000000,0.000000,0.684743,23.981259,-1.190253
1650625694.607948,5045.000000,1650625694.607753,0.000000,0.000000,1.000000,0.000000,0.000000,0.000000,0.000000,0.684020,23.980772,-1.179746
1650625694.707999,5046.000000,1650625694.707809,0.000000,0.000000,1.000000,0.000000,0.000000,0.000000,0.000000,0.681170,23.980333,-1.171123
1650625694.808386,5047.000000,1650625694.808148,0.000000,0.000000,1.000000,0.000000,0.000000,0.000000,0.000000,0.678498,23.977758,-1.149007
1650625694.908392,5048.000000,1650625694.908176,0.000000,0.000000,1.000000,0.000000,0.000000,0.000000,0.000000,0.678181,23.976444,-1.136566
1650625695.008007,5049.000000,1650625695.007765,0.000000,0.000000,1.000000,0.000000,0.000000,0.000000,0.000000,0.674639,23.976322,-1.128596
1650625695.107978,5050.000000,1650625695.107798,0.000000,0.000000,1.000000,0.000000,0.000000,0.000000,0.000000,0.671329,23.975146,-1.115256
1650625695.208130,5051.000000,1650625695.207850,0.000000,0.000000,1.000000,0.000000,0.000000,0.000000,0.000000,0.667154,23.974066,-1.098399
1650625695.308107,5052.000000,1650625695.307834,0.000000,0.000000,1.000000,0.000000,0.000000,0.000000,0.000000,0.664355,23.973079,-1.086261
1650625695.408275,5053.000000,1650625695.408080,0.000000,0.000000,1.000000,0.000000,0.000000,0.000000,0.000000,0.661770,23.972179,-1.076252
1650625695.508003,5054.000000,1650625695.507698,0.000000,0.000000,1.000000,0.000000,0.000000,0.000000,0.000000,0.662664,23.972455,-1.076369
1650625695.608147,5055.000000,1650625695.607893,0.000000,0.000000,1.000000,0.000000,0.000000,0.000000,0.000000,0.663570,23.972747,-1.081360
1650625695.708739,5056.000000,1650625695.708289,0.000000,0.000000,1.000000,0.000000,0.000000,0.000000,0.000000,0.666661,23.971964,-1.084570
1650625695.807944,5057.000000,1650625695.807764,0.000000,0.000000,1.000000,0.000000,0.000000,0.000000,0.000000,0.668535,23.972343,-1.088480
1650625695.908270,5058.000000,1650625695.908105,0.000000,0.000000,1.000000,0.000000,0.000000,0.000000,0.000000,0.668158,23.972730,-1.090637
1650625696.008404,5059.000000,1650625696.008123,0.000000,0.000000,1.000000,0.000000,0.000000,0.000000,0.000000,0.667834,23.973120,-1.095946
1650625696.108362,5060.000000,1650625696.108122,0.000000,0.000000,1.000000,0.000000,0.000000,0.000000,0.000000,0.666469,23.973510,-1.093785
1650625696.208344,5061.000000,1650625696.208146,0.000000,0.000000,1.000000,0.000000,0.000000,0.000000,0.000000,0.665212,23.973900,-1.090912
1650625696.308234,5062.000000,1650625696.308061,0.000000,0.000000,1.000000,0.000000,0.000000,0.000000,0.000000,0.667330,23.975375,-1.093810
1650625696.407796,5063.000000,1650625696.407596,0.000000,0.000000,1.000000,0.000000,0.000000,0.000000,0.000000,0.670451,23.976781,-1.102243
1650625696.508423,5064.000000,1650625696.508189,0.000000,0.000000,1.000000,0.000000,0.000000,0.000000,0.000000,0.671236,23.979208,-1.110327
1650625696.608372,5065.000000,1650625696.608203,0.000000,0.000000,1.000000,0.000000,0.000000,0.000000,0.000000,0.670901,23.981501,-1.117257
1650625696.708072,5066.000000,1650625696.707763,0.000000,0.000000,1.000000,0.000000,0.000000,0.000000,0.000000,0.670596,23.983661,-1.123068
1650625696.808048,5067.000000,1650625696.807749,0.000000,0.000000,1.000000,0.000000,0.000000,0.000000,0.000000,0.671411,23.984597,-1.126184
1650625696.907937,5068.000000,1650625696.907659,0.000000,0.000000,1.000000,0.000000,0.000000,0.000000,0.000000,0.671101,23.984375,-1.125097
1650625697.008055,5069.000000,1650625697.007874,0.000000,0.000000,1.000000,0.000000,0.000000,0.000000,0.000000,0.671908,23.984149,-1.124013
1650625697.107961,5070.000000,1650625697.107741,0.000000,0.000000,1.000000,0.000000,0.000000,0.000000,0.000000,0.673769,23.983922,-1.126160
1650625697.207931,5071.000000,1650625697.207665,0.000000,0.000000,1.000000,0.000000,0.000000,0.000000,0.000000,0.675529,23.983695,-1.125762
1650625697.308020,5072.000000,1650625697.307845,0.000000,0.000000,1.000000,0.000000,0.000000,0.000000,0.000000,0.677188,23.983470,-1.126956
1650625697.408022,5073.000000,1650625697.407847,0.000000,0.000000,1.000000,0.000000,0.000000,0.000000,0.000000,0.677656,23.984338,-1.132096
1650625697.508063,5074.000000,1650625697.507883,0.000000,0.000000,1.000000,0.000000,0.000000,0.000000,0.000000,0.678088,23.984056,-1.131338
1650625697.607960,5075.000000,1650625697.607786,0.000000,0.000000,1.000000,0.000000,0.000000,0.000000,0.000000,0.678485,23.984870,-1.132183
1650625697.707975,5076.000000,1650625697.707781,0.000000,0.000000,1.000000,0.000000,0.000000,0.000000,0.000000,0.670125,23.987808,-1.089403
1650625697.807867,5077.000000,1650625697.807598,0.000000,0.000000,1.000000,0.000000,0.000000,0.000000,0.000000,0.666597,23.989475,-1.062090
1650625697.907985,5078.000000,1650625697.907766,0.000000,0.000000,1.000000,0.000000,0.000000,0.000000,0.000000,0.663286,23.989936,-1.037568
1650625698.007928,5079.000000,1650625698.007707,0.000000,0.000000,1.000000,0.000000,0.000000,0.000000,0.000000,0.662371,23.989257,-1.020603
1650625698.108105,5080.000000,1650625698.107882,0.000000,0.000000,1.000000,0.000000,0.000000,0.000000,0.000000,0.662631,23.990775,-1.018171
1650625698.208016,5081.000000,1650625698.207805,0.000000,0.000000,1.000000,0.000000,0.000000,0.000000,0.000000,0.665089,23.992185,-1.021620
1650625698.308161,5082.000000,1650625698.307988,0.000000,0.000000,1.000000,0.000000,0.000000,0.000000,0.000000,0.668527,23.993490,-1.029089
1650625698.408079,5083.000000,1650625698.407850,0.000000,0.000000,1.000000,0.000000,0.000000,0.000000,0.000000,0.660884,23.997966,-0.986366
1650625698.508068,5084.000000,1650625698.507779,0.000000,0.000000,1.000000,0.000000,0.000000,0.000000,0.000000,0.656962,24.001064,-0.963283
1650625698.608068,5085.000000,1650625698.607765,0.000000,0.000000,1.000000,0.000000,0.000000,0.000000,0.000000,0.654389,24.002853,-0.945370
1650625698.707978,5086.000000,1650625698.707697,0.000000,0.000000,1.000000,0.000000,0.000000,0.000000,0.000000,0.645463,24.006673,-0.885668
1650625698.808075,5087.000000,1650625698.807784,0.000000,0.000000,1.000000,0.000000,0.000000,0.000000,0.000000,0.640370,24.010224,-0.849661
1650625698.908144,5088.000000,1650625698.907843,0.000000,0.000000,1.000000,0.000000,0.000000,0.000000,0.000000,0.635642,24.011331,-0.819506
1650625699.008002,5089.000000,1650625699.007782,0.000000,0.000000,1.000000,0.000000,0.000000,0.000000,0.000000,0.633448,24.010128,-0.793390
1650625699.107756,5090.000000,1650625699.107550,0.000000,0.000000,1.000000,0.000000,0.000000,0.000000,0.000000,0.632562,24.008929,-0.770372
1650625699.207972,5091.000000,1650625699.207666,0.000000,0.000000,1.000000,0.000000,0.000000,0.000000,0.000000,0.629639,24.007742,-0.760832
1650625699.308017,5092.000000,1650625699.307803,0.000000,0.000000,1.000000,0.000000,0.000000,0.000000,0.000000,0.628064,24.005483,-0.758577
1650625699.407932,5093.000000,1650625699.407678,0.000000,0.000000,1.000000,0.000000,0.000000,0.000000,0.000000,0.627763,24.003309,-0.758460
1650625699.508060,5094.000000,1650625699.507884,0.000000,0.000000,1.000000,0.000000,0.000000,0.000000,0.000000,0.628663,24.000136,-0.766024
1650625699.608027,5095.000000,1650625699.607685,0.000000,0.000000,1.000000,0.000000,0.000000,0.000000,0.000000,0.626328,23.997118,-0.768023
1650625699.708151,5096.000000,1650625699.707933,0.000000,0.000000,1.000000,0.000000,0.000000,0.000000,0.000000,0.627478,23.992079,-0.766277
1650625699.807918,5097.000000,1650625699.807717,0.000000,0.000000,1.000000,0.000000,0.000000,0.000000,0.000000,0.629735,23.987324,-0.764148
1650625699.907986,5098.000000,1650625699.907841,0.000000,0.000000,1.000000,0.000000,0.000000,0.000000,0.000000,0.630847,23.983943,-0.771320
1650625700.008342,5099.000000,1650625700.008137,0.000000,0.000000,1.000000,0.000000,0.000000,0.000000,0.000000,0.636319,23.980780,-0.784970
1650625700.108366,5100.000000,1650625700.108161,0.000000,0.000000,1.000000,0.000000,0.000000,0.000000,0.000000,0.641532,23.977831,-0.796738
1650625700.208317,5101.000000,1650625700.208033,0.000000,0.000000,1.000000,0.000000,0.000000,0.000000,0.000000,0.645391,23.976182,-0.812311
1650625700.308281,5102.000000,1650625700.308037,0.000000,0.000000,1.000000,0.000000,0.000000,0.000000,0.000000,0.649048,23.975764,-0.831501
1650625700.408318,5103.000000,1650625700.408018,0.000000,0.000000,1.000000,0.000000,0.000000,0.000000,0.000000,0.652500,23.975419,-0.852506
1650625700.508440,5104.000000,1650625700.508179,0.000000,0.000000,1.000000,0.000000,0.000000,0.000000,0.000000,0.647026,23.978411,-0.823599
1650625700.608104,5105.000000,1650625700.607794,0.000000,0.000000,1.000000,0.000000,0.000000,0.000000,0.000000,0.644034,23.980185,-0.806511
1650625700.708262,5106.000000,1650625700.708024,0.000000,0.000000,1.000000,0.000000,0.000000,0.000000,0.000000,0.642307,23.981891,-0.797563
1650625700.808300,5107.000000,1650625700.808046,0.000000,0.000000,1.000000,0.000000,0.000000,0.000000,0.000000,0.641781,23.983524,-0.799659
1650625700.908318,5108.000000,1650625700.907994,0.000000,0.000000,1.000000,0.000000,0.000000,0.000000,0.000000,0.642392,23.985083,-0.809116
1650625701.008306,5109.000000,1650625701.008090,0.000000,0.000000,1.000000,0.000000,0.000000,0.000000,0.000000,0.644075,23.986566,-0.821582
1650625701.108315,5110.000000,1650625701.108092,0.000000,0.000000,1.000000,0.000000,0.000000,0.000000,0.000000,0.645674,23.987972,-0.836101
1650625701.208326,5111.000000,1650625701.208113,0.000000,0.000000,1.000000,0.000000,0.000000,0.000000,0.000000,0.645008,23.987119,-0.844495
1650625701.308444,5112.000000,1650625701.308212,0.000000,0.000000,1.000000,0.000000,0.000000,0.000000,0.000000,0.644384,23.987405,-0.851024
1650625701.407977,5113.000000,1650625701.407770,0.000000,0.000000,1.000000,0.000000,0.000000,0.000000,0.000000,0.642709,23.987676,-0.863008
1650625701.508255,5114.000000,1650625701.508071,0.000000,0.000000,1.000000,0.000000,0.000000,0.000000,0.000000,0.643318,23.989023,-0.881009
1650625701.608383,5115.000000,1650625701.608187,0.000000,0.000000,1.000000,0.000000,0.000000,0.000000,0.000000,0.643902,23.990291,-0.898301
1650625701.708389,5116.000000,1650625701.708159,0.000000,0.000000,1.000000,0.000000,0.000000,0.000000,0.000000,0.645552,23.991483,-0.914075
1650625701.808290,5117.000000,1650625701.808030,0.000000,0.000000,1.000000,0.000000,0.000000,0.000000,0.000000,0.647113,23.991508,-0.927561
1650625701.908245,5118.000000,1650625701.908024,0.000000,0.000000,1.000000,0.000000,0.000000,0.000000,0.000000,0.647494,23.993701,-0.947700
1650625702.008343,5119.000000,1650625702.008105,0.000000,0.000000,1.000000,0.000000,0.000000,0.000000,0.000000,0.650030,23.996848,-0.970967
1650625702.108441,5120.000000,1650625702.108259,0.000000,0.000000,1.000000,0.000000,0.000000,0.000000,0.000000,0.649144,23.998708,-0.989943
1650625702.208262,5121.000000,1650625702.207985,0.000000,0.000000,1.000000,0.000000,0.000000,0.000000,0.000000,0.649387,23.999345,-1.006385
1650625702.308421,5122.000000,1650625702.308189,0.000000,0.000000,1.000000,0.000000,0.000000,0.000000,0.000000,0.650699,23.999917,-1.021988
1650625702.408450,5123.000000,1650625702.408161,0.000000,0.000000,1.000000,0.000000,0.000000,0.000000,0.000000,0.654106,24.001517,-1.042412
1650625702.508419,5124.000000,1650625702.508033,0.000000,0.000000,1.000000,0.000000,0.000000,0.000000,0.000000,0.655124,24.001906,-1.063404
1650625702.608352,5125.000000,1650625702.608102,0.000000,0.000000,1.000000,0.000000,0.000000,0.000000,0.000000,0.657153,24.001150,-1.084108
1650625702.708266,5126.000000,1650625702.708089,0.000000,0.000000,1.000000,0.000000,0.000000,0.000000,0.000000,0.660131,24.001497,-1.103705
1650625702.808236,5127.000000,1650625702.808003,0.000000,0.000000,1.000000,0.000000,0.000000,0.000000,0.000000,0.662910,24.001797,-1.122217
1650625702.908352,5128.000000,1650625702.908170,0.000000,0.000000,1.000000,0.000000,0.000000,0.000000,0.000000,0.666583,24.000962,-1.137251
1650625703.007964,5129.000000,1650625703.007752,0.000000,0.000000,1.000000,0.000000,0.000000,0.000000,0.000000,0.668913,24.000149,-1.153771
1650625703.108336,5130.000000,1650625703.108081,0.000000,0.000000,1.000000,0.000000,0.000000,0.000000,0.000000,0.668878,24.001542,-1.167673
1650625703.208232,5131.000000,1650625703.208001,0.000000,0.000000,1.000000,0.000000,0.000000,0.000000,0.000000,0.667700,24.001746,-1.179052
1650625703.308697,5132.000000,1650625703.308311,0.000000,0.000000,1.000000,0.000000,0.000000,0.000000,0.000000,0.667630,24.001916,-1.185586
1650625703.408238,5133.000000,1650625703.407975,0.000000,0.000000,1.000000,0.000000,0.000000,0.000000,0.000000,0.669700,24.000966,-1.186667
1650625703.508336,5134.000000,1650625703.508063,0.000000,0.000000,1.000000,0.000000,0.000000,0.000000,0.000000,0.670519,24.001140,-1.188174
1650625703.608308,5135.000000,1650625703.608055,0.000000,0.000000,1.000000,0.000000,0.000000,0.000000,0.000000,0.669065,24.001288,-1.188488
1650625703.708600,5136.000000,1650625703.708304,0.000000,0.000000,1.000000,0.000000,0.000000,0.000000,0.000000,0.668740,24.001413,-1.194122
1650625703.807994,5137.000000,1650625703.807806,0.000000,0.000000,1.000000,0.000000,0.000000,0.000000,0.000000,0.670576,23.999333,-1.199220
1650625703.908082,5138.000000,1650625703.907862,0.000000,0.000000,1.000000,0.000000,0.000000,0.000000,0.000000,0.671180,23.997359,-1.201388
1650625704.008338,5139.000000,1650625704.008025,0.000000,0.000000,1.000000,0.000000,0.000000,0.000000,0.000000,0.672802,23.997672,-1.212851
1650625704.108378,5140.000000,1650625704.108160,0.000000,0.000000,1.000000,0.000000,0.000000,0.000000,0.000000,0.675382,23.996875,-1.221936
1650625704.208274,5141.000000,1650625704.208062,0.000000,0.000000,1.000000,0.000000,0.000000,0.000000,0.000000,0.677773,23.995031,-1.223898
1650625704.308289,5142.000000,1650625704.308045,0.000000,0.000000,1.000000,0.000000,0.000000,0.000000,0.000000,0.679981,23.993294,-1.224679
1650625704.408317,5143.000000,1650625704.408067,0.000000,0.000000,1.000000,0.000000,0.000000,0.000000,0.000000,0.679830,23.991662,-1.219499
1650625704.508425,5144.000000,1650625704.508242,0.000000,0.000000,1.000000,0.000000,0.000000,0.000000,0.000000,0.677452,23.991225,-1.212650
1650625704.608017,5145.000000,1650625704.607741,0.000000,0.000000,1.000000,0.000000,0.000000,0.000000,0.000000,0.670800,23.994100,-1.155836
1650625704.708288,5146.000000,1650625704.708123,0.000000,0.000000,1.000000,0.000000,0.000000,0.000000,0.000000,0.666671,23.994643,-1.106016
1650625704.808336,5147.000000,1650625704.808093,0.000000,0.000000,1.000000,0.000000,0.000000,0.000000,0.000000,0.663852,23.996251,-1.075095
1650625704.908401,5148.000000,1650625704.908119,0.000000,0.000000,1.000000,0.000000,0.000000,0.000000,0.000000,0.663371,23.997770,-1.059140
1650625705.008342,5149.000000,1650625705.008097,0.000000,0.000000,1.000000,0.000000,0.000000,0.000000,0.000000,0.664012,23.998110,-1.047896
1650625705.108346,5150.000000,1650625705.108096,0.000000,0.000000,1.000000,0.000000,0.000000,0.000000,0.000000,0.660259,24.000606,-0.991998
1650625705.208242,5151.000000,1650625705.207965,0.000000,0.000000,1.000000,0.000000,0.000000,0.000000,0.000000,0.658906,24.001861,-0.955435
1650625705.308533,5152.000000,1650625705.308262,0.000000,0.000000,1.000000,0.000000,0.000000,0.000000,0.000000,0.655463,24.003031,-0.930225
1650625705.408055,5153.000000,1650625705.407779,0.000000,0.000000,1.000000,0.000000,0.000000,0.000000,0.000000,0.655507,24.003026,-0.913526
1650625705.508313,5154.000000,1650625705.508055,0.000000,0.000000,1.000000,0.000000,0.000000,0.000000,0.000000,0.656664,24.003003,-0.907432
1650625705.608492,5155.000000,1650625705.608217,0.000000,0.000000,1.000000,0.000000,0.000000,0.000000,0.000000,0.655599,24.001873,-0.894581
1650625705.708431,5156.000000,1650625705.708052,0.000000,0.000000,1.000000,0.000000,0.000000,0.000000,0.000000,0.655704,24.000792,-0.886545
1650625705.808376,5157.000000,1650625705.807969,0.000000,0.000000,1.000000,0.000000,0.000000,0.000000,0.000000,0.653645,23.998670,-0.881521
1650625705.908445,5158.000000,1650625705.908028,0.000000,0.000000,1.000000,0.000000,0.000000,0.000000,0.000000,0.651724,23.997753,-0.881803
1650625706.008466,5159.000000,1650625706.008081,0.000000,0.000000,1.000000,0.000000,0.000000,0.000000,0.000000,0.651029,23.996887,-0.887973
1650625706.108678,5160.000000,1650625706.108352,0.000000,0.000000,1.000000,0.000000,0.000000,0.000000,0.000000,0.652585,23.996072,-0.894933
1650625706.208306,5161.000000,1650625706.208111,0.000000,0.000000,1.000000,0.000000,0.000000,0.000000,0.000000,0.656261,23.994217,-0.901017
1650625706.308315,5162.000000,1650625706.308085,0.000000,0.000000,1.000000,0.000000,0.000000,0.000000,0.000000,0.660839,23.992475,-0.910273
1650625706.408373,5163.000000,1650625706.408034,0.000000,0.000000,1.000000,0.000000,0.000000,0.000000,0.000000,0.662983,23.993025,-0.920937
1650625706.508400,5164.000000,1650625706.508192,0.000000,0.000000,1.000000,0.000000,0.000000,0.000000,0.000000,0.666091,23.993559,-0.931315
1650625706.608294,5165.000000,1650625706.608029,0.000000,0.000000,1.000000,0.000000,0.000000,0.000000,0.000000,0.663559,23.991895,-0.938974
1650625706.708332,5166.000000,1650625706.708030,0.000000,0.000000,1.000000,0.000000,0.000000,0.000000,0.000000,0.643708,23.991427,-0.956103
1650625706.808409,5167.000000,1650625706.808165,0.000000,0.000000,1.000000,0.000000,0.000000,0.000000,0.000000,0.627173,23.991002,-0.972610
1650625706.908447,5168.000000,1650625706.908210,0.000000,0.000000,1.000000,0.000000,0.000000,0.000000,0.000000,0.617092,23.990617,-0.984456
1650625707.008407,5169.000000,1650625707.008117,0.000000,0.000000,1.000000,0.000000,0.000000,0.000000,0.000000,0.610959,23.989179,-0.992615
1650625707.108404,5170.000000,1650625707.108134,0.000000,0.000000,1.000000,0.000000,0.000000,0.000000,0.000000,0.604210,23.990021,-1.005285
1650625707.208417,5171.000000,1650625707.208210,0.000000,0.000000,1.000000,0.000000,0.000000,0.000000,0.000000,0.596891,23.988654,-1.016616
1650625707.308485,5172.000000,1650625707.307975,0.000000,0.000000,1.000000,0.000000,0.000000,0.000000,0.000000,0.590138,23.988471,-1.029066
1650625707.408429,5173.000000,1650625707.408138,0.000000,0.000000,1.000000,0.000000,0.000000,0.000000,0.000000,0.582842,23.988318,-1.044181
1650625707.508348,5174.000000,1650625707.508113,0.000000,0.000000,1.000000,0.000000,0.000000,0.000000,0.000000,0.576134,23.986011,-1.044895
1650625707.608373,5175.000000,1650625707.608115,0.000000,0.000000,1.000000,0.000000,0.000000,0.000000,0.000000,0.569993,23.983856,-1.053566
1650625707.708210,5176.000000,1650625707.707879,0.000000,0.000000,1.000000,0.000000,0.000000,0.000000,0.000000,0.566577,23.981848,-1.055345
1650625707.807864,5177.000000,1650625707.807640,0.000000,0.000000,1.000000,0.000000,0.000000,0.000000,0.000000,0.572278,23.979984,-1.055350
1650625707.908193,5178.000000,1650625707.907906,0.000000,0.000000,1.000000,0.000000,0.000000,0.000000,0.000000,0.577846,23.977171,-1.054461
1650625708.008075,5179.000000,1650625708.007763,0.000000,0.000000,1.000000,0.000000,0.000000,0.000000,0.000000,0.573448,23.980008,-1.008367
1650625708.108112,5180.000000,1650625708.107858,0.000000,0.000000,1.000000,0.000000,0.000000,0.000000,0.000000,0.574896,23.980544,-0.973001
1650625708.207964,5181.000000,1650625708.207651,0.000000,0.000000,1.000000,0.000000,0.000000,0.000000,0.000000,0.580769,23.981080,-0.948799
1650625708.308193,5182.000000,1650625708.307889,0.000000,0.000000,1.000000,0.000000,0.000000,0.000000,0.000000,0.586438,23.981615,-0.936155
1650625708.407896,5183.000000,1650625708.407558,0.000000,0.000000,1.000000,0.000000,0.000000,0.000000,0.000000,0.590798,23.982144,-0.928976
1650625708.508827,5184.000000,1650625708.508468,0.000000,0.000000,1.000000,0.000000,0.000000,0.000000,0.000000,0.597173,23.981574,-0.927855
1650625708.608262,5185.000000,1650625708.608033,0.000000,0.000000,1.000000,0.000000,0.000000,0.000000,0.000000,0.597796,23.984328,-0.880932
1650625708.708114,5186.000000,1650625708.707900,0.000000,0.000000,1.000000,0.000000,0.000000,0.000000,0.000000,0.598428,23.986943,-0.853030
1650625708.808428,5187.000000,1650625708.807986,0.000000,0.000000,1.000000,0.000000,0.000000,0.000000,0.000000,0.600154,23.987237,-0.828100
1650625708.908260,5188.000000,1650625708.907903,0.000000,0.000000,1.000000,0.000000,0.000000,0.000000,0.000000,0.596365,23.990787,-0.762505
1650625709.008287,5189.000000,1650625709.008051,0.000000,0.000000,1.000000,0.000000,0.000000,0.000000,0.000000,0.595004,23.993044,-0.720888
1650625709.108278,5190.000000,1650625709.108000,0.000000,0.000000,1.000000,0.000000,0.000000,0.000000,0.000000,0.597031,23.994071,-0.694273
1650625709.208284,5191.000000,1650625709.208035,0.000000,0.000000,1.000000,0.000000,0.000000,0.000000,0.000000,0.584807,23.993933,-0.685309
1650625709.307952,5192.000000,1650625709.307740,0.000000,0.000000,1.000000,0.000000,0.000000,0.000000,0.000000,0.577680,23.993786,-0.682797
1650625709.407944,5193.000000,1650625709.407792,0.000000,0.000000,1.000000,0.000000,0.000000,0.000000,0.000000,0.574302,23.992540,-0.680817
1650625709.507976,5194.000000,1650625709.507818,0.000000,0.000000,1.000000,0.000000,0.000000,0.000000,0.000000,0.567931,23.994622,-0.637397
1650625709.608441,5195.000000,1650625709.608248,0.000000,0.000000,1.000000,0.000000,0.000000,0.000000,0.000000,0.564197,23.996574,-0.613135
1650625709.708337,5196.000000,1650625709.707979,0.000000,0.000000,1.000000,0.000000,0.000000,0.000000,0.000000,0.565142,23.997308,-0.600022
1650625709.808320,5197.000000,1650625709.807993,0.000000,0.000000,1.000000,0.000000,0.000000,0.000000,0.000000,0.567231,23.996888,-0.592771
1650625709.908347,5198.000000,1650625709.908014,0.000000,0.000000,1.000000,0.000000,0.000000,0.000000,0.000000,0.571479,23.995379,-0.589525
1650625710.008359,5199.000000,1650625710.008087,0.000000,0.000000,1.000000,0.000000,0.000000,0.000000,0.000000,0.575569,23.995029,-0.598977
1650625710.108360,5200.000000,1650625710.108113,0.000000,0.000000,1.000000,0.000000,0.000000,0.000000,0.000000,0.581673,23.994686,-0.616550
1650625710.207995,5201.000000,1650625710.207797,0.000000,0.000000,1.000000,0.000000,0.000000,0.000000,0.000000,0.588570,23.995441,-0.643479
1650625710.308416,5202.000000,1650625710.308148,0.000000,0.000000,1.000000,0.000000,0.000000,0.000000,0.000000,0.598372,23.995052,-0.668842
1650625710.408426,5203.000000,1650625710.408190,0.000000,0.000000,1.000000,0.000000,0.000000,0.000000,0.000000,0.605438,23.993583,-0.689419
1650625710.508502,5204.000000,1650625710.508239,0.000000,0.000000,1.000000,0.000000,0.000000,0.000000,0.000000,0.614258,23.991098,-0.710196
1650625710.608295,5205.000000,1650625710.608123,0.000000,0.000000,1.000000,0.000000,0.000000,0.000000,0.000000,0.621439,23.989842,-0.730314
1650625710.708298,5206.000000,1650625710.708101,0.000000,0.000000,1.000000,0.000000,0.000000,0.000000,0.000000,0.629233,23.987571,-0.749758
1650625710.808333,5207.000000,1650625710.808048,0.000000,0.000000,1.000000,0.000000,0.000000,0.000000,0.000000,0.637588,23.984346,-0.764483
1650625710.908736,5208.000000,1650625710.908335,0.000000,0.000000,1.000000,0.000000,0.000000,0.000000,0.000000,0.645361,23.982410,-0.778684
1650625711.008438,5209.000000,1650625711.008041,0.000000,0.000000,1.000000,0.000000,0.000000,0.000000,0.000000,0.652567,23.980607,-0.796386
1650625711.108287,5210.000000,1650625711.108058,0.000000,0.000000,1.000000,0.000000,0.000000,0.000000,0.000000,0.660314,23.980025,-0.819837
1650625711.208367,5211.000000,1650625711.208156,0.000000,0.000000,1.000000,0.000000,0.000000,0.000000,0.000000,0.666375,23.980596,-0.840699
1650625711.308407,5212.000000,1650625711.308018,0.000000,0.000000,1.000000,0.000000,0.000000,0.000000,0.000000,0.673015,23.978983,-0.854205
1650625711.408238,5213.000000,1650625711.407991,0.000000,0.000000,1.000000,0.000000,0.000000,0.000000,0.000000,0.678010,23.977490,-0.868695
1650625711.508282,5214.000000,1650625711.508058,0.000000,0.000000,1.000000,0.000000,0.000000,0.000000,0.000000,0.684716,23.975021,-0.877656
1650625711.608342,5215.000000,1650625711.608054,0.000000,0.000000,1.000000,0.000000,0.000000,0.000000,0.000000,0.688670,23.973818,-0.889366
1650625711.708606,5216.000000,1650625711.708299,0.000000,0.000000,1.000000,0.000000,0.000000,0.000000,0.000000,0.691110,23.971632,-0.896440
1650625711.808017,5217.000000,1650625711.807753,0.000000,0.000000,1.000000,0.000000,0.000000,0.000000,0.000000,0.691034,23.970701,-0.908737
1650625711.908077,5218.000000,1650625711.907896,0.000000,0.000000,1.000000,0.000000,0.000000,0.000000,0.000000,0.689680,23.969867,-0.920385
1650625712.008066,5219.000000,1650625712.007755,0.000000,0.000000,1.000000,0.000000,0.000000,0.000000,0.000000,0.689315,23.970216,-0.936237
1650625712.108170,5220.000000,1650625712.107857,0.000000,0.000000,1.000000,0.000000,0.000000,0.000000,0.000000,0.689895,23.970588,-0.952070
1650625712.208447,5221.000000,1650625712.208158,0.000000,0.000000,1.000000,0.000000,0.000000,0.000000,0.000000,0.692468,23.972069,-0.971092
1650625712.308378,5222.000000,1650625712.308046,0.000000,0.000000,1.000000,0.000000,0.000000,0.000000,0.000000,0.691473,23.973501,-0.987506
1650625712.408355,5223.000000,1650625712.407996,0.000000,0.000000,1.000000,0.000000,0.000000,0.000000,0.000000,0.686028,23.977062,-0.951398
1650625712.508775,5224.000000,1650625712.508292,0.000000,0.000000,1.000000,0.000000,0.000000,0.000000,0.000000,0.680760,23.978261,-0.927054
1650625712.608095,5225.000000,1650625712.607886,0.000000,0.000000,1.000000,0.000000,0.000000,0.000000,0.000000,0.675685,23.979403,-0.914049
1650625712.708299,5226.000000,1650625712.708086,0.000000,0.000000,1.000000,0.000000,0.000000,0.000000,0.000000,0.672993,23.980488,-0.905500
1650625712.808362,5227.000000,1650625712.808157,0.000000,0.000000,1.000000,0.000000,0.000000,0.000000,0.000000,0.672568,23.981514,-0.906894
1650625712.908339,5228.000000,1650625712.908152,0.000000,0.000000,1.000000,0.000000,0.000000,0.000000,0.000000,0.673201,23.985752,-0.921054
1650625713.008309,5229.000000,1650625713.008037,0.000000,0.000000,1.000000,0.000000,0.000000,0.000000,0.000000,0.675925,23.988654,-0.934544
1650625713.108355,5230.000000,1650625713.108152,0.000000,0.000000,1.000000,0.000000,0.000000,0.000000,0.000000,0.671899,23.992464,-0.903016
1650625713.208354,5231.000000,1650625713.207999,0.000000,0.000000,1.000000,0.000000,0.000000,0.000000,0.000000,0.670228,23.996031,-0.884795
1650625713.308838,5232.000000,1650625713.308514,0.000000,0.000000,1.000000,0.000000,0.000000,0.000000,0.000000,0.668613,23.998271,-0.880185
