__time,/dwm1001/id_458E/pose_kf/header/seq,/dwm1001/id_458E/pose_kf/header/stamp,/dwm1001/id_458E/pose_kf/pose/orientation/pitch_deg,/dwm1001/id_458E/pose_kf/pose/orientation/roll_deg,/dwm1001/id_458E/pose_kf/pose/orientation/w,/dwm1001/id_458E/pose_kf/pose/orientation/x,/dwm1001/id_458E/pose_kf/pose/orientation/y,/dwm1001/id_458E/pose_kf/pose/orientation/yaw_deg,/dwm1001/id_458E/pose_kf/pose/orientation/z,/dwm1001/id_458E/pose_kf/pose/position/x,/dwm1001/id_458E/pose_kf/pose/position/y,/dwm1001/id_458E/pose_kf/pose/position/z
1650623509.602399,3113.000000,1650623509.602218,0.000000,0.000000,1.000000,0.000000,0.000000,0.000000,0.000000,1.558777,18.408432,1.265707
1650623509.702544,3114.000000,1650623509.702312,0.000000,0.000000,1.000000,0.000000,0.000000,0.000000,0.000000,1.567605,18.406167,1.225806
1650623509.802731,3115.000000,1650623509.802502,0.000000,0.000000,1.000000,0.000000,0.000000,0.000000,0.000000,1.566050,18.405138,1.199504
1650623509.902415,3116.000000,1650623509.902231,0.000000,0.000000,1.000000,0.000000,0.000000,0.000000,0.000000,1.564500,18.404190,1.170174
1650623510.002376,3117.000000,1650623510.002177,0.000000,0.000000,1.000000,0.000000,0.000000,0.000000,0.000000,1.557514,18.404408,1.158152
1650623510.102350,3118.000000,1650623510.102162,0.000000,0.000000,1.000000,0.000000,0.000000,0.000000,0.000000,1.547593,18.406819,1.153889
1650623510.202365,3119.000000,1650623510.202192,0.000000,0.000000,1.000000,0.000000,0.000000,0.000000,0.000000,1.540383,18.408022,1.136917
1650623510.302373,3120.000000,1650623510.302184,0.000000,0.000000,1.000000,0.000000,0.000000,0.000000,0.000000,1.533580,18.408079,1.134390
1650623510.402364,3121.000000,1650623510.402178,0.000000,0.000000,1.000000,0.000000,0.000000,0.000000,0.000000,1.522820,18.408142,1.134438
1650623510.502880,3122.000000,1650623510.502573,0.000000,0.000000,1.000000,0.000000,0.000000,0.000000,0.000000,1.509440,18.409300,1.138567
1650623510.602652,3123.000000,1650623510.602485,0.000000,0.000000,1.000000,0.000000,0.000000,0.000000,0.000000,1.493623,18.410400,1.150636
1650623510.702642,3124.000000,1650623510.702458,0.000000,0.000000,1.000000,0.000000,0.000000,0.000000,0.000000,1.473363,18.411439,1.161431
1650623510.802677,3125.000000,1650623510.802507,0.000000,0.000000,1.000000,0.000000,0.000000,0.000000,0.000000,1.458772,18.412420,1.182275
1650623510.902632,3126.000000,1650623510.902457,0.000000,0.000000,1.000000,0.000000,0.000000,0.000000,0.000000,1.450665,18.412250,1.191761
1650623511.002694,3127.000000,1650623511.002489,0.000000,0.000000,1.000000,0.000000,0.000000,0.000000,0.000000,1.450882,18.412085,1.186298
1650623511.102656,3128.000000,1650623511.102479,0.000000,0.000000,1.000000,0.000000,0.000000,0.000000,0.000000,1.451322,18.411925,1.184243
1650623511.202636,3129.000000,1650623511.202433,0.000000,0.000000,1.000000,0.000000,0.000000,0.000000,0.000000,1.451957,18.412861,1.191109
1650623511.302712,3130.000000,1650623511.302485,0.000000,0.000000,1.000000,0.000000,0.000000,0.000000,0.000000,1.453852,18.412649,1.179106
1650623511.402312,3131.000000,1650623511.402165,0.000000,0.000000,1.000000,0.000000,0.000000,0.000000,0.000000,1.447108,18.413534,1.174823
1650623511.502816,3132.000000,1650623511.502570,0.000000,0.000000,1.000000,0.000000,0.000000,0.000000,0.000000,1.444200,18.414363,1.180378
1650623511.602674,3133.000000,1650623511.602426,0.000000,0.000000,1.000000,0.000000,0.000000,0.000000,0.000000,1.440555,18.415137,1.191332
1650623511.702695,3134.000000,1650623511.702485,0.000000,0.000000,1.000000,0.000000,0.000000,0.000000,0.000000,1.440575,18.416948,1.203418
1650623511.802684,3135.000000,1650623511.802481,0.000000,0.000000,1.000000,0.000000,0.000000,0.000000,0.000000,1.447321,18.418643,1.221410
1650623511.902674,3136.000000,1650623511.902471,0.000000,0.000000,1.000000,0.000000,0.000000,0.000000,0.000000,1.456032,18.420225,1.240203
1650623512.002685,3137.000000,1650623512.002484,0.000000,0.000000,1.000000,0.000000,0.000000,0.000000,0.000000,1.465475,18.420606,1.260543
1650623512.103252,3138.000000,1650623512.102932,0.000000,0.000000,1.000000,0.000000,0.000000,0.000000,0.000000,1.471212,18.420941,1.287177
1650623512.202744,3139.000000,1650623512.202510,0.000000,0.000000,1.000000,0.000000,0.000000,0.000000,0.000000,1.467970,18.422325,1.300458
1650623512.302685,3140.000000,1650623512.302484,0.000000,0.000000,1.000000,0.000000,0.000000,0.000000,0.000000,1.466059,18.424696,1.314618
1650623512.402725,3141.000000,1650623512.402486,0.000000,0.000000,1.000000,0.000000,0.000000,0.000000,0.000000,1.463228,18.425814,1.336057
1650623512.502726,3142.000000,1650623512.502490,0.000000,0.000000,1.000000,0.000000,0.000000,0.000000,0.000000,1.462803,18.426837,1.362843
1650623512.602696,3143.000000,1650623512.602467,0.000000,0.000000,1.000000,0.000000,0.000000,0.000000,0.000000,1.466831,18.427768,1.392305
1650623512.702654,3144.000000,1650623512.702453,0.000000,0.000000,1.000000,0.000000,0.000000,0.000000,0.000000,1.468511,18.427522,1.400103
1650623512.802719,3145.000000,1650623512.802479,0.000000,0.000000,1.000000,0.000000,0.000000,0.000000,0.000000,1.481047,18.425074,1.345981
1650623512.902844,3146.000000,1650623512.902571,0.000000,0.000000,1.000000,0.000000,0.000000,0.000000,0.000000,1.484179,18.423826,1.309960
1650623513.002736,3147.000000,1650623513.002536,0.000000,0.000000,1.000000,0.000000,0.000000,0.000000,0.000000,1.486041,18.421536,1.270412
1650623513.102692,3148.000000,1650623513.102500,0.000000,0.000000,1.000000,0.000000,0.000000,0.000000,0.000000,1.492149,18.419360,1.227552
1650623513.202673,3149.000000,1650623513.202482,0.000000,0.000000,1.000000,0.000000,0.000000,0.000000,0.000000,1.508796,18.416210,1.156589
1650623513.302743,3150.000000,1650623513.302550,0.000000,0.000000,1.000000,0.000000,0.000000,0.000000,0.000000,1.542991,18.412148,1.041841
1650623513.402402,3151.000000,1650623513.402225,0.000000,0.000000,1.000000,0.000000,0.000000,0.000000,0.000000,1.567504,18.410507,0.968325
1650623513.502363,3152.000000,1650623513.502188,0.000000,0.000000,1.000000,0.000000,0.000000,0.000000,0.000000,1.581707,18.411160,0.922395
1650623513.602333,3153.000000,1650623513.602159,0.000000,0.000000,1.000000,0.000000,0.000000,0.000000,0.000000,1.613390,18.407435,0.840901
1650623513.702607,3154.000000,1650623513.702339,0.000000,0.000000,1.000000,0.000000,0.000000,0.000000,0.000000,1.628807,18.406125,0.785072
1650623513.802451,3155.000000,1650623513.802239,0.000000,0.000000,1.000000,0.000000,0.000000,0.000000,0.000000,1.644081,18.404919,0.764428
1650623513.902449,3156.000000,1650623513.902236,0.000000,0.000000,1.000000,0.000000,0.000000,0.000000,0.000000,1.646110,18.403814,0.763846
1650623514.002530,3157.000000,1650623514.002294,0.000000,0.000000,1.000000,0.000000,0.000000,0.000000,0.000000,1.639996,18.403896,0.772813
1650623514.102399,3158.000000,1650623514.102202,0.000000,0.000000,1.000000,0.000000,0.000000,0.000000,0.000000,1.632765,18.405097,0.791708
1650623514.202403,3159.000000,1650623514.202212,0.000000,0.000000,1.000000,0.000000,0.000000,0.000000,0.000000,1.626703,18.406261,0.789428
1650623514.302400,3160.000000,1650623514.302208,0.000000,0.000000,1.000000,0.000000,0.000000,0.000000,0.000000,1.619604,18.408475,0.794226
1650623514.402445,3161.000000,1650623514.402256,0.000000,0.000000,1.000000,0.000000,0.000000,0.000000,0.000000,1.608290,18.410584,0.808206
1650623514.502448,3162.000000,1650623514.502228,0.000000,0.000000,1.000000,0.000000,0.000000,0.000000,0.000000,1.596313,18.411494,0.833371
1650623514.602309,3163.000000,1650623514.602135,0.000000,0.000000,1.000000,0.000000,0.000000,0.000000,0.000000,1.588117,18.410177,0.849855
1650623514.702368,3164.000000,1650623514.702184,0.000000,0.000000,1.000000,0.000000,0.000000,0.000000,0.000000,1.581351,18.410031,0.870866
1650623514.802390,3165.000000,1650623514.802191,0.000000,0.000000,1.000000,0.000000,0.000000,0.000000,0.000000,1.572693,18.410991,0.892945
1650623514.902361,3166.000000,1650623514.902169,0.000000,0.000000,1.000000,0.000000,0.000000,0.000000,0.000000,1.560098,18.411902,0.917611
1650623515.002371,3167.000000,1650623515.002177,0.000000,0.000000,1.000000,0.000000,0.000000,0.000000,0.000000,1.549273,18.412766,0.948742
1650623515.102350,3168.000000,1650623515.102174,0.000000,0.000000,1.000000,0.000000,0.000000,0.000000,0.000000,1.536886,18.413580,0.969884
1650623515.202330,3169.000000,1650623515.202141,0.000000,0.000000,1.000000,0.000000,0.000000,0.000000,0.000000,1.528511,18.414346,1.003175
1650623515.302376,3170.000000,1650623515.302183,0.000000,0.000000,1.000000,0.000000,0.000000,0.000000,0.000000,1.526133,18.415065,1.039999
1650623515.402371,3171.000000,1650623515.402179,0.000000,0.000000,1.000000,0.000000,0.000000,0.000000,0.000000,1.525066,18.415736,1.079343
1650623515.502383,3172.000000,1650623515.502195,0.000000,0.000000,1.000000,0.000000,0.000000,0.000000,0.000000,1.519785,18.416360,1.117814
1650623515.602348,3173.000000,1650623515.602165,0.000000,0.000000,1.000000,0.000000,0.000000,0.000000,0.000000,1.518164,18.416940,1.161839
1650623515.702418,3174.000000,1650623515.702234,0.000000,0.000000,1.000000,0.000000,0.000000,0.000000,0.000000,1.514550,18.417475,1.199833
1650623515.802340,3175.000000,1650623515.802153,0.000000,0.000000,1.000000,0.000000,0.000000,0.000000,0.000000,1.507967,18.417968,1.219083
1650623515.902356,3176.000000,1650623515.902170,0.000000,0.000000,1.000000,0.000000,0.000000,0.000000,0.000000,1.500773,18.419511,1.238871
1650623516.002328,3177.000000,1650623516.002148,0.000000,0.000000,1.000000,0.000000,0.000000,0.000000,0.000000,1.495197,18.420951,1.244639
1650623516.102492,3178.000000,1650623516.102228,0.000000,0.000000,1.000000,0.000000,0.000000,0.000000,0.000000,1.492252,18.422291,1.228890
1650623516.202358,3179.000000,1650623516.202177,0.000000,0.000000,1.000000,0.000000,0.000000,0.000000,0.000000,1.493975,18.422443,1.232854
1650623516.302347,3180.000000,1650623516.302171,0.000000,0.000000,1.000000,0.000000,0.000000,0.000000,0.000000,1.492465,18.422564,1.248485
1650623516.402349,3181.000000,1650623516.402168,0.000000,0.000000,1.000000,0.000000,0.000000,0.000000,0.000000,1.493349,18.422654,1.264811
1650623516.502344,3182.000000,1650623516.502172,0.000000,0.000000,1.000000,0.000000,0.000000,0.000000,0.000000,1.489942,18.422719,1.291468
1650623516.602325,3183.000000,1650623516.602156,0.000000,0.000000,1.000000,0.000000,0.000000,0.000000,0.000000,1.491205,18.422759,1.319136
1650623516.702293,3184.000000,1650623516.702133,0.000000,0.000000,1.000000,0.000000,0.000000,0.000000,0.000000,1.492512,18.423868,1.342901
1650623516.802302,3185.000000,1650623516.802142,0.000000,0.000000,1.000000,0.000000,0.000000,0.000000,0.000000,1.489488,18.424894,1.358865
1650623516.902437,3186.000000,1650623516.902227,0.000000,0.000000,1.000000,0.000000,0.000000,0.000000,0.000000,1.485644,18.425841,1.372976
1650623517.002272,3187.000000,1650623517.002111,0.000000,0.000000,1.000000,0.000000,0.000000,0.000000,0.000000,1.484301,18.425620,1.387722
1650623517.102661,3188.000000,1650623517.102462,0.000000,0.000000,1.000000,0.000000,0.000000,0.000000,0.000000,1.478779,18.425388,1.406294
1650623517.202297,3189.000000,1650623517.202087,0.000000,0.000000,1.000000,0.000000,0.000000,0.000000,0.000000,1.474768,18.426238,1.422879
1650623517.302354,3190.000000,1650623517.302194,0.000000,0.000000,1.000000,0.000000,0.000000,0.000000,0.000000,1.468921,18.427019,1.441581
1650623517.402345,3191.000000,1650623517.402160,0.000000,0.000000,1.000000,0.000000,0.000000,0.000000,0.000000,1.461349,18.427733,1.460687
1650623517.502324,3192.000000,1650623517.502156,0.000000,0.000000,1.000000,0.000000,0.000000,0.000000,0.000000,1.456523,18.428384,1.485006
1650623517.602321,3193.000000,1650623517.602162,0.000000,0.000000,1.000000,0.000000,0.000000,0.000000,0.000000,1.454300,18.427884,1.511888
1650623517.702372,3194.000000,1650623517.702204,0.000000,0.000000,1.000000,0.000000,0.000000,0.000000,0.000000,1.455626,18.427388,1.505721
1650623517.802344,3195.000000,1650623517.802169,0.000000,0.000000,1.000000,0.000000,0.000000,0.000000,0.000000,1.458115,18.426900,1.502545
1650623517.902355,3196.000000,1650623517.902185,0.000000,0.000000,1.000000,0.000000,0.000000,0.000000,0.000000,1.457324,18.426422,1.481298
1650623518.002333,3197.000000,1650623518.002157,0.000000,0.000000,1.000000,0.000000,0.000000,0.000000,0.000000,1.453429,18.425956,1.466958
1650623518.102390,3198.000000,1650623518.102221,0.000000,0.000000,1.000000,0.000000,0.000000,0.000000,0.000000,1.449873,18.425503,1.462513
1650623518.202374,3199.000000,1650623518.202197,0.000000,0.000000,1.000000,0.000000,0.000000,0.000000,0.000000,1.449914,18.425064,1.459522
1650623518.302597,3200.000000,1650623518.302426,0.000000,0.000000,1.000000,0.000000,0.000000,0.000000,0.000000,1.454439,18.425732,1.461979
1650623518.402409,3201.000000,1650623518.402229,0.000000,0.000000,1.000000,0.000000,0.000000,0.000000,0.000000,1.454459,18.426354,1.464027
1650623518.502402,3202.000000,1650623518.502216,0.000000,0.000000,1.000000,0.000000,0.000000,0.000000,0.000000,1.451303,18.426932,1.467306
1650623518.602387,3203.000000,1650623518.602199,0.000000,0.000000,1.000000,0.000000,0.000000,0.000000,0.000000,1.451691,18.426375,1.449999
1650623518.702380,3204.000000,1650623518.702195,0.000000,0.000000,1.000000,0.000000,0.000000,0.000000,0.000000,1.451061,18.425839,1.445235
1650623518.802394,3205.000000,1650623518.802213,0.000000,0.000000,1.000000,0.000000,0.000000,0.000000,0.000000,1.458190,18.426414,1.451721
1650623518.902352,3206.000000,1650623518.902176,0.000000,0.000000,1.000000,0.000000,0.000000,0.000000,0.000000,1.463902,18.428040,1.452873
1650623519.002305,3207.000000,1650623519.002124,0.000000,0.000000,1.000000,0.000000,0.000000,0.000000,0.000000,1.474797,18.429564,1.458592
1650623519.102389,3208.000000,1650623519.102216,0.000000,0.000000,1.000000,0.000000,0.000000,0.000000,0.000000,1.484012,18.430988,1.469500
1650623519.202389,3209.000000,1650623519.202215,0.000000,0.000000,1.000000,0.000000,0.000000,0.000000,0.000000,1.491610,18.431223,1.486185
1650623519.302645,3210.000000,1650623519.302292,0.000000,0.000000,1.000000,0.000000,0.000000,0.000000,0.000000,1.510742,18.428153,1.449524
1650623519.402426,3211.000000,1650623519.402258,0.000000,0.000000,1.000000,0.000000,0.000000,0.000000,0.000000,1.527636,18.426331,1.430290
1650623519.502396,3212.000000,1650623519.502212,0.000000,0.000000,1.000000,0.000000,0.000000,0.000000,0.000000,1.538006,18.424605,1.420561
1650623519.602394,3213.000000,1650623519.602218,0.000000,0.000000,1.000000,0.000000,0.000000,0.000000,0.000000,1.560720,18.420794,1.364333
1650623519.702663,3214.000000,1650623519.702477,0.000000,0.000000,1.000000,0.000000,0.000000,0.000000,0.000000,1.578689,18.417206,1.312772
1650623519.802692,3215.000000,1650623519.802471,0.000000,0.000000,1.000000,0.000000,0.000000,0.000000,0.000000,1.594308,18.413837,1.285941
1650623519.902666,3216.000000,1650623519.902472,0.000000,0.000000,1.000000,0.000000,0.000000,0.000000,0.000000,1.605492,18.411776,1.274820
1650623520.002731,3217.000000,1650623520.002543,0.000000,0.000000,1.000000,0.000000,0.000000,0.000000,0.000000,1.617918,18.409866,1.252984
1650623520.102727,3218.000000,1650623520.102540,0.000000,0.000000,1.000000,0.000000,0.000000,0.000000,0.000000,1.630407,18.408102,1.224929
1650623520.202660,3219.000000,1650623520.202486,0.000000,0.000000,1.000000,0.000000,0.000000,0.000000,0.000000,1.632033,18.407569,1.209495
1650623520.302649,3220.000000,1650623520.302484,0.000000,0.000000,1.000000,0.000000,0.000000,0.000000,0.000000,1.626674,18.407110,1.202966
1650623520.402653,3221.000000,1650623520.402493,0.000000,0.000000,1.000000,0.000000,0.000000,0.000000,0.000000,1.623473,18.405629,1.209822
1650623520.502685,3222.000000,1650623520.502483,0.000000,0.000000,1.000000,0.000000,0.000000,0.000000,0.000000,1.620158,18.405364,1.222245
1650623520.602702,3223.000000,1650623520.602498,0.000000,0.000000,1.000000,0.000000,0.000000,0.000000,0.000000,1.614582,18.407338,1.227079
1650623520.702685,3224.000000,1650623520.702490,0.000000,0.000000,1.000000,0.000000,0.000000,0.000000,0.000000,1.609082,18.408150,1.239130
1650623520.802751,3225.000000,1650623520.802499,0.000000,0.000000,1.000000,0.000000,0.000000,0.000000,0.000000,1.602594,18.410037,1.252436
1650623520.902857,3226.000000,1650623520.902549,0.000000,0.000000,1.000000,0.000000,0.000000,0.000000,0.000000,1.597384,18.411845,1.271755
1650623521.002718,3227.000000,1650623521.002514,0.000000,0.000000,1.000000,0.000000,0.000000,0.000000,0.000000,1.594499,18.413569,1.291165
1650623521.102662,3228.000000,1650623521.102456,0.000000,0.000000,1.000000,0.000000,0.000000,0.000000,0.000000,1.590557,18.415209,1.314658
1650623521.202641,3229.000000,1650623521.202428,0.000000,0.000000,1.000000,0.000000,0.000000,0.000000,0.000000,1.584547,18.415673,1.341222
1650623521.302659,3230.000000,1650623521.302458,0.000000,0.000000,1.000000,0.000000,0.000000,0.000000,0.000000,1.577696,18.416113,1.364237
1650623521.402663,3231.000000,1650623521.402458,0.000000,0.000000,1.000000,0.000000,0.000000,0.000000,0.000000,1.567894,18.416530,1.389455
1650623521.502689,3232.000000,1650623521.502492,0.000000,0.000000,1.000000,0.000000,0.000000,0.000000,0.000000,1.559699,18.415833,1.399813
1650623521.602693,3233.000000,1650623521.602499,0.000000,0.000000,1.000000,0.000000,0.000000,0.000000,0.000000,1.550868,18.414085,1.396704
1650623521.702784,3234.000000,1650623521.702517,0.000000,0.000000,1.000000,0.000000,0.000000,0.000000,0.000000,1.544734,18.414619,1.391972
1650623521.802715,3235.000000,1650623521.802485,0.000000,0.000000,1.000000,0.000000,0.000000,0.000000,0.000000,1.537898,18.415130,1.392150
1650623521.902696,3236.000000,1650623521.902478,0.000000,0.000000,1.000000,0.000000,0.000000,0.000000,0.000000,1.524964,18.415615,1.402688
1650623522.002668,3237.000000,1650623522.002499,0.000000,0.000000,1.000000,0.000000,0.000000,0.000000,0.000000,1.513932,18.414984,1.392510
1650623522.103083,3238.000000,1650623522.102845,0.000000,0.000000,1.000000,0.000000,0.000000,0.000000,0.000000,1.508000,18.414391,1.389895
1650623522.202677,3239.000000,1650623522.202453,0.000000,0.000000,1.000000,0.000000,0.000000,0.000000,0.000000,1.504719,18.413835,1.394545
1650623522.302729,3240.000000,1650623522.302499,0.000000,0.000000,1.000000,0.000000,0.000000,0.000000,0.000000,1.498495,18.413315,1.406972
1650623522.402635,3241.000000,1650623522.402475,0.000000,0.000000,1.000000,0.000000,0.000000,0.000000,0.000000,1.494951,18.412831,1.426844
1650623522.503007,3242.000000,1650623522.502570,0.000000,0.000000,1.000000,0.000000,0.000000,0.000000,0.000000,1.490672,18.413473,1.450607
1650623522.602694,3243.000000,1650623522.602509,0.000000,0.000000,1.000000,0.000000,0.000000,0.000000,0.000000,1.483522,18.414086,1.472424
1650623522.702676,3244.000000,1650623522.702488,0.000000,0.000000,1.000000,0.000000,0.000000,0.000000,0.000000,1.495476,18.412488,1.433475
1650623522.802665,3245.000000,1650623522.802496,0.000000,0.000000,1.000000,0.000000,0.000000,0.000000,0.000000,1.501459,18.412076,1.407250
1650623522.902679,3246.000000,1650623522.902498,0.000000,0.000000,1.000000,0.000000,0.000000,0.000000,0.000000,1.509401,18.410606,1.380383
1650623523.002654,3247.000000,1650623523.002471,0.000000,0.000000,1.000000,0.000000,0.000000,0.000000,0.000000,1.515895,18.409229,1.368273
1650623523.102636,3248.000000,1650623523.102455,0.000000,0.000000,1.000000,0.000000,0.000000,0.000000,0.000000,1.520993,18.409035,1.371154
1650623523.202628,3249.000000,1650623523.202449,0.000000,0.000000,1.000000,0.000000,0.000000,0.000000,0.000000,1.536747,18.406687,1.339222
1650623523.302961,3250.000000,1650623523.302601,0.000000,0.000000,1.000000,0.000000,0.000000,0.000000,0.000000,1.549442,18.405581,1.299743
1650623523.402741,3251.000000,1650623523.402501,0.000000,0.000000,1.000000,0.000000,0.000000,0.000000,0.000000,1.563566,18.404560,1.254699
1650623523.502710,3252.000000,1650623523.502462,0.000000,0.000000,1.000000,0.000000,0.000000,0.000000,0.000000,1.572458,18.403622,1.231805
1650623523.602724,3253.000000,1650623523.602498,0.000000,0.000000,1.000000,0.000000,0.000000,0.000000,0.000000,1.581833,18.402763,1.226169
1650623523.702723,3254.000000,1650623523.702491,0.000000,0.000000,1.000000,0.000000,0.000000,0.000000,0.000000,1.586190,18.403071,1.222580
1650623523.802661,3255.000000,1650623523.802477,0.000000,0.000000,1.000000,0.000000,0.000000,0.000000,0.000000,1.585797,18.405570,1.220145
1650623523.902692,3256.000000,1650623523.902468,0.000000,0.000000,1.000000,0.000000,0.000000,0.000000,0.000000,1.588556,18.406859,1.230105
1650623524.002694,3257.000000,1650623524.002480,0.000000,0.000000,1.000000,0.000000,0.000000,0.000000,0.000000,1.584481,18.408091,1.234999
1650623524.103008,3258.000000,1650623524.102675,0.000000,0.000000,1.000000,0.000000,0.000000,0.000000,0.000000,1.576146,18.410353,1.242273
1650623524.202771,3259.000000,1650623524.202518,0.000000,0.000000,1.000000,0.000000,0.000000,0.000000,0.000000,1.571449,18.410312,1.251813
1650623524.302733,3260.000000,1650623524.302491,0.000000,0.000000,1.000000,0.000000,0.000000,0.000000,0.000000,1.564760,18.410274,1.267538
1650623524.402802,3261.000000,1650623524.402550,0.000000,0.000000,1.000000,0.000000,0.000000,0.000000,0.000000,1.564934,18.410237,1.275457
1650623524.502798,3262.000000,1650623524.502569,0.000000,0.000000,1.000000,0.000000,0.000000,0.000000,0.000000,1.560698,18.411294,1.288771
1650623524.602682,3263.000000,1650623524.602460,0.000000,0.000000,1.000000,0.000000,0.000000,0.000000,0.000000,1.556666,18.412290,1.306430
1650623524.702713,3264.000000,1650623524.702491,0.000000,0.000000,1.000000,0.000000,0.000000,0.000000,0.000000,1.549573,18.413227,1.320163
1650623524.802634,3265.000000,1650623524.802404,0.000000,0.000000,1.000000,0.000000,0.000000,0.000000,0.000000,1.548330,18.416284,1.338976
1650623524.902731,3266.000000,1650623524.902506,0.000000,0.000000,1.000000,0.000000,0.000000,0.000000,0.000000,1.542809,18.416977,1.363438
1650623525.002697,3267.000000,1650623525.002467,0.000000,0.000000,1.000000,0.000000,0.000000,0.000000,0.000000,1.537620,18.417613,1.388445
1650623525.102685,3268.000000,1650623525.102450,0.000000,0.000000,1.000000,0.000000,0.000000,0.000000,0.000000,1.530580,18.420375,1.382482
1650623525.202696,3269.000000,1650623525.202472,0.000000,0.000000,1.000000,0.000000,0.000000,0.000000,0.000000,1.523989,18.421869,1.387137
1650623525.302721,3270.000000,1650623525.302503,0.000000,0.000000,1.000000,0.000000,0.000000,0.000000,0.000000,1.520020,18.422162,1.382623
1650623525.402653,3271.000000,1650623525.402457,0.000000,0.000000,1.000000,0.000000,0.000000,0.000000,0.000000,1.511997,18.423499,1.371741
1650623525.502689,3272.000000,1650623525.502466,0.000000,0.000000,1.000000,0.000000,0.000000,0.000000,0.000000,1.506702,18.424731,1.370094
1650623525.602742,3273.000000,1650623525.602526,0.000000,0.000000,1.000000,0.000000,0.000000,0.000000,0.000000,1.498546,18.426952,1.368443
1650623525.702963,3274.000000,1650623525.702695,0.000000,0.000000,1.000000,0.000000,0.000000,0.000000,0.000000,1.490973,18.429014,1.375666
1650623525.802682,3275.000000,1650623525.802489,0.000000,0.000000,1.000000,0.000000,0.000000,0.000000,0.000000,1.510137,18.426558,1.314783
1650623525.902651,3276.000000,1650623525.902459,0.000000,0.000000,1.000000,0.000000,0.000000,0.000000,0.000000,1.517440,18.426383,1.266064
1650623526.002704,3277.000000,1650623526.002473,0.000000,0.000000,1.000000,0.000000,0.000000,0.000000,0.000000,1.526584,18.426188,1.242810
1650623526.102732,3278.000000,1650623526.102500,0.000000,0.000000,1.000000,0.000000,0.000000,0.000000,0.000000,1.531984,18.424884,1.231932
1650623526.202678,3279.000000,1650623526.202443,0.000000,0.000000,1.000000,0.000000,0.000000,0.000000,0.000000,1.530556,18.424720,1.218428
1650623526.302704,3280.000000,1650623526.302486,0.000000,0.000000,1.000000,0.000000,0.000000,0.000000,0.000000,1.531398,18.424543,1.221775
1650623526.402743,3281.000000,1650623526.402491,0.000000,0.000000,1.000000,0.000000,0.000000,0.000000,0.000000,1.527840,18.423267,1.235634
1650623526.502928,3282.000000,1650623526.502602,0.000000,0.000000,1.000000,0.000000,0.000000,0.000000,0.000000,1.516862,18.423137,1.244230
1650623526.602897,3283.000000,1650623526.602675,0.000000,0.000000,1.000000,0.000000,0.000000,0.000000,0.000000,1.509806,18.424092,1.250981
1650623526.702682,3284.000000,1650623526.702458,0.000000,0.000000,1.000000,0.000000,0.000000,0.000000,0.000000,1.508658,18.426070,1.252717
1650623526.802719,3285.000000,1650623526.802525,0.000000,0.000000,1.000000,0.000000,0.000000,0.000000,0.000000,1.500011,18.426829,1.260926
1650623526.902683,3286.000000,1650623526.902489,0.000000,0.000000,1.000000,0.000000,0.000000,0.000000,0.000000,1.497381,18.427526,1.276941
1650623527.002691,3287.000000,1650623527.002496,0.000000,0.000000,1.000000,0.000000,0.000000,0.000000,0.000000,1.497172,18.428163,1.300417
1650623527.103095,3288.000000,1650623527.102799,0.000000,0.000000,1.000000,0.000000,0.000000,0.000000,0.000000,1.490524,18.428741,1.317302
1650623527.202671,3289.000000,1650623527.202478,0.000000,0.000000,1.000000,0.000000,0.000000,0.000000,0.000000,1.481075,18.429265,1.329447
1650623527.302852,3290.000000,1650623527.302579,0.000000,0.000000,1.000000,0.000000,0.000000,0.000000,0.000000,1.474453,18.430826,1.334603
1650623527.402762,3291.000000,1650623527.402470,0.000000,0.000000,1.000000,0.000000,0.000000,0.000000,0.000000,1.471607,18.432275,1.346756
1650623527.502721,3292.000000,1650623527.502481,0.000000,0.000000,1.000000,0.000000,0.000000,0.000000,0.000000,1.467971,18.433614,1.357539
1650623527.602678,3293.000000,1650623527.602490,0.000000,0.000000,1.000000,0.000000,0.000000,0.000000,0.000000,1.466862,18.433758,1.374252
1650623527.702681,3294.000000,1650623527.702480,0.000000,0.000000,1.000000,0.000000,0.000000,0.000000,0.000000,1.468138,18.432771,1.396631
1650623527.802694,3295.000000,1650623527.802498,0.000000,0.000000,1.000000,0.000000,0.000000,0.000000,0.000000,1.464023,18.432902,1.417156
1650623527.902600,3296.000000,1650623527.902445,0.000000,0.000000,1.000000,0.000000,0.000000,0.000000,0.000000,1.486437,18.428639,1.379421
1650623528.002683,3297.000000,1650623528.002464,0.000000,0.000000,1.000000,0.000000,0.000000,0.000000,0.000000,1.501146,18.425689,1.359233
1650623528.102955,3298.000000,1650623528.102549,0.000000,0.000000,1.000000,0.000000,0.000000,0.000000,0.000000,1.517243,18.422898,1.334955
1650623528.202713,3299.000000,1650623528.202511,0.000000,0.000000,1.000000,0.000000,0.000000,0.000000,0.000000,1.524788,18.422448,1.318894
1650623528.302736,3300.000000,1650623528.302491,0.000000,0.000000,1.000000,0.000000,0.000000,0.000000,0.000000,1.543851,18.418761,1.241390
1650623528.402706,3301.000000,1650623528.402466,0.000000,0.000000,1.000000,0.000000,0.000000,0.000000,0.000000,1.548671,18.417475,1.186504
1650623528.502665,3302.000000,1650623528.502433,0.000000,0.000000,1.000000,0.000000,0.000000,0.000000,0.000000,1.560732,18.416283,1.143734
1650623528.602655,3303.000000,1650623528.602484,0.000000,0.000000,1.000000,0.000000,0.000000,0.000000,0.000000,1.568706,18.414091,1.106202
1650623528.702644,3304.000000,1650623528.702465,0.000000,0.000000,1.000000,0.000000,0.000000,0.000000,0.000000,1.576070,18.413139,1.086652
1650623528.802692,3305.000000,1650623528.802466,0.000000,0.000000,1.000000,0.000000,0.000000,0.000000,0.000000,1.576303,18.412272,1.077121
1650623528.903138,3306.000000,1650623528.902831,0.000000,0.000000,1.000000,0.000000,0.000000,0.000000,0.000000,1.585067,18.412575,1.065108
1650623529.002719,3307.000000,1650623529.002460,0.000000,0.000000,1.000000,0.000000,0.000000,0.000000,0.000000,1.588797,18.411801,1.066848
1650623529.102734,3308.000000,1650623529.102500,0.000000,0.000000,1.000000,0.000000,0.000000,0.000000,0.000000,1.585586,18.412191,1.069672
1650623529.202749,3309.000000,1650623529.202439,0.000000,0.000000,1.000000,0.000000,0.000000,0.000000,0.000000,1.583466,18.412588,1.080774
1650623529.302697,3310.000000,1650623529.302444,0.000000,0.000000,1.000000,0.000000,0.000000,0.000000,0.000000,1.581303,18.412988,1.099789
1650623529.402717,3311.000000,1650623529.402478,0.000000,0.000000,1.000000,0.000000,0.000000,0.000000,0.000000,1.576935,18.413388,1.123934
1650623529.502677,3312.000000,1650623529.502474,0.000000,0.000000,1.000000,0.000000,0.000000,0.000000,0.000000,1.562872,18.415967,1.136820
1650623529.602731,3313.000000,1650623529.602464,0.000000,0.000000,1.000000,0.000000,0.000000,0.000000,0.000000,1.552777,18.417326,1.160646
1650623529.703036,3314.000000,1650623529.702705,0.000000,0.000000,1.000000,0.000000,0.000000,0.000000,0.000000,1.541018,18.419707,1.170730
1650623529.802723,3315.000000,1650623529.802492,0.000000,0.000000,1.000000,0.000000,0.000000,0.000000,0.000000,1.532087,18.421955,1.189378
1650623529.902740,3316.000000,1650623529.902524,0.000000,0.000000,1.000000,0.000000,0.000000,0.000000,0.000000,1.521495,18.424073,1.210564
1650623530.002739,3317.000000,1650623530.002520,0.000000,0.000000,1.000000,0.000000,0.000000,0.000000,0.000000,1.512636,18.426059,1.218824
1650623530.102710,3318.000000,1650623530.102439,0.000000,0.000000,1.000000,0.000000,0.000000,0.000000,0.000000,1.506529,18.427917,1.227567
1650623530.202707,3319.000000,1650623530.202482,0.000000,0.000000,1.000000,0.000000,0.000000,0.000000,0.000000,1.499768,18.428558,1.244823
1650623530.302692,3320.000000,1650623530.302507,0.000000,0.000000,1.000000,0.000000,0.000000,0.000000,0.000000,1.494584,18.429138,1.264575
1650623530.402689,3321.000000,1650623530.402502,0.000000,0.000000,1.000000,0.000000,0.000000,0.000000,0.000000,1.493082,18.429660,1.291529
1650623530.503143,3322.000000,1650623530.502670,0.000000,0.000000,1.000000,0.000000,0.000000,0.000000,0.000000,1.493968,18.429037,1.322126
1650623530.602719,3323.000000,1650623530.602515,0.000000,0.000000,1.000000,0.000000,0.000000,0.000000,0.000000,1.493831,18.428425,1.353752
1650623530.702758,3324.000000,1650623530.702515,0.000000,0.000000,1.000000,0.000000,0.000000,0.000000,0.000000,1.494901,18.427827,1.384706
1650623530.802724,3325.000000,1650623530.802432,0.000000,0.000000,1.000000,0.000000,0.000000,0.000000,0.000000,1.525452,18.425064,1.365778
1650623530.902739,3326.000000,1650623530.902443,0.000000,0.000000,1.000000,0.000000,0.000000,0.000000,0.000000,1.546704,18.422444,1.359504
1650623531.002718,3327.000000,1650623531.002500,0.000000,0.000000,1.000000,0.000000,0.000000,0.000000,0.000000,1.560188,18.422150,1.348459
1650623531.102736,3328.000000,1650623531.102444,0.000000,0.000000,1.000000,0.000000,0.000000,0.000000,0.000000,1.563015,18.422964,1.332861
1650623531.202647,3329.000000,1650623531.202431,0.000000,0.000000,1.000000,0.000000,0.000000,0.000000,0.000000,1.559036,18.424825,1.326636
1650623531.303012,3330.000000,1650623531.302650,0.000000,0.000000,1.000000,0.000000,0.000000,0.000000,0.000000,1.551911,18.426578,1.319745
1650623531.402729,3331.000000,1650623531.402440,0.000000,0.000000,1.000000,0.000000,0.000000,0.000000,0.000000,1.546201,18.428224,1.317070
1650623531.502713,3332.000000,1650623531.502433,0.000000,0.000000,1.000000,0.000000,0.000000,0.000000,0.000000,1.538579,18.429765,1.318449
1650623531.602748,3333.000000,1650623531.602508,0.000000,0.000000,1.000000,0.000000,0.000000,0.000000,0.000000,1.544441,18.427932,1.268882
1650623531.702741,3334.000000,1650623531.702514,0.000000,0.000000,1.000000,0.000000,0.000000,0.000000,0.000000,1.567397,18.424004,1.170510
1650623531.802805,3335.000000,1650623531.802580,0.000000,0.000000,1.000000,0.000000,0.000000,0.000000,0.000000,1.599903,18.417020,1.035949
1650623531.902714,3336.000000,1650623531.902492,0.000000,0.000000,1.000000,0.000000,0.000000,0.000000,0.000000,1.623896,18.411529,0.955590
1650623532.002649,3337.000000,1650623532.002474,0.000000,0.000000,1.000000,0.000000,0.000000,0.000000,0.000000,1.640866,18.408556,0.913659
1650623532.103469,3338.000000,1650623532.103226,0.000000,0.000000,1.000000,0.000000,0.000000,0.000000,0.000000,1.650067,18.406880,0.898978
1650623532.202694,3339.000000,1650623532.202520,0.000000,0.000000,1.000000,0.000000,0.000000,0.000000,0.000000,1.649730,18.406435,0.903999
1650623532.302665,3340.000000,1650623532.302461,0.000000,0.000000,1.000000,0.000000,0.000000,0.000000,0.000000,1.643665,18.407151,0.919024
1650623532.402716,3341.000000,1650623532.402518,0.000000,0.000000,1.000000,0.000000,0.000000,0.000000,0.000000,1.635491,18.407870,0.941991
1650623532.502663,3342.000000,1650623532.502501,0.000000,0.000000,1.000000,0.000000,0.000000,0.000000,0.000000,1.621002,18.409677,0.956390
1650623532.602656,3343.000000,1650623532.602491,0.000000,0.000000,1.000000,0.000000,0.000000,0.000000,0.000000,1.602782,18.412505,0.965751
1650623532.702640,3344.000000,1650623532.702459,0.000000,0.000000,1.000000,0.000000,0.000000,0.000000,0.000000,1.595274,18.414107,0.979115
1650623532.802750,3345.000000,1650623532.802518,0.000000,0.000000,1.000000,0.000000,0.000000,0.000000,0.000000,1.585930,18.414545,1.001929
1650623532.903139,3346.000000,1650623532.902820,0.000000,0.000000,1.000000,0.000000,0.000000,0.000000,0.000000,1.574884,18.414969,1.028116
1650623533.002627,3347.000000,1650623533.002463,0.000000,0.000000,1.000000,0.000000,0.000000,0.000000,0.000000,1.562265,18.416469,1.050226
1650623533.102671,3348.000000,1650623533.102444,0.000000,0.000000,1.000000,0.000000,0.000000,0.000000,0.000000,1.543835,18.417890,1.074022
1650623533.202667,3349.000000,1650623533.202471,0.000000,0.000000,1.000000,0.000000,0.000000,0.000000,0.000000,1.524329,18.419233,1.097777
1650623533.302707,3350.000000,1650623533.302443,0.000000,0.000000,1.000000,0.000000,0.000000,0.000000,0.000000,1.510404,18.421587,1.120641
1650623533.402732,3351.000000,1650623533.402465,0.000000,0.000000,1.000000,0.000000,0.000000,0.000000,0.000000,1.490885,18.424891,1.136156
1650623533.502713,3352.000000,1650623533.502466,0.000000,0.000000,1.000000,0.000000,0.000000,0.000000,0.000000,1.478124,18.426903,1.156688
1650623533.602659,3353.000000,1650623533.602438,0.000000,0.000000,1.000000,0.000000,0.000000,0.000000,0.000000,1.468505,18.427687,1.182807
1650623533.703179,3354.000000,1650623533.702712,0.000000,0.000000,1.000000,0.000000,0.000000,0.000000,0.000000,1.459694,18.429490,1.208600
1650623533.802748,3355.000000,1650623533.802516,0.000000,0.000000,1.000000,0.000000,0.000000,0.000000,0.000000,1.465831,18.428982,1.177587
1650623533.902744,3356.000000,1650623533.902498,0.000000,0.000000,1.000000,0.000000,0.000000,0.000000,0.000000,1.475163,18.428473,1.171149
1650623534.002711,3357.000000,1650623534.002526,0.000000,0.000000,1.000000,0.000000,0.000000,0.000000,0.000000,1.479838,18.429057,1.172985
1650623534.102787,3358.000000,1650623534.102596,0.000000,0.000000,1.000000,0.000000,0.000000,0.000000,0.000000,1.477903,18.428492,1.181956
1650623534.202696,3359.000000,1650623534.202517,0.000000,0.000000,1.000000,0.000000,0.000000,0.000000,0.000000,1.482797,18.427936,1.188888
1650623534.302725,3360.000000,1650623534.302517,0.000000,0.000000,1.000000,0.000000,0.000000,0.000000,0.000000,1.484309,18.428481,1.198694
1650623534.402703,3361.000000,1650623534.402498,0.000000,0.000000,1.000000,0.000000,0.000000,0.000000,0.000000,1.491333,18.427885,1.200761
1650623534.503056,3362.000000,1650623534.502794,0.000000,0.000000,1.000000,0.000000,0.000000,0.000000,0.000000,1.499177,18.428396,1.217175
1650623534.602735,3363.000000,1650623534.602515,0.000000,0.000000,1.000000,0.000000,0.000000,0.000000,0.000000,1.505583,18.427770,1.217494
1650623534.702694,3364.000000,1650623534.702501,0.000000,0.000000,1.000000,0.000000,0.000000,0.000000,0.000000,1.500792,18.428254,1.220920
1650623534.802696,3365.000000,1650623534.802504,0.000000,0.000000,1.000000,0.000000,0.000000,0.000000,0.000000,1.494150,18.428696,1.225714
1650623534.902718,3366.000000,1650623534.902520,0.000000,0.000000,1.000000,0.000000,0.000000,0.000000,0.000000,1.489044,18.429098,1.238268
1650623535.002639,3367.000000,1650623535.002473,0.000000,0.000000,1.000000,0.000000,0.000000,0.000000,0.000000,1.486492,18.430553,1.245350
1650623535.102664,3368.000000,1650623535.102456,0.000000,0.000000,1.000000,0.000000,0.000000,0.000000,0.000000,1.489631,18.431908,1.264915
1650623535.202665,3369.000000,1650623535.202451,0.000000,0.000000,1.000000,0.000000,0.000000,0.000000,0.000000,1.486138,18.434257,1.269820
1650623535.303146,3370.000000,1650623535.302739,0.000000,0.000000,1.000000,0.000000,0.000000,0.000000,0.000000,1.481835,18.436449,1.286460
1650623535.402785,3371.000000,1650623535.402585,0.000000,0.000000,1.000000,0.000000,0.000000,0.000000,0.000000,1.504032,18.434125,1.235310
1650623535.502724,3372.000000,1650623535.502527,0.000000,0.000000,1.000000,0.000000,0.000000,0.000000,0.000000,1.517410,18.431903,1.207905
1650623535.602717,3373.000000,1650623535.602523,0.000000,0.000000,1.000000,0.000000,0.000000,0.000000,0.000000,1.530037,18.429786,1.184791
1650623535.702693,3374.000000,1650623535.702504,0.000000,0.000000,1.000000,0.000000,0.000000,0.000000,0.000000,1.541917,18.428865,1.174706
1650623535.802689,3375.000000,1650623535.802495,0.000000,0.000000,1.000000,0.000000,0.000000,0.000000,0.000000,1.554146,18.427989,1.181981
1650623535.902718,3376.000000,1650623535.902516,0.000000,0.000000,1.000000,0.000000,0.000000,0.000000,0.000000,1.560130,18.427158,1.176064
1650623536.002712,3377.000000,1650623536.002479,0.000000,0.000000,1.000000,0.000000,0.000000,0.000000,0.000000,1.565649,18.426373,1.178465
1650623536.103117,3378.000000,1650623536.102669,0.000000,0.000000,1.000000,0.000000,0.000000,0.000000,0.000000,1.584895,18.422362,1.133199
1650623536.202722,3379.000000,1650623536.202475,0.000000,0.000000,1.000000,0.000000,0.000000,0.000000,0.000000,1.597441,18.419675,1.103553
1650623536.302780,3380.000000,1650623536.302508,0.000000,0.000000,1.000000,0.000000,0.000000,0.000000,0.000000,1.603623,18.417157,1.094590
1650623536.402786,3381.000000,1650623536.402504,0.000000,0.000000,1.000000,0.000000,0.000000,0.000000,0.000000,1.598330,18.415896,1.082098
1650623536.502681,3382.000000,1650623536.502460,0.000000,0.000000,1.000000,0.000000,0.000000,0.000000,0.000000,1.590941,18.415826,1.074301
1650623536.602702,3383.000000,1650623536.602526,0.000000,0.000000,1.000000,0.000000,0.000000,0.000000,0.000000,1.579424,18.416881,1.076659
1650623536.702619,3384.000000,1650623536.702422,0.000000,0.000000,1.000000,0.000000,0.000000,0.000000,0.000000,1.569501,18.418993,1.074237
1650623536.802919,3385.000000,1650623536.802672,0.000000,0.000000,1.000000,0.000000,0.000000,0.000000,0.000000,1.562215,18.419917,1.085773
1650623536.903052,3386.000000,1650623536.902600,0.000000,0.000000,1.000000,0.000000,0.000000,0.000000,0.000000,1.557450,18.421894,1.104228
1650623537.002682,3387.000000,1650623537.002491,0.000000,0.000000,1.000000,0.000000,0.000000,0.000000,0.000000,1.548544,18.423769,1.130092
1650623537.103012,3388.000000,1650623537.102836,0.000000,0.000000,1.000000,0.000000,0.000000,0.000000,0.000000,1.540115,18.423361,1.147697
1650623537.202734,3389.000000,1650623537.202508,0.000000,0.000000,1.000000,0.000000,0.000000,0.000000,0.000000,1.535435,18.424067,1.150085
1650623537.302366,3390.000000,1650623537.302182,0.000000,0.000000,1.000000,0.000000,0.000000,0.000000,0.000000,1.533223,18.424733,1.166092
1650623537.402390,3391.000000,1650623537.402232,0.000000,0.000000,1.000000,0.000000,0.000000,0.000000,0.000000,1.525717,18.425360,1.183045
1650623537.502448,3392.000000,1650623537.502247,0.000000,0.000000,1.000000,0.000000,0.000000,0.000000,0.000000,1.518679,18.427038,1.196844
1650623537.602402,3393.000000,1650623537.602242,0.000000,0.000000,1.000000,0.000000,0.000000,0.000000,0.000000,1.513193,18.428614,1.218888
1650623537.702447,3394.000000,1650623537.702247,0.000000,0.000000,1.000000,0.000000,0.000000,0.000000,0.000000,1.515728,18.427910,1.236711
1650623537.802389,3395.000000,1650623537.802237,0.000000,0.000000,1.000000,0.000000,0.000000,0.000000,0.000000,1.522565,18.427232,1.239974
1650623537.902427,3396.000000,1650623537.902259,0.000000,0.000000,1.000000,0.000000,0.000000,0.000000,0.000000,1.524718,18.426583,1.254265
1650623538.002402,3397.000000,1650623538.002234,0.000000,0.000000,1.000000,0.000000,0.000000,0.000000,0.000000,1.538790,18.423783,1.212184
1650623538.102397,3398.000000,1650623538.102242,0.000000,0.000000,1.000000,0.000000,0.000000,0.000000,0.000000,1.546639,18.422228,1.188662
1650623538.202385,3399.000000,1650623538.202232,0.000000,0.000000,1.000000,0.000000,0.000000,0.000000,0.000000,1.551850,18.421857,1.174930
1650623538.302396,3400.000000,1650623538.302243,0.000000,0.000000,1.000000,0.000000,0.000000,0.000000,0.000000,1.557823,18.421514,1.147229
1650623538.402359,3401.000000,1650623538.402162,0.000000,0.000000,1.000000,0.000000,0.000000,0.000000,0.000000,1.561229,18.421200,1.142462
1650623538.502458,3402.000000,1650623538.502254,0.000000,0.000000,1.000000,0.000000,0.000000,0.000000,0.000000,1.563292,18.420911,1.151645
1650623538.602398,3403.000000,1650623538.602235,0.000000,0.000000,1.000000,0.000000,0.000000,0.000000,0.000000,1.561901,18.419559,1.147585
1650623538.702397,3404.000000,1650623538.702211,0.000000,0.000000,1.000000,0.000000,0.000000,0.000000,0.000000,1.559433,18.419384,1.153402
1650623538.802349,3405.000000,1650623538.802194,0.000000,0.000000,1.000000,0.000000,0.000000,0.000000,0.000000,1.557049,18.420322,1.160623
1650623538.902394,3406.000000,1650623538.902238,0.000000,0.000000,1.000000,0.000000,0.000000,0.000000,0.000000,1.544941,18.420129,1.179662
1650623539.002333,3407.000000,1650623539.002176,0.000000,0.000000,1.000000,0.000000,0.000000,0.000000,0.000000,1.532403,18.421046,1.201138
1650623539.102348,3408.000000,1650623539.102193,0.000000,0.000000,1.000000,0.000000,0.000000,0.000000,0.000000,1.522769,18.421919,1.231369
1650623539.202358,3409.000000,1650623539.202206,0.000000,0.000000,1.000000,0.000000,0.000000,0.000000,0.000000,1.512636,18.422748,1.263502
1650623539.302375,3410.000000,1650623539.302198,0.000000,0.000000,1.000000,0.000000,0.000000,0.000000,0.000000,1.507513,18.422442,1.286926
1650623539.402409,3411.000000,1650623539.402231,0.000000,0.000000,1.000000,0.000000,0.000000,0.000000,0.000000,1.508228,18.422154,1.295508
1650623539.502495,3412.000000,1650623539.502287,0.000000,0.000000,1.000000,0.000000,0.000000,0.000000,0.000000,1.510091,18.420794,1.303548
1650623539.602381,3413.000000,1650623539.602212,0.000000,0.000000,1.000000,0.000000,0.000000,0.000000,0.000000,1.507579,18.419514,1.316709
1650623539.702363,3414.000000,1650623539.702202,0.000000,0.000000,1.000000,0.000000,0.000000,0.000000,0.000000,1.505292,18.419404,1.333963
1650623539.802382,3415.000000,1650623539.802225,0.000000,0.000000,1.000000,0.000000,0.000000,0.000000,0.000000,1.503222,18.419309,1.355126
1650623539.902613,3416.000000,1650623539.902411,0.000000,0.000000,1.000000,0.000000,0.000000,0.000000,0.000000,1.498086,18.420320,1.360659
1650623540.002390,3417.000000,1650623540.002192,0.000000,0.000000,1.000000,0.000000,0.000000,0.000000,0.000000,1.493333,18.421282,1.343935
1650623540.102592,3418.000000,1650623540.102331,0.000000,0.000000,1.000000,0.000000,0.000000,0.000000,0.000000,1.488951,18.422193,1.330084
1650623540.202436,3419.000000,1650623540.202209,0.000000,0.000000,1.000000,0.000000,0.000000,0.000000,0.000000,1.481657,18.423054,1.308540
1650623540.302410,3420.000000,1650623540.302224,0.000000,0.000000,1.000000,0.000000,0.000000,0.000000,0.000000,1.472716,18.422775,1.300625
1650623540.402445,3421.000000,1650623540.402247,0.000000,0.000000,1.000000,0.000000,0.000000,0.000000,0.000000,1.456785,18.423599,1.283227
1650623540.502437,3422.000000,1650623540.502241,0.000000,0.000000,1.000000,0.000000,0.000000,0.000000,0.000000,1.444099,18.424373,1.280958
1650623540.602548,3423.000000,1650623540.602387,0.000000,0.000000,1.000000,0.000000,0.000000,0.000000,0.000000,1.454139,18.421828,1.230312
1650623540.702445,3424.000000,1650623540.702253,0.000000,0.000000,1.000000,0.000000,0.000000,0.000000,0.000000,1.463813,18.420512,1.194619
1650623540.802376,3425.000000,1650623540.802166,0.000000,0.000000,1.000000,0.000000,0.000000,0.000000,0.000000,1.477461,18.417094,1.169304
1650623540.902675,3426.000000,1650623540.902421,0.000000,0.000000,1.000000,0.000000,0.000000,0.000000,0.000000,1.485004,18.414968,1.162859
1650623541.002482,3427.000000,1650623541.002244,0.000000,0.000000,1.000000,0.000000,0.000000,0.000000,0.000000,1.487835,18.414070,1.165659
1650623541.102470,3428.000000,1650623541.102252,0.000000,0.000000,1.000000,0.000000,0.000000,0.000000,0.000000,1.493830,18.413244,1.170872
1650623541.202433,3429.000000,1650623541.202247,0.000000,0.000000,1.000000,0.000000,0.000000,0.000000,0.000000,1.497344,18.413578,1.179192
1650623541.302433,3430.000000,1650623541.302280,0.000000,0.000000,1.000000,0.000000,0.000000,0.000000,0.000000,1.524670,18.409555,1.135637
1650623541.402415,3431.000000,1650623541.402245,0.000000,0.000000,1.000000,0.000000,0.000000,0.000000,0.000000,1.540620,18.407965,1.108499
1650623541.502413,3432.000000,1650623541.502245,0.000000,0.000000,1.000000,0.000000,0.000000,0.000000,0.000000,1.554492,18.406499,1.097961
1650623541.602382,3433.000000,1650623541.602214,0.000000,0.000000,1.000000,0.000000,0.000000,0.000000,0.000000,1.559819,18.406242,1.096914
1650623541.702664,3434.000000,1650623541.702418,0.000000,0.000000,1.000000,0.000000,0.000000,0.000000,0.000000,1.559241,18.406036,1.104162
1650623541.802415,3435.000000,1650623541.802238,0.000000,0.000000,1.000000,0.000000,0.000000,0.000000,0.000000,1.559632,18.406968,1.117738
1650623541.902408,3436.000000,1650623541.902237,0.000000,0.000000,1.000000,0.000000,0.000000,0.000000,0.000000,1.556586,18.407881,1.143001
1650623542.002375,3437.000000,1650623542.002223,0.000000,0.000000,1.000000,0.000000,0.000000,0.000000,0.000000,1.547036,18.408770,1.170562
1650623542.102760,3438.000000,1650623542.102561,0.000000,0.000000,1.000000,0.000000,0.000000,0.000000,0.000000,1.535737,18.408543,1.201082
1650623542.202362,3439.000000,1650623542.202184,0.000000,0.000000,1.000000,0.000000,0.000000,0.000000,0.000000,1.521733,18.409440,1.230358
1650623542.302366,3440.000000,1650623542.302197,0.000000,0.000000,1.000000,0.000000,0.000000,0.000000,0.000000,1.510670,18.410306,1.253552
1650623542.402413,3441.000000,1650623542.402272,0.000000,0.000000,1.000000,0.000000,0.000000,0.000000,0.000000,1.501334,18.412228,1.277324
1650623542.502440,3442.000000,1650623542.502279,0.000000,0.000000,1.000000,0.000000,0.000000,0.000000,0.000000,1.492567,18.414053,1.289517
1650623542.602443,3443.000000,1650623542.602264,0.000000,0.000000,1.000000,0.000000,0.000000,0.000000,0.000000,1.483272,18.415779,1.308326
1650623542.702414,3444.000000,1650623542.702237,0.000000,0.000000,1.000000,0.000000,0.000000,0.000000,0.000000,1.475682,18.418497,1.329426
1650623542.802797,3445.000000,1650623542.802587,0.000000,0.000000,1.000000,0.000000,0.000000,0.000000,0.000000,1.476265,18.421054,1.353502
1650623542.902730,3446.000000,1650623542.902565,0.000000,0.000000,1.000000,0.000000,0.000000,0.000000,0.000000,1.476934,18.422361,1.361855
1650623543.002743,3447.000000,1650623543.002540,0.000000,0.000000,1.000000,0.000000,0.000000,0.000000,0.000000,1.477676,18.423573,1.376081
1650623543.102859,3448.000000,1650623543.102636,0.000000,0.000000,1.000000,0.000000,0.000000,0.000000,0.000000,1.483928,18.424694,1.396736
1650623543.202735,3449.000000,1650623543.202555,0.000000,0.000000,1.000000,0.000000,0.000000,0.000000,0.000000,1.488825,18.425726,1.418698
1650623543.302662,3450.000000,1650623543.302473,0.000000,0.000000,1.000000,0.000000,0.000000,0.000000,0.000000,1.490238,18.426672,1.443502
1650623543.402453,3451.000000,1650623543.402289,0.000000,0.000000,1.000000,0.000000,0.000000,0.000000,0.000000,1.513429,18.423175,1.415359
1650623543.502455,3452.000000,1650623543.502305,0.000000,0.000000,1.000000,0.000000,0.000000,0.000000,0.000000,1.532058,18.422031,1.392916
1650623543.602390,3453.000000,1650623543.602207,0.000000,0.000000,1.000000,0.000000,0.000000,0.000000,0.000000,1.551767,18.422026,1.379219
1650623543.702385,3454.000000,1650623543.702244,0.000000,0.000000,1.000000,0.000000,0.000000,0.000000,0.000000,1.554994,18.422009,1.370722
1650623543.802400,3455.000000,1650623543.802258,0.000000,0.000000,1.000000,0.000000,0.000000,0.000000,0.000000,1.554630,18.423072,1.369658
1650623543.902386,3456.000000,1650623543.902242,0.000000,0.000000,1.000000,0.000000,0.000000,0.000000,0.000000,1.550879,18.424062,1.365251
1650623544.002365,3457.000000,1650623544.002223,0.000000,0.000000,1.000000,0.000000,0.000000,0.000000,0.000000,1.547217,18.424982,1.363296
1650623544.102451,3458.000000,1650623544.102282,0.000000,0.000000,1.000000,0.000000,0.000000,0.000000,0.000000,1.550200,18.424742,1.354026
1650623544.202435,3459.000000,1650623544.202275,0.000000,0.000000,1.000000,0.000000,0.000000,0.000000,0.000000,1.549648,18.424499,1.320822
1650623544.302423,3460.000000,1650623544.302269,0.000000,0.000000,1.000000,0.000000,0.000000,0.000000,0.000000,1.553394,18.424254,1.308258
1650623544.402434,3461.000000,1650623544.402285,0.000000,0.000000,1.000000,0.000000,0.000000,0.000000,0.000000,1.554655,18.424009,1.308267
1650623544.502473,3462.000000,1650623544.502299,0.000000,0.000000,1.000000,0.000000,0.000000,0.000000,0.000000,1.552478,18.424856,1.311474
1650623544.602392,3463.000000,1650623544.602237,0.000000,0.000000,1.000000,0.000000,0.000000,0.000000,0.000000,1.547063,18.426734,1.307260
1650623544.702360,3464.000000,1650623544.702215,0.000000,0.000000,1.000000,0.000000,0.000000,0.000000,0.000000,1.544060,18.428490,1.304805
1650623544.802429,3465.000000,1650623544.802279,0.000000,0.000000,1.000000,0.000000,0.000000,0.000000,0.000000,1.537900,18.431217,1.293559
1650623544.902556,3466.000000,1650623544.902342,0.000000,0.000000,1.000000,0.000000,0.000000,0.000000,0.000000,1.552763,18.430494,1.222283
1650623545.002421,3467.000000,1650623545.002254,0.000000,0.000000,1.000000,0.000000,0.000000,0.000000,0.000000,1.563473,18.428694,1.182228
1650623545.102407,3468.000000,1650623545.102244,0.000000,0.000000,1.000000,0.000000,0.000000,0.000000,0.000000,1.566954,18.426972,1.166552
1650623545.202420,3469.000000,1650623545.202253,0.000000,0.000000,1.000000,0.000000,0.000000,0.000000,0.000000,1.561415,18.426421,1.149292
1650623545.302394,3470.000000,1650623545.302239,0.000000,0.000000,1.000000,0.000000,0.000000,0.000000,0.000000,1.552822,18.425890,1.149887
1650623545.402442,3471.000000,1650623545.402293,0.000000,0.000000,1.000000,0.000000,0.000000,0.000000,0.000000,1.547916,18.426471,1.165189
1650623545.502434,3472.000000,1650623545.502299,0.000000,0.000000,1.000000,0.000000,0.000000,0.000000,0.000000,1.536701,18.425920,1.182471
1650623545.602395,3473.000000,1650623545.602267,0.000000,0.000000,1.000000,0.000000,0.000000,0.000000,0.000000,1.528281,18.425391,1.204038
1650623545.702449,3474.000000,1650623545.702276,0.000000,0.000000,1.000000,0.000000,0.000000,0.000000,0.000000,1.518169,18.424887,1.221609
1650623545.802433,3475.000000,1650623545.802273,0.000000,0.000000,1.000000,0.000000,0.000000,0.000000,0.000000,1.507577,18.424406,1.244988
1650623545.902411,3476.000000,1650623545.902261,0.000000,0.000000,1.000000,0.000000,0.000000,0.000000,0.000000,1.499833,18.423951,1.272288
1650623546.002420,3477.000000,1650623546.002274,0.000000,0.000000,1.000000,0.000000,0.000000,0.000000,0.000000,1.489348,18.424610,1.290398
1650623546.102432,3478.000000,1650623546.102280,0.000000,0.000000,1.000000,0.000000,0.000000,0.000000,0.000000,1.485022,18.426322,1.290789
1650623546.202445,3479.000000,1650623546.202295,0.000000,0.000000,1.000000,0.000000,0.000000,0.000000,0.000000,1.486526,18.429024,1.299176
1650623546.302419,3480.000000,1650623546.302272,0.000000,0.000000,1.000000,0.000000,0.000000,0.000000,0.000000,1.480443,18.431563,1.303935
1650623546.402415,3481.000000,1650623546.402271,0.000000,0.000000,1.000000,0.000000,0.000000,0.000000,0.000000,1.472651,18.433941,1.310045
1650623546.502754,3482.000000,1650623546.502496,0.000000,0.000000,1.000000,0.000000,0.000000,0.000000,0.000000,1.464350,18.436161,1.312606
1650623546.602479,3483.000000,1650623546.602258,0.000000,0.000000,1.000000,0.000000,0.000000,0.000000,0.000000,1.458856,18.437136,1.315793
1650623546.702424,3484.000000,1650623546.702233,0.000000,0.000000,1.000000,0.000000,0.000000,0.000000,0.000000,1.454933,18.438022,1.318770
1650623546.802414,3485.000000,1650623546.802223,0.000000,0.000000,1.000000,0.000000,0.000000,0.000000,0.000000,1.452496,18.439915,1.317513
1650623546.902389,3486.000000,1650623546.902202,0.000000,0.000000,1.000000,0.000000,0.000000,0.000000,0.000000,1.455825,18.441664,1.318650
1650623547.002366,3487.000000,1650623547.002202,0.000000,0.000000,1.000000,0.000000,0.000000,0.000000,0.000000,1.460222,18.441095,1.314826
1650623547.102772,3488.000000,1650623547.102530,0.000000,0.000000,1.000000,0.000000,0.000000,0.000000,0.000000,1.490685,18.437247,1.262705
1650623547.202382,3489.000000,1650623547.202188,0.000000,0.000000,1.000000,0.000000,0.000000,0.000000,0.000000,1.507526,18.433584,1.236096
1650623547.302723,3490.000000,1650623547.302457,0.000000,0.000000,1.000000,0.000000,0.000000,0.000000,0.000000,1.515796,18.431199,1.215469
1650623547.402457,3491.000000,1650623547.402286,0.000000,0.000000,1.000000,0.000000,0.000000,0.000000,0.000000,1.515934,18.430031,1.196581
1650623547.502338,3492.000000,1650623547.502159,0.000000,0.000000,1.000000,0.000000,0.000000,0.000000,0.000000,1.521473,18.427838,1.182616
1650623547.602379,3493.000000,1650623547.602205,0.000000,0.000000,1.000000,0.000000,0.000000,0.000000,0.000000,1.524469,18.426861,1.177426
1650623547.702410,3494.000000,1650623547.702215,0.000000,0.000000,1.000000,0.000000,0.000000,0.000000,0.000000,1.533778,18.425948,1.187918
1650623547.802433,3495.000000,1650623547.802296,0.000000,0.000000,1.000000,0.000000,0.000000,0.000000,0.000000,1.534857,18.426187,1.206985
1650623547.902376,3496.000000,1650623547.902238,0.000000,0.000000,1.000000,0.000000,0.000000,0.000000,0.000000,1.530335,18.427515,1.222145
1650623548.002379,3497.000000,1650623548.002243,0.000000,0.000000,1.000000,0.000000,0.000000,0.000000,0.000000,1.531442,18.427686,1.244819
1650623548.103125,3498.000000,1650623548.102896,0.000000,0.000000,1.000000,0.000000,0.000000,0.000000,0.000000,1.529147,18.428943,1.264177
1650623548.202852,3499.000000,1650623548.202629,0.000000,0.000000,1.000000,0.000000,0.000000,0.000000,0.000000,1.549818,18.425772,1.235159
1650623548.302806,3500.000000,1650623548.302599,0.000000,0.000000,1.000000,0.000000,0.000000,0.000000,0.000000,1.567061,18.423874,1.227507
1650623548.402839,3501.000000,1650623548.402643,0.000000,0.000000,1.000000,0.000000,0.000000,0.000000,0.000000,1.582108,18.423186,1.229079
1650623548.502723,3502.000000,1650623548.502558,0.000000,0.000000,1.000000,0.000000,0.000000,0.000000,0.000000,1.589588,18.422554,1.229823
1650623548.602737,3503.000000,1650623548.602571,0.000000,0.000000,1.000000,0.000000,0.000000,0.000000,0.000000,1.595353,18.421974,1.244286
1650623548.702803,3504.000000,1650623548.702592,0.000000,0.000000,1.000000,0.000000,0.000000,0.000000,0.000000,1.598401,18.421445,1.258984
1650623548.802796,3505.000000,1650623548.802564,0.000000,0.000000,1.000000,0.000000,0.000000,0.000000,0.000000,1.597793,18.420964,1.275496
1650623548.903071,3506.000000,1650623548.902675,0.000000,0.000000,1.000000,0.000000,0.000000,0.000000,0.000000,1.616640,18.418349,1.225172
1650623549.002740,3507.000000,1650623549.002536,0.000000,0.000000,1.000000,0.000000,0.000000,0.000000,0.000000,1.633118,18.416995,1.197891
1650623549.102443,3508.000000,1650623549.102275,0.000000,0.000000,1.000000,0.000000,0.000000,0.000000,0.000000,1.646228,18.416834,1.191155
1650623549.202436,3509.000000,1650623549.202254,0.000000,0.000000,1.000000,0.000000,0.000000,0.000000,0.000000,1.650677,18.416711,1.190435
1650623549.302424,3510.000000,1650623549.302245,0.000000,0.000000,1.000000,0.000000,0.000000,0.000000,0.000000,1.653484,18.416621,1.200322
1650623549.402459,3511.000000,1650623549.402272,0.000000,0.000000,1.000000,0.000000,0.000000,0.000000,0.000000,1.653655,18.417654,1.217950
1650623549.502454,3512.000000,1650623549.502278,0.000000,0.000000,1.000000,0.000000,0.000000,0.000000,0.000000,1.649172,18.418651,1.240555
1650623549.602466,3513.000000,1650623549.602280,0.000000,0.000000,1.000000,0.000000,0.000000,0.000000,0.000000,1.645770,18.418521,1.252572
1650623549.702751,3514.000000,1650623549.702382,0.000000,0.000000,1.000000,0.000000,0.000000,0.000000,0.000000,1.635783,18.418414,1.263280
1650623549.802513,3515.000000,1650623549.802335,0.000000,0.000000,1.000000,0.000000,0.000000,0.000000,0.000000,1.622885,18.418329,1.276745
1650623549.902398,3516.000000,1650623549.902227,0.000000,0.000000,1.000000,0.000000,0.000000,0.000000,0.000000,1.609467,18.419354,1.290417
1650623550.002490,3517.000000,1650623550.002318,0.000000,0.000000,1.000000,0.000000,0.000000,0.000000,0.000000,1.594516,18.420334,1.299427
1650623550.102506,3518.000000,1650623550.102309,0.000000,0.000000,1.000000,0.000000,0.000000,0.000000,0.000000,1.583620,18.421268,1.313629
1650623550.202472,3519.000000,1650623550.202278,0.000000,0.000000,1.000000,0.000000,0.000000,0.000000,0.000000,1.570052,18.422155,1.330374
1650623550.302378,3520.000000,1650623550.302218,0.000000,0.000000,1.000000,0.000000,0.000000,0.000000,0.000000,1.558362,18.422995,1.343084
1650623550.402369,3521.000000,1650623550.402215,0.000000,0.000000,1.000000,0.000000,0.000000,0.000000,0.000000,1.550661,18.424878,1.340614
1650623550.502760,3522.000000,1650623550.502413,0.000000,0.000000,1.000000,0.000000,0.000000,0.000000,0.000000,1.544571,18.425560,1.343750
1650623550.602439,3523.000000,1650623550.602267,0.000000,0.000000,1.000000,0.000000,0.000000,0.000000,0.000000,1.548742,18.425106,1.339362
1650623550.702477,3524.000000,1650623550.702298,0.000000,0.000000,1.000000,0.000000,0.000000,0.000000,0.000000,1.562593,18.422488,1.286638
1650623550.802409,3525.000000,1650623550.802232,0.000000,0.000000,1.000000,0.000000,0.000000,0.000000,0.000000,1.582279,18.420014,1.245685
1650623550.902529,3526.000000,1650623550.902328,0.000000,0.000000,1.000000,0.000000,0.000000,0.000000,0.000000,1.600873,18.417683,1.208842
1650623551.002400,3527.000000,1650623551.002229,0.000000,0.000000,1.000000,0.000000,0.000000,0.000000,0.000000,1.611836,18.416587,1.190519
1650623551.102422,3528.000000,1650623551.102246,0.000000,0.000000,1.000000,0.000000,0.000000,0.000000,0.000000,1.616643,18.416658,1.185965
1650623551.202464,3529.000000,1650623551.202283,0.000000,0.000000,1.000000,0.000000,0.000000,0.000000,0.000000,1.610170,18.417833,1.176079
1650623551.302531,3530.000000,1650623551.302356,0.000000,0.000000,1.000000,0.000000,0.000000,0.000000,0.000000,1.617045,18.415686,1.116733
1650623551.402772,3531.000000,1650623551.402581,0.000000,0.000000,1.000000,0.000000,0.000000,0.000000,0.000000,1.613627,18.414764,1.077756
1650623551.502775,3532.000000,1650623551.502587,0.000000,0.000000,1.000000,0.000000,0.000000,0.000000,0.000000,1.608127,18.413913,1.063222
1650623551.602729,3533.000000,1650623551.602492,0.000000,0.000000,1.000000,0.000000,0.000000,0.000000,0.000000,1.601771,18.414220,1.060062
1650623551.702777,3534.000000,1650623551.702532,0.000000,0.000000,1.000000,0.000000,0.000000,0.000000,0.000000,1.605532,18.412350,1.013778
1650623551.802717,3535.000000,1650623551.802475,0.000000,0.000000,1.000000,0.000000,0.000000,0.000000,0.000000,1.606856,18.410605,0.996335
1650623551.902715,3536.000000,1650623551.902545,0.000000,0.000000,1.000000,0.000000,0.000000,0.000000,0.000000,1.602604,18.408985,1.000134
1650623552.002726,3537.000000,1650623552.002545,0.000000,0.000000,1.000000,0.000000,0.000000,0.000000,0.000000,1.600728,18.408574,1.016231
1650623552.103291,3538.000000,1650623552.102987,0.000000,0.000000,1.000000,0.000000,0.000000,0.000000,0.000000,1.600017,18.407127,1.024733
1650623552.202904,3539.000000,1650623552.202732,0.000000,0.000000,1.000000,0.000000,0.000000,0.000000,0.000000,1.598230,18.405793,1.044469
