__time,/dwm1001/id_458E/pose_kf/header/seq,/dwm1001/id_458E/pose_kf/header/stamp,/dwm1001/id_458E/pose_kf/pose/orientation/pitch_deg,/dwm1001/id_458E/pose_kf/pose/orientation/roll_deg,/dwm1001/id_458E/pose_kf/pose/orientation/w,/dwm1001/id_458E/pose_kf/pose/orientation/x,/dwm1001/id_458E/pose_kf/pose/orientation/y,/dwm1001/id_458E/pose_kf/pose/orientation/yaw_deg,/dwm1001/id_458E/pose_kf/pose/orientation/z,/dwm1001/id_458E/pose_kf/pose/position/x,/dwm1001/id_458E/pose_kf/pose/position/y,/dwm1001/id_458E/pose_kf/pose/position/z
1649933893.114904,4225.000000,1649933893.114676,0.000000,0.000000,1.000000,0.000000,0.000000,0.000000,0.000000,1.519395,8.026320,0.138057
1649933893.214435,4226.000000,1649933893.214274,0.000000,0.000000,1.000000,0.000000,0.000000,0.000000,0.000000,1.516662,8.026042,0.139176
1649933893.314427,4227.000000,1649933893.314266,0.000000,0.000000,1.000000,0.000000,0.000000,0.000000,0.000000,1.512004,8.026847,0.157109
1649933893.414975,4228.000000,1649933893.414606,0.000000,0.000000,1.000000,0.000000,0.000000,0.000000,0.000000,1.520800,8.023223,0.141957
1649933893.514501,4229.000000,1649933893.514306,0.000000,0.000000,1.000000,0.000000,0.000000,0.000000,0.000000,1.509571,8.026327,0.147504
1649933893.614613,4230.000000,1649933893.614443,0.000000,0.000000,1.000000,0.000000,0.000000,0.000000,0.000000,1.515421,8.023789,0.124522
1649933893.714842,4231.000000,1649933893.714647,0.000000,0.000000,1.000000,0.000000,0.000000,0.000000,0.000000,1.507956,8.025740,0.129849
1649933893.814606,4232.000000,1649933893.814461,0.000000,0.000000,1.000000,0.000000,0.000000,0.000000,0.000000,1.516268,8.024297,0.116367
1649933893.914583,4233.000000,1649933893.914444,0.000000,0.000000,1.000000,0.000000,0.000000,0.000000,0.000000,1.534014,8.018560,0.080021
1649933894.014725,4234.000000,1649933894.014603,0.000000,0.000000,1.000000,0.000000,0.000000,0.000000,0.000000,1.540993,8.016414,0.064538
1649933894.114403,4235.000000,1649933894.114301,0.000000,0.000000,1.000000,0.000000,0.000000,0.000000,0.000000,1.555216,8.011128,0.071519
1649933894.215356,4236.000000,1649933894.215167,0.000000,0.000000,1.000000,0.000000,0.000000,0.000000,0.000000,1.567519,8.006159,0.096014
1649933894.314605,4237.000000,1649933894.314458,0.000000,0.000000,1.000000,0.000000,0.000000,0.000000,0.000000,1.587786,7.998233,0.088884
1649933894.415150,4238.000000,1649933894.415044,0.000000,0.000000,1.000000,0.000000,0.000000,0.000000,0.000000,1.607891,7.990805,0.107063
1649933894.514446,4239.000000,1649933894.514313,0.000000,0.000000,1.000000,0.000000,0.000000,0.000000,0.000000,1.625608,7.983867,0.142238
1649933894.614657,4240.000000,1649933894.614516,0.000000,0.000000,1.000000,0.000000,0.000000,0.000000,0.000000,1.647565,7.976319,0.142055
1649933894.714837,4241.000000,1649933894.714695,0.000000,0.000000,1.000000,0.000000,0.000000,0.000000,0.000000,1.640764,7.978026,0.163586
1649933894.814824,4242.000000,1649933894.814633,0.000000,0.000000,1.000000,0.000000,0.000000,0.000000,0.000000,1.647156,7.975387,0.152696
1649933894.914813,4243.000000,1649933894.914618,0.000000,0.000000,1.000000,0.000000,0.000000,0.000000,0.000000,1.645298,7.975182,0.156683
1649933895.015258,4244.000000,1649933895.015152,0.000000,0.000000,1.000000,0.000000,0.000000,0.000000,0.000000,1.625849,7.981635,0.174137
1649933895.114862,4245.000000,1649933895.114641,0.000000,0.000000,1.000000,0.000000,0.000000,0.000000,0.000000,1.607289,7.988905,0.203683
1649933895.214772,4246.000000,1649933895.214603,0.000000,0.000000,1.000000,0.000000,0.000000,0.000000,0.000000,1.574371,8.001281,0.235111
1649933895.314530,4247.000000,1649933895.314393,0.000000,0.000000,1.000000,0.000000,0.000000,0.000000,0.000000,1.561789,8.006450,0.228781
1649933895.414473,4248.000000,1649933895.414277,0.000000,0.000000,1.000000,0.000000,0.000000,0.000000,0.000000,1.565204,8.006968,0.195106
1649933895.514458,4249.000000,1649933895.514311,0.000000,0.000000,1.000000,0.000000,0.000000,0.000000,0.000000,1.559743,8.009629,0.192510
1649933895.614562,4250.000000,1649933895.614426,0.000000,0.000000,1.000000,0.000000,0.000000,0.000000,0.000000,1.568802,8.007767,0.163298
1649933895.714541,4251.000000,1649933895.714363,0.000000,0.000000,1.000000,0.000000,0.000000,0.000000,0.000000,1.557758,8.012538,0.158598
1649933895.814920,4252.000000,1649933895.814771,0.000000,0.000000,1.000000,0.000000,0.000000,0.000000,0.000000,1.533190,8.021386,0.169367
1649933895.914862,4253.000000,1649933895.914599,0.000000,0.000000,1.000000,0.000000,0.000000,0.000000,0.000000,1.508995,8.030792,0.198191
1649933896.014632,4254.000000,1649933896.014466,0.000000,0.000000,1.000000,0.000000,0.000000,0.000000,0.000000,1.478679,8.041788,0.236232
1649933896.114739,4255.000000,1649933896.114522,0.000000,0.000000,1.000000,0.000000,0.000000,0.000000,0.000000,1.469920,8.045535,0.234670
1649933896.214771,4256.000000,1649933896.214595,0.000000,0.000000,1.000000,0.000000,0.000000,0.000000,0.000000,1.458656,8.048965,0.251563
1649933896.314959,4257.000000,1649933896.314780,0.000000,0.000000,1.000000,0.000000,0.000000,0.000000,0.000000,1.436321,8.056452,0.282114
1649933896.414826,4258.000000,1649933896.414631,0.000000,0.000000,1.000000,0.000000,0.000000,0.000000,0.000000,1.433008,8.056854,0.285403
1649933896.515181,4259.000000,1649933896.514952,0.000000,0.000000,1.000000,0.000000,0.000000,0.000000,0.000000,1.412781,8.063648,0.307697
1649933896.615377,4260.000000,1649933896.615222,0.000000,0.000000,1.000000,0.000000,0.000000,0.000000,0.000000,1.408225,8.065569,0.343360
1649933896.714479,4261.000000,1649933896.714352,0.000000,0.000000,1.000000,0.000000,0.000000,0.000000,0.000000,1.419568,8.061793,0.338579
1649933896.814970,4262.000000,1649933896.814773,0.000000,0.000000,1.000000,0.000000,0.000000,0.000000,0.000000,1.441524,8.054832,0.306294
1649933896.914690,4263.000000,1649933896.914540,0.000000,0.000000,1.000000,0.000000,0.000000,0.000000,0.000000,1.450530,8.052521,0.299294
1649933897.014774,4264.000000,1649933897.014606,0.000000,0.000000,1.000000,0.000000,0.000000,0.000000,0.000000,1.472327,8.045895,0.265773
1649933897.114705,4265.000000,1649933897.114514,0.000000,0.000000,1.000000,0.000000,0.000000,0.000000,0.000000,1.497416,8.037397,0.262510
1649933897.214579,4266.000000,1649933897.214406,0.000000,0.000000,1.000000,0.000000,0.000000,0.000000,0.000000,1.529893,8.028248,0.231039
1649933897.314544,4267.000000,1649933897.314381,0.000000,0.000000,1.000000,0.000000,0.000000,0.000000,0.000000,1.547444,8.022875,0.216909
1649933897.414716,4268.000000,1649933897.414523,0.000000,0.000000,1.000000,0.000000,0.000000,0.000000,0.000000,1.570458,8.014547,0.179932
1649933897.514686,4269.000000,1649933897.514526,0.000000,0.000000,1.000000,0.000000,0.000000,0.000000,0.000000,1.583306,8.011082,0.167060
1649933897.614946,4270.000000,1649933897.614694,0.000000,0.000000,1.000000,0.000000,0.000000,0.000000,0.000000,1.581061,8.012224,0.162019
1649933897.714831,4271.000000,1649933897.714652,0.000000,0.000000,1.000000,0.000000,0.000000,0.000000,0.000000,1.563474,8.018806,0.172566
1649933897.814395,4272.000000,1649933897.814265,0.000000,0.000000,1.000000,0.000000,0.000000,0.000000,0.000000,1.547803,8.022874,0.193211
1649933897.914486,4273.000000,1649933897.914362,0.000000,0.000000,1.000000,0.000000,0.000000,0.000000,0.000000,1.549267,8.022370,0.180770
1649933898.014559,4274.000000,1649933898.014410,0.000000,0.000000,1.000000,0.000000,0.000000,0.000000,0.000000,1.560389,8.017545,0.155952
1649933898.114507,4275.000000,1649933898.114323,0.000000,0.000000,1.000000,0.000000,0.000000,0.000000,0.000000,1.568618,8.015191,0.156394
1649933898.215454,4276.000000,1649933898.215232,0.000000,0.000000,1.000000,0.000000,0.000000,0.000000,0.000000,1.568641,8.015178,0.163331
1649933898.314726,4277.000000,1649933898.314552,0.000000,0.000000,1.000000,0.000000,0.000000,0.000000,0.000000,1.556550,8.018469,0.178908
1649933898.414771,4278.000000,1649933898.414591,0.000000,0.000000,1.000000,0.000000,0.000000,0.000000,0.000000,1.535231,8.024870,0.211619
1649933898.514823,4279.000000,1649933898.514633,0.000000,0.000000,1.000000,0.000000,0.000000,0.000000,0.000000,1.509618,8.032010,0.253458
1649933898.614753,4280.000000,1649933898.614516,0.000000,0.000000,1.000000,0.000000,0.000000,0.000000,0.000000,1.487660,8.039828,0.303988
1649933898.714778,4281.000000,1649933898.714626,0.000000,0.000000,1.000000,0.000000,0.000000,0.000000,0.000000,1.469222,8.046081,0.351488
1649933898.814768,4282.000000,1649933898.814503,0.000000,0.000000,1.000000,0.000000,0.000000,0.000000,0.000000,1.471608,8.046476,0.355684
1649933898.914672,4283.000000,1649933898.914454,0.000000,0.000000,1.000000,0.000000,0.000000,0.000000,0.000000,1.463135,8.048969,0.376390
1649933899.015429,4284.000000,1649933899.015152,0.000000,0.000000,1.000000,0.000000,0.000000,0.000000,0.000000,1.454224,8.052350,0.399207
1649933899.114366,4285.000000,1649933899.114263,0.000000,0.000000,1.000000,0.000000,0.000000,0.000000,0.000000,1.459091,8.051111,0.433700
1649933899.214289,4286.000000,1649933899.214177,0.000000,0.000000,1.000000,0.000000,0.000000,0.000000,0.000000,1.476958,8.045513,0.426933
1649933899.314410,4287.000000,1649933899.314291,0.000000,0.000000,1.000000,0.000000,0.000000,0.000000,0.000000,1.492875,8.040176,0.438661
1649933899.414752,4288.000000,1649933899.414589,0.000000,0.000000,1.000000,0.000000,0.000000,0.000000,0.000000,1.518886,8.030744,0.414905
1649933899.514704,4289.000000,1649933899.514585,0.000000,0.000000,1.000000,0.000000,0.000000,0.000000,0.000000,1.538001,8.024013,0.409570
1649933899.614808,4290.000000,1649933899.614622,0.000000,0.000000,1.000000,0.000000,0.000000,0.000000,0.000000,1.545084,8.022038,0.423547
1649933899.714724,4291.000000,1649933899.714584,0.000000,0.000000,1.000000,0.000000,0.000000,0.000000,0.000000,1.546225,8.022383,0.444755
1649933899.814791,4292.000000,1649933899.814584,0.000000,0.000000,1.000000,0.000000,0.000000,0.000000,0.000000,1.559197,8.018377,0.429328
1649933899.914841,4293.000000,1649933899.914638,0.000000,0.000000,1.000000,0.000000,0.000000,0.000000,0.000000,1.580049,8.011357,0.385234
1649933900.015001,4294.000000,1649933900.014848,0.000000,0.000000,1.000000,0.000000,0.000000,0.000000,0.000000,1.606113,8.002600,0.322585
1649933900.114680,4295.000000,1649933900.114549,0.000000,0.000000,1.000000,0.000000,0.000000,0.000000,0.000000,1.635945,7.992222,0.246274
1649933900.214518,4296.000000,1649933900.214376,0.000000,0.000000,1.000000,0.000000,0.000000,0.000000,0.000000,1.667079,7.981431,0.161822
1649933900.314674,4297.000000,1649933900.314520,0.000000,0.000000,1.000000,0.000000,0.000000,0.000000,0.000000,1.700456,7.970277,0.071311
1649933900.414975,4298.000000,1649933900.414839,0.000000,0.000000,1.000000,0.000000,0.000000,0.000000,0.000000,1.706434,7.968620,0.023516
1649933900.514958,4299.000000,1649933900.514732,0.000000,0.000000,1.000000,0.000000,0.000000,0.000000,0.000000,1.706142,7.969396,0.004685
1649933900.615148,4300.000000,1649933900.614855,0.000000,0.000000,1.000000,0.000000,0.000000,0.000000,0.000000,1.715215,7.965919,-0.036336
1649933900.714767,4301.000000,1649933900.714549,0.000000,0.000000,1.000000,0.000000,0.000000,0.000000,0.000000,1.699342,7.970416,-0.042955
1649933900.814852,4302.000000,1649933900.814655,0.000000,0.000000,1.000000,0.000000,0.000000,0.000000,0.000000,1.686125,7.974798,-0.030279
1649933900.915013,4303.000000,1649933900.914804,0.000000,0.000000,1.000000,0.000000,0.000000,0.000000,0.000000,1.668943,7.980139,-0.007997
1649933901.014858,4304.000000,1649933901.014667,0.000000,0.000000,1.000000,0.000000,0.000000,0.000000,0.000000,1.666620,7.980914,-0.018489
1649933901.114897,4305.000000,1649933901.114689,0.000000,0.000000,1.000000,0.000000,0.000000,0.000000,0.000000,1.674007,7.978453,-0.052368
1649933901.214822,4306.000000,1649933901.214640,0.000000,0.000000,1.000000,0.000000,0.000000,0.000000,0.000000,1.688386,7.972936,-0.102197
1649933901.314815,4307.000000,1649933901.314645,0.000000,0.000000,1.000000,0.000000,0.000000,0.000000,0.000000,1.707162,7.965632,-0.163236
1649933901.415873,4308.000000,1649933901.415638,0.000000,0.000000,1.000000,0.000000,0.000000,0.000000,0.000000,1.727872,7.956657,-0.230111
1649933901.515013,4309.000000,1649933901.514874,0.000000,0.000000,1.000000,0.000000,0.000000,0.000000,0.000000,1.751454,7.946123,-0.301690
1649933901.614656,4310.000000,1649933901.614532,0.000000,0.000000,1.000000,0.000000,0.000000,0.000000,0.000000,1.752619,7.943955,-0.331724
1649933901.714720,4311.000000,1649933901.714534,0.000000,0.000000,1.000000,0.000000,0.000000,0.000000,0.000000,1.747873,7.944241,-0.330738
1649933901.814547,4312.000000,1649933901.814385,0.000000,0.000000,1.000000,0.000000,0.000000,0.000000,0.000000,1.733216,7.949020,-0.316953
1649933901.914465,4313.000000,1649933901.914320,0.000000,0.000000,1.000000,0.000000,0.000000,0.000000,0.000000,1.727791,7.950391,-0.328842
1649933902.014497,4314.000000,1649933902.014320,0.000000,0.000000,1.000000,0.000000,0.000000,0.000000,0.000000,1.732218,7.948527,-0.358927
1649933902.114558,4315.000000,1649933902.114436,0.000000,0.000000,1.000000,0.000000,0.000000,0.000000,0.000000,1.725244,7.950147,-0.359679
1649933902.215039,4316.000000,1649933902.214912,0.000000,0.000000,1.000000,0.000000,0.000000,0.000000,0.000000,1.729335,7.948507,-0.380695
1649933902.314497,4317.000000,1649933902.314375,0.000000,0.000000,1.000000,0.000000,0.000000,0.000000,0.000000,1.723171,7.951417,-0.375184
1649933902.414615,4318.000000,1649933902.414482,0.000000,0.000000,1.000000,0.000000,0.000000,0.000000,0.000000,1.716065,7.954252,-0.345058
1649933902.514918,4319.000000,1649933902.514719,0.000000,0.000000,1.000000,0.000000,0.000000,0.000000,0.000000,1.701560,7.959184,-0.305098
1649933902.614839,4320.000000,1649933902.614651,0.000000,0.000000,1.000000,0.000000,0.000000,0.000000,0.000000,1.685565,7.966078,-0.256597
1649933902.714841,4321.000000,1649933902.714601,0.000000,0.000000,1.000000,0.000000,0.000000,0.000000,0.000000,1.666036,7.973714,-0.203229
1649933902.814865,4322.000000,1649933902.814691,0.000000,0.000000,1.000000,0.000000,0.000000,0.000000,0.000000,1.662858,7.976572,-0.185618
1649933902.915020,4323.000000,1649933902.914841,0.000000,0.000000,1.000000,0.000000,0.000000,0.000000,0.000000,1.669695,7.975995,-0.195106
1649933903.015382,4324.000000,1649933903.015192,0.000000,0.000000,1.000000,0.000000,0.000000,0.000000,0.000000,1.663082,7.978715,-0.193497
1649933903.114471,4325.000000,1649933903.114328,0.000000,0.000000,1.000000,0.000000,0.000000,0.000000,0.000000,1.668850,7.978000,-0.215122
1649933903.214488,4326.000000,1649933903.214330,0.000000,0.000000,1.000000,0.000000,0.000000,0.000000,0.000000,1.681944,7.975133,-0.252566
1649933903.314514,4327.000000,1649933903.314341,0.000000,0.000000,1.000000,0.000000,0.000000,0.000000,0.000000,1.680115,7.975691,-0.251104
1649933903.414672,4328.000000,1649933903.414439,0.000000,0.000000,1.000000,0.000000,0.000000,0.000000,0.000000,1.672907,7.978396,-0.229256
1649933903.514688,4329.000000,1649933903.514553,0.000000,0.000000,1.000000,0.000000,0.000000,0.000000,0.000000,1.650824,7.986394,-0.187087
1649933903.614566,4330.000000,1649933903.614412,0.000000,0.000000,1.000000,0.000000,0.000000,0.000000,0.000000,1.626739,7.995011,-0.135979
1649933903.714824,4331.000000,1649933903.714634,0.000000,0.000000,1.000000,0.000000,0.000000,0.000000,0.000000,1.598654,8.004187,-0.071548
1649933903.814961,4332.000000,1649933903.814808,0.000000,0.000000,1.000000,0.000000,0.000000,0.000000,0.000000,1.565776,8.014958,-0.003314
1649933903.914917,4333.000000,1649933903.914750,0.000000,0.000000,1.000000,0.000000,0.000000,0.000000,0.000000,1.530637,8.027207,0.070875
1649933904.014438,4334.000000,1649933904.014239,0.000000,0.000000,1.000000,0.000000,0.000000,0.000000,0.000000,1.497816,8.037551,0.138565
1649933904.114410,4335.000000,1649933904.114274,0.000000,0.000000,1.000000,0.000000,0.000000,0.000000,0.000000,1.485802,8.040618,0.162818
1649933904.214408,4336.000000,1649933904.214307,0.000000,0.000000,1.000000,0.000000,0.000000,0.000000,0.000000,1.469484,8.044438,0.201810
1649933904.314461,4337.000000,1649933904.314346,0.000000,0.000000,1.000000,0.000000,0.000000,0.000000,0.000000,1.450210,8.050056,0.250867
1649933904.414428,4338.000000,1649933904.414265,0.000000,0.000000,1.000000,0.000000,0.000000,0.000000,0.000000,1.449978,8.048645,0.260326
1649933904.514547,4339.000000,1649933904.514366,0.000000,0.000000,1.000000,0.000000,0.000000,0.000000,0.000000,1.442643,8.050416,0.289046
1649933904.614947,4340.000000,1649933904.614790,0.000000,0.000000,1.000000,0.000000,0.000000,0.000000,0.000000,1.451482,8.046476,0.282193
1649933904.714602,4341.000000,1649933904.714461,0.000000,0.000000,1.000000,0.000000,0.000000,0.000000,0.000000,1.443936,8.049153,0.293654
1649933904.815022,4342.000000,1649933904.814835,0.000000,0.000000,1.000000,0.000000,0.000000,0.000000,0.000000,1.453607,8.047181,0.273499
1649933904.915071,4343.000000,1649933904.914898,0.000000,0.000000,1.000000,0.000000,0.000000,0.000000,0.000000,1.472958,8.041920,0.230316
1649933905.014547,4344.000000,1649933905.014392,0.000000,0.000000,1.000000,0.000000,0.000000,0.000000,0.000000,1.473028,8.042294,0.218351
1649933905.114581,4345.000000,1649933905.114431,0.000000,0.000000,1.000000,0.000000,0.000000,0.000000,0.000000,1.484290,8.038189,0.182350
1649933905.214710,4346.000000,1649933905.214562,0.000000,0.000000,1.000000,0.000000,0.000000,0.000000,0.000000,1.504991,8.030957,0.129001
1649933905.314519,4347.000000,1649933905.314368,0.000000,0.000000,1.000000,0.000000,0.000000,0.000000,0.000000,1.531268,8.028429,0.052652
1649933905.415121,4348.000000,1649933905.414980,0.000000,0.000000,1.000000,0.000000,0.000000,0.000000,0.000000,1.561633,8.022726,-0.028698
1649933905.515043,4349.000000,1649933905.514821,0.000000,0.000000,1.000000,0.000000,0.000000,0.000000,0.000000,1.571777,8.021675,-0.068742
1649933905.615012,4350.000000,1649933905.614840,0.000000,0.000000,1.000000,0.000000,0.000000,0.000000,0.000000,1.591121,8.016303,-0.122306
1649933905.714784,4351.000000,1649933905.714602,0.000000,0.000000,1.000000,0.000000,0.000000,0.000000,0.000000,1.616925,8.009045,-0.184732
1649933905.814593,4352.000000,1649933905.814421,0.000000,0.000000,1.000000,0.000000,0.000000,0.000000,0.000000,1.631316,8.004388,-0.211213
1649933905.914765,4353.000000,1649933905.914591,0.000000,0.000000,1.000000,0.000000,0.000000,0.000000,0.000000,1.652330,7.997841,-0.253167
1649933906.014511,4354.000000,1649933906.014371,0.000000,0.000000,1.000000,0.000000,0.000000,0.000000,0.000000,1.677370,7.989526,-0.303465
1649933906.114535,4355.000000,1649933906.114389,0.000000,0.000000,1.000000,0.000000,0.000000,0.000000,0.000000,1.708336,7.979563,-0.356866
1649933906.215106,4356.000000,1649933906.214940,0.000000,0.000000,1.000000,0.000000,0.000000,0.000000,0.000000,1.719748,7.974610,-0.365595
1649933906.314523,4357.000000,1649933906.314350,0.000000,0.000000,1.000000,0.000000,0.000000,0.000000,0.000000,1.734468,7.968951,-0.382268
1649933906.414485,4358.000000,1649933906.414361,0.000000,0.000000,1.000000,0.000000,0.000000,0.000000,0.000000,1.737029,7.966999,-0.373498
1649933906.514900,4359.000000,1649933906.514755,0.000000,0.000000,1.000000,0.000000,0.000000,0.000000,0.000000,1.721568,7.971821,-0.341154
1649933906.614531,4360.000000,1649933906.614331,0.000000,0.000000,1.000000,0.000000,0.000000,0.000000,0.000000,1.702226,7.976483,-0.297555
1649933906.714579,4361.000000,1649933906.714414,0.000000,0.000000,1.000000,0.000000,0.000000,0.000000,0.000000,1.691290,7.978792,-0.237602
1649933906.814405,4362.000000,1649933906.814265,0.000000,0.000000,1.000000,0.000000,0.000000,0.000000,0.000000,1.661093,7.988679,-0.166105
1649933906.914387,4363.000000,1649933906.914278,0.000000,0.000000,1.000000,0.000000,0.000000,0.000000,0.000000,1.647686,7.992611,-0.136886
1649933907.014637,4364.000000,1649933907.014357,0.000000,0.000000,1.000000,0.000000,0.000000,0.000000,0.000000,1.642570,7.994168,-0.088619
1649933907.114527,4365.000000,1649933907.114370,0.000000,0.000000,1.000000,0.000000,0.000000,0.000000,0.000000,1.621325,8.001107,-0.031832
1649933907.215178,4366.000000,1649933907.215044,0.000000,0.000000,1.000000,0.000000,0.000000,0.000000,0.000000,1.615430,8.002208,-0.014546
1649933907.314725,4367.000000,1649933907.314574,0.000000,0.000000,1.000000,0.000000,0.000000,0.000000,0.000000,1.613164,8.001058,0.022065
1649933907.414403,4368.000000,1649933907.414273,0.000000,0.000000,1.000000,0.000000,0.000000,0.000000,0.000000,1.593616,8.006505,0.067488
1649933907.514771,4369.000000,1649933907.514650,0.000000,0.000000,1.000000,0.000000,0.000000,0.000000,0.000000,1.575232,8.012723,0.116462
1649933907.614460,4370.000000,1649933907.614267,0.000000,0.000000,1.000000,0.000000,0.000000,0.000000,0.000000,1.571087,8.013108,0.125222
1649933907.714631,4371.000000,1649933907.714423,0.000000,0.000000,1.000000,0.000000,0.000000,0.000000,0.000000,1.553149,8.018884,0.152646
1649933907.815340,4372.000000,1649933907.815137,0.000000,0.000000,1.000000,0.000000,0.000000,0.000000,0.000000,1.536392,8.024288,0.188273
1649933907.914751,4373.000000,1649933907.914562,0.000000,0.000000,1.000000,0.000000,0.000000,0.000000,0.000000,1.519702,8.029328,0.229308
1649933908.014675,4374.000000,1649933908.014542,0.000000,0.000000,1.000000,0.000000,0.000000,0.000000,0.000000,1.520560,8.028560,0.234351
1649933908.114450,4375.000000,1649933908.114300,0.000000,0.000000,1.000000,0.000000,0.000000,0.000000,0.000000,1.506371,8.034301,0.260510
1649933908.214363,4376.000000,1649933908.214239,0.000000,0.000000,1.000000,0.000000,0.000000,0.000000,0.000000,1.494338,8.039640,0.292392
1649933908.314384,4377.000000,1649933908.314242,0.000000,0.000000,1.000000,0.000000,0.000000,0.000000,0.000000,1.482186,8.045679,0.330539
1649933908.414501,4378.000000,1649933908.414370,0.000000,0.000000,1.000000,0.000000,0.000000,0.000000,0.000000,1.466668,8.051275,0.378687
1649933908.514639,4379.000000,1649933908.514450,0.000000,0.000000,1.000000,0.000000,0.000000,0.000000,0.000000,1.453450,8.056442,0.428312
1649933908.615634,4380.000000,1649933908.615388,0.000000,0.000000,1.000000,0.000000,0.000000,0.000000,0.000000,1.456603,8.055742,0.434133
1649933908.714515,4381.000000,1649933908.714359,0.000000,0.000000,1.000000,0.000000,0.000000,0.000000,0.000000,1.457756,8.054956,0.450354
1649933908.814392,4382.000000,1649933908.814265,0.000000,0.000000,1.000000,0.000000,0.000000,0.000000,0.000000,1.453723,8.056279,0.466879
1649933908.914725,4383.000000,1649933908.914504,0.000000,0.000000,1.000000,0.000000,0.000000,0.000000,0.000000,1.456774,8.055238,0.497404
1649933909.014586,4384.000000,1649933909.014438,0.000000,0.000000,1.000000,0.000000,0.000000,0.000000,0.000000,1.439237,8.061785,0.536503
1649933909.114451,4385.000000,1649933909.114311,0.000000,0.000000,1.000000,0.000000,0.000000,0.000000,0.000000,1.432800,8.064587,0.582985
1649933909.214424,4386.000000,1649933909.214276,0.000000,0.000000,1.000000,0.000000,0.000000,0.000000,0.000000,1.422686,8.068207,0.633279
1649933909.314442,4387.000000,1649933909.314266,0.000000,0.000000,1.000000,0.000000,0.000000,0.000000,0.000000,1.413469,8.071508,0.684759
1649933909.415904,4388.000000,1649933909.415744,0.000000,0.000000,1.000000,0.000000,0.000000,0.000000,0.000000,1.418195,8.067959,0.690549
1649933909.514953,4389.000000,1649933909.514781,0.000000,0.000000,1.000000,0.000000,0.000000,0.000000,0.000000,1.414259,8.066676,0.693647
1649933909.614400,4390.000000,1649933909.614253,0.000000,0.000000,1.000000,0.000000,0.000000,0.000000,0.000000,1.410852,8.066456,0.703870
1649933909.714377,4391.000000,1649933909.714255,0.000000,0.000000,1.000000,0.000000,0.000000,0.000000,0.000000,1.413389,8.063976,0.723366
1649933909.814429,4392.000000,1649933909.814296,0.000000,0.000000,1.000000,0.000000,0.000000,0.000000,0.000000,1.421520,8.061552,0.750149
1649933909.914371,4393.000000,1649933909.914235,0.000000,0.000000,1.000000,0.000000,0.000000,0.000000,0.000000,1.418543,8.062465,0.771011
1649933910.014457,4394.000000,1649933910.014327,0.000000,0.000000,1.000000,0.000000,0.000000,0.000000,0.000000,1.431229,8.057811,0.749092
1649933910.114498,4395.000000,1649933910.114367,0.000000,0.000000,1.000000,0.000000,0.000000,0.000000,0.000000,1.431410,8.057725,0.742639
1649933910.215926,4396.000000,1649933910.215734,0.000000,0.000000,1.000000,0.000000,0.000000,0.000000,0.000000,1.421938,8.060871,0.748651
1649933910.314414,4397.000000,1649933910.314276,0.000000,0.000000,1.000000,0.000000,0.000000,0.000000,0.000000,1.404448,8.067066,0.765033
1649933910.414701,4398.000000,1649933910.414508,0.000000,0.000000,1.000000,0.000000,0.000000,0.000000,0.000000,1.391417,8.070674,0.781689
1649933910.514771,4399.000000,1649933910.514602,0.000000,0.000000,1.000000,0.000000,0.000000,0.000000,0.000000,1.367363,8.078372,0.796997
1649933910.614542,4400.000000,1649933910.614371,0.000000,0.000000,1.000000,0.000000,0.000000,0.000000,0.000000,1.344942,8.086646,0.819883
1649933910.714502,4401.000000,1649933910.714318,0.000000,0.000000,1.000000,0.000000,0.000000,0.000000,0.000000,1.345924,8.086721,0.800033
1649933910.814541,4402.000000,1649933910.814360,0.000000,0.000000,1.000000,0.000000,0.000000,0.000000,0.000000,1.346112,8.085592,0.789230
1649933910.914502,4403.000000,1649933910.914318,0.000000,0.000000,1.000000,0.000000,0.000000,0.000000,0.000000,1.361883,8.080064,0.756510
1649933911.015126,4404.000000,1649933911.014960,0.000000,0.000000,1.000000,0.000000,0.000000,0.000000,0.000000,1.368333,8.078032,0.743964
1649933911.114551,4405.000000,1649933911.114433,0.000000,0.000000,1.000000,0.000000,0.000000,0.000000,0.000000,1.385560,8.071683,0.712113
1649933911.214606,4406.000000,1649933911.214484,0.000000,0.000000,1.000000,0.000000,0.000000,0.000000,0.000000,1.414001,8.061277,0.652937
1649933911.314423,4407.000000,1649933911.314307,0.000000,0.000000,1.000000,0.000000,0.000000,0.000000,0.000000,1.448584,8.048160,0.574910
1649933911.414554,4408.000000,1649933911.414433,0.000000,0.000000,1.000000,0.000000,0.000000,0.000000,0.000000,1.463784,8.042335,0.528938
1649933911.514827,4409.000000,1649933911.514699,0.000000,0.000000,1.000000,0.000000,0.000000,0.000000,0.000000,1.464973,8.041240,0.509778
1649933911.614503,4410.000000,1649933911.614327,0.000000,0.000000,1.000000,0.000000,0.000000,0.000000,0.000000,1.481267,8.035895,0.461546
1649933911.714532,4411.000000,1649933911.714360,0.000000,0.000000,1.000000,0.000000,0.000000,0.000000,0.000000,1.506345,8.026546,0.391946
1649933911.815682,4412.000000,1649933911.815468,0.000000,0.000000,1.000000,0.000000,0.000000,0.000000,0.000000,1.534205,8.017797,0.358407
1649933911.914317,4413.000000,1649933911.914202,0.000000,0.000000,1.000000,0.000000,0.000000,0.000000,0.000000,1.558079,8.010729,0.349041
1649933912.014782,4414.000000,1649933912.014639,0.000000,0.000000,1.000000,0.000000,0.000000,0.000000,0.000000,1.582486,8.003085,0.357233
1649933912.114792,4415.000000,1649933912.114637,0.000000,0.000000,1.000000,0.000000,0.000000,0.000000,0.000000,1.584443,8.003636,0.373380
1649933912.214776,4416.000000,1649933912.214617,0.000000,0.000000,1.000000,0.000000,0.000000,0.000000,0.000000,1.585907,8.005383,0.397126
1649933912.314828,4417.000000,1649933912.314633,0.000000,0.000000,1.000000,0.000000,0.000000,0.000000,0.000000,1.583652,8.007158,0.422471
1649933912.414834,4418.000000,1649933912.414703,0.000000,0.000000,1.000000,0.000000,0.000000,0.000000,0.000000,1.595354,8.004584,0.407366
1649933912.514863,4419.000000,1649933912.514704,0.000000,0.000000,1.000000,0.000000,0.000000,0.000000,0.000000,1.602789,8.003353,0.405883
1649933912.615452,4420.000000,1649933912.615073,0.000000,0.000000,1.000000,0.000000,0.000000,0.000000,0.000000,1.595285,8.006659,0.415857
1649933912.714591,4421.000000,1649933912.714454,0.000000,0.000000,1.000000,0.000000,0.000000,0.000000,0.000000,1.590054,8.008786,0.436000
1649933912.814380,4422.000000,1649933912.814267,0.000000,0.000000,1.000000,0.000000,0.000000,0.000000,0.000000,1.579374,8.013059,0.466670
1649933912.914471,4423.000000,1649933912.914361,0.000000,0.000000,1.000000,0.000000,0.000000,0.000000,0.000000,1.581039,8.011710,0.454969
1649933913.015072,4424.000000,1649933913.014846,0.000000,0.000000,1.000000,0.000000,0.000000,0.000000,0.000000,1.571487,8.012678,0.456657
1649933913.114932,4425.000000,1649933913.114780,0.000000,0.000000,1.000000,0.000000,0.000000,0.000000,0.000000,1.575359,8.010378,0.433288
1649933913.214852,4426.000000,1649933913.214688,0.000000,0.000000,1.000000,0.000000,0.000000,0.000000,0.000000,1.589742,8.004992,0.391556
1649933913.314782,4427.000000,1649933913.314634,0.000000,0.000000,1.000000,0.000000,0.000000,0.000000,0.000000,1.591130,8.003245,0.377432
1649933913.415281,4428.000000,1649933913.415139,0.000000,0.000000,1.000000,0.000000,0.000000,0.000000,0.000000,1.587873,8.003848,0.375305
1649933913.514755,4429.000000,1649933913.514600,0.000000,0.000000,1.000000,0.000000,0.000000,0.000000,0.000000,1.570431,8.009940,0.384690
1649933913.614365,4430.000000,1649933913.614218,0.000000,0.000000,1.000000,0.000000,0.000000,0.000000,0.000000,1.562542,8.012473,0.409133
1649933913.714485,4431.000000,1649933913.714310,0.000000,0.000000,1.000000,0.000000,0.000000,0.000000,0.000000,1.551723,8.015995,0.434272
1649933913.814413,4432.000000,1649933913.814283,0.000000,0.000000,1.000000,0.000000,0.000000,0.000000,0.000000,1.541443,8.019346,0.463258
1649933913.914512,4433.000000,1649933913.914297,0.000000,0.000000,1.000000,0.000000,0.000000,0.000000,0.000000,1.529528,8.018163,0.504759
1649933914.014442,4434.000000,1649933914.014291,0.000000,0.000000,1.000000,0.000000,0.000000,0.000000,0.000000,1.534641,8.013786,0.501747
1649933914.114406,4435.000000,1649933914.114264,0.000000,0.000000,1.000000,0.000000,0.000000,0.000000,0.000000,1.528579,8.014036,0.513285
1649933914.215194,4436.000000,1649933914.214627,0.000000,0.000000,1.000000,0.000000,0.000000,0.000000,0.000000,1.520691,8.015387,0.525867
1649933914.314660,4437.000000,1649933914.314548,0.000000,0.000000,1.000000,0.000000,0.000000,0.000000,0.000000,1.528547,8.012320,0.501531
1649933914.414500,4438.000000,1649933914.414356,0.000000,0.000000,1.000000,0.000000,0.000000,0.000000,0.000000,1.546899,8.006177,0.449876
1649933914.514462,4439.000000,1649933914.514354,0.000000,0.000000,1.000000,0.000000,0.000000,0.000000,0.000000,1.546768,8.006955,0.426932
1649933914.614420,4440.000000,1649933914.614279,0.000000,0.000000,1.000000,0.000000,0.000000,0.000000,0.000000,1.552060,8.006639,0.425129
1649933914.714379,4441.000000,1649933914.714245,0.000000,0.000000,1.000000,0.000000,0.000000,0.000000,0.000000,1.542839,8.010741,0.436357
1649933914.814584,4442.000000,1649933914.814444,0.000000,0.000000,1.000000,0.000000,0.000000,0.000000,0.000000,1.531922,8.014643,0.452811
1649933914.914865,4443.000000,1649933914.914673,0.000000,0.000000,1.000000,0.000000,0.000000,0.000000,0.000000,1.523797,8.018342,0.477478
1649933915.015543,4444.000000,1649933915.015317,0.000000,0.000000,1.000000,0.000000,0.000000,0.000000,0.000000,1.530332,8.016384,0.461598
1649933915.114787,4445.000000,1649933915.114642,0.000000,0.000000,1.000000,0.000000,0.000000,0.000000,0.000000,1.525625,8.017809,0.463284
1649933915.214708,4446.000000,1649933915.214591,0.000000,0.000000,1.000000,0.000000,0.000000,0.000000,0.000000,1.534293,8.014793,0.450374
1649933915.314721,4447.000000,1649933915.314583,0.000000,0.000000,1.000000,0.000000,0.000000,0.000000,0.000000,1.553395,8.008678,0.406544
1649933915.414452,4448.000000,1649933915.414323,0.000000,0.000000,1.000000,0.000000,0.000000,0.000000,0.000000,1.553954,8.009467,0.390372
1649933915.514496,4449.000000,1649933915.514347,0.000000,0.000000,1.000000,0.000000,0.000000,0.000000,0.000000,1.541343,8.014597,0.394316
1649933915.614438,4450.000000,1649933915.614297,0.000000,0.000000,1.000000,0.000000,0.000000,0.000000,0.000000,1.543581,8.014002,0.366746
1649933915.714468,4451.000000,1649933915.714322,0.000000,0.000000,1.000000,0.000000,0.000000,0.000000,0.000000,1.538045,8.016717,0.353331
1649933915.815074,4452.000000,1649933915.814894,0.000000,0.000000,1.000000,0.000000,0.000000,0.000000,0.000000,1.543715,8.013831,0.311581
1649933915.914706,4453.000000,1649933915.914465,0.000000,0.000000,1.000000,0.000000,0.000000,0.000000,0.000000,1.561052,8.007839,0.248348
1649933916.014834,4454.000000,1649933916.014633,0.000000,0.000000,1.000000,0.000000,0.000000,0.000000,0.000000,1.583915,8.000018,0.171854
1649933916.114963,4455.000000,1649933916.114794,0.000000,0.000000,1.000000,0.000000,0.000000,0.000000,0.000000,1.613026,7.990492,0.088394
1649933916.214781,4456.000000,1649933916.214581,0.000000,0.000000,1.000000,0.000000,0.000000,0.000000,0.000000,1.625063,7.987012,0.031437
1649933916.314631,4457.000000,1649933916.314500,0.000000,0.000000,1.000000,0.000000,0.000000,0.000000,0.000000,1.644919,7.980534,-0.036302
1649933916.414648,4458.000000,1649933916.414483,0.000000,0.000000,1.000000,0.000000,0.000000,0.000000,0.000000,1.667758,7.973417,-0.112688
1649933916.514983,4459.000000,1649933916.514806,0.000000,0.000000,1.000000,0.000000,0.000000,0.000000,0.000000,1.682460,7.970074,-0.146466
1649933916.614993,4460.000000,1649933916.614802,0.000000,0.000000,1.000000,0.000000,0.000000,0.000000,0.000000,1.703617,7.963760,-0.195782
1649933916.714588,4461.000000,1649933916.714456,0.000000,0.000000,1.000000,0.000000,0.000000,0.000000,0.000000,1.727561,7.955742,-0.255124
1649933916.814591,4462.000000,1649933916.814443,0.000000,0.000000,1.000000,0.000000,0.000000,0.000000,0.000000,1.755179,7.947220,-0.322410
1649933916.914560,4463.000000,1649933916.914393,0.000000,0.000000,1.000000,0.000000,0.000000,0.000000,0.000000,1.764404,7.943692,-0.356119
1649933917.014475,4464.000000,1649933917.014344,0.000000,0.000000,1.000000,0.000000,0.000000,0.000000,0.000000,1.750788,7.948157,-0.359201
1649933917.114476,4465.000000,1649933917.114342,0.000000,0.000000,1.000000,0.000000,0.000000,0.000000,0.000000,1.733094,7.953616,-0.333736
1649933917.214450,4466.000000,1649933917.214302,0.000000,0.000000,1.000000,0.000000,0.000000,0.000000,0.000000,1.714899,7.959987,-0.292251
1649933917.314840,4467.000000,1649933917.314653,0.000000,0.000000,1.000000,0.000000,0.000000,0.000000,0.000000,1.690855,7.968285,-0.249210
1649933917.415491,4468.000000,1649933917.415316,0.000000,0.000000,1.000000,0.000000,0.000000,0.000000,0.000000,1.664647,7.976192,-0.204783
1649933917.514638,4469.000000,1649933917.514460,0.000000,0.000000,1.000000,0.000000,0.000000,0.000000,0.000000,1.648480,7.981521,-0.149452
1649933917.614489,4470.000000,1649933917.614369,0.000000,0.000000,1.000000,0.000000,0.000000,0.000000,0.000000,1.644045,7.982213,-0.132971
1649933917.714586,4471.000000,1649933917.714437,0.000000,0.000000,1.000000,0.000000,0.000000,0.000000,0.000000,1.649630,7.979606,-0.129627
1649933917.814813,4472.000000,1649933917.814651,0.000000,0.000000,1.000000,0.000000,0.000000,0.000000,0.000000,1.648318,7.979342,-0.111495
1649933917.914766,4473.000000,1649933917.914612,0.000000,0.000000,1.000000,0.000000,0.000000,0.000000,0.000000,1.629588,7.984562,-0.076800
1649933918.014421,4474.000000,1649933918.014287,0.000000,0.000000,1.000000,0.000000,0.000000,0.000000,0.000000,1.599901,7.993861,-0.026283
1649933918.114521,4475.000000,1649933918.114360,0.000000,0.000000,1.000000,0.000000,0.000000,0.000000,0.000000,1.587207,7.997172,-0.013906
1649933918.215187,4476.000000,1649933918.214949,0.000000,0.000000,1.000000,0.000000,0.000000,0.000000,0.000000,1.568806,8.003538,0.012646
1649933918.314543,4477.000000,1649933918.314392,0.000000,0.000000,1.000000,0.000000,0.000000,0.000000,0.000000,1.564686,8.004050,0.007589
1649933918.414774,4478.000000,1649933918.414620,0.000000,0.000000,1.000000,0.000000,0.000000,0.000000,0.000000,1.556624,8.005571,0.023815
1649933918.514501,4479.000000,1649933918.514360,0.000000,0.000000,1.000000,0.000000,0.000000,0.000000,0.000000,1.527402,8.014586,0.037045
1649933918.614636,4480.000000,1649933918.614495,0.000000,0.000000,1.000000,0.000000,0.000000,0.000000,0.000000,1.493520,8.026302,0.069149
1649933918.714971,4481.000000,1649933918.714762,0.000000,0.000000,1.000000,0.000000,0.000000,0.000000,0.000000,1.476038,8.032905,0.114472
1649933918.814616,4482.000000,1649933918.814469,0.000000,0.000000,1.000000,0.000000,0.000000,0.000000,0.000000,1.456649,8.040112,0.169984
1649933918.914475,4483.000000,1649933918.914351,0.000000,0.000000,1.000000,0.000000,0.000000,0.000000,0.000000,1.448580,8.043513,0.228733
1649933919.015280,4484.000000,1649933919.015072,0.000000,0.000000,1.000000,0.000000,0.000000,0.000000,0.000000,1.438128,8.047674,0.284043
1649933919.114602,4485.000000,1649933919.114405,0.000000,0.000000,1.000000,0.000000,0.000000,0.000000,0.000000,1.424340,8.052550,0.343229
1649933919.214796,4486.000000,1649933919.214596,0.000000,0.000000,1.000000,0.000000,0.000000,0.000000,0.000000,1.423771,8.052642,0.406049
1649933919.314870,4487.000000,1649933919.314652,0.000000,0.000000,1.000000,0.000000,0.000000,0.000000,0.000000,1.436766,8.048220,0.422268
1649933919.414960,4488.000000,1649933919.414816,0.000000,0.000000,1.000000,0.000000,0.000000,0.000000,0.000000,1.441801,8.047185,0.453435
1649933919.514605,4489.000000,1649933919.514439,0.000000,0.000000,1.000000,0.000000,0.000000,0.000000,0.000000,1.452356,8.045002,0.493274
1649933919.614420,4490.000000,1649933919.614286,0.000000,0.000000,1.000000,0.000000,0.000000,0.000000,0.000000,1.475712,8.039565,0.489776
1649933919.714554,4491.000000,1649933919.714403,0.000000,0.000000,1.000000,0.000000,0.000000,0.000000,0.000000,1.499086,8.033255,0.503591
1649933919.815372,4492.000000,1649933919.815191,0.000000,0.000000,1.000000,0.000000,0.000000,0.000000,0.000000,1.518030,8.028327,0.528377
1649933919.914688,4493.000000,1649933919.914548,0.000000,0.000000,1.000000,0.000000,0.000000,0.000000,0.000000,1.525086,8.026902,0.562060
1649933920.014627,4494.000000,1649933920.014493,0.000000,0.000000,1.000000,0.000000,0.000000,0.000000,0.000000,1.528511,8.026617,0.596185
1649933920.114579,4495.000000,1649933920.114375,0.000000,0.000000,1.000000,0.000000,0.000000,0.000000,0.000000,1.543754,8.021960,0.586347
1649933920.214794,4496.000000,1649933920.214644,0.000000,0.000000,1.000000,0.000000,0.000000,0.000000,0.000000,1.537413,8.024089,0.585169
1649933920.314754,4497.000000,1649933920.314600,0.000000,0.000000,1.000000,0.000000,0.000000,0.000000,0.000000,1.529221,8.027176,0.588297
1649933920.414563,4498.000000,1649933920.414436,0.000000,0.000000,1.000000,0.000000,0.000000,0.000000,0.000000,1.514944,8.031161,0.605253
1649933920.514390,4499.000000,1649933920.514253,0.000000,0.000000,1.000000,0.000000,0.000000,0.000000,0.000000,1.517856,8.029440,0.583864
1649933920.615577,4500.000000,1649933920.615281,0.000000,0.000000,1.000000,0.000000,0.000000,0.000000,0.000000,1.517382,8.028876,0.576539
1649933920.714839,4501.000000,1649933920.714633,0.000000,0.000000,1.000000,0.000000,0.000000,0.000000,0.000000,1.524609,8.027226,0.587587
1649933920.814756,4502.000000,1649933920.814612,0.000000,0.000000,1.000000,0.000000,0.000000,0.000000,0.000000,1.524917,8.027829,0.600136
1649933920.915001,4503.000000,1649933920.914822,0.000000,0.000000,1.000000,0.000000,0.000000,0.000000,0.000000,1.540489,8.024018,0.622998
1649933921.014913,4504.000000,1649933921.014750,0.000000,0.000000,1.000000,0.000000,0.000000,0.000000,0.000000,1.545365,8.023680,0.650898
1649933921.114828,4505.000000,1649933921.114699,0.000000,0.000000,1.000000,0.000000,0.000000,0.000000,0.000000,1.561921,8.017904,0.640058
1649933921.214769,4506.000000,1649933921.214605,0.000000,0.000000,1.000000,0.000000,0.000000,0.000000,0.000000,1.566573,8.015727,0.637241
1649933921.314546,4507.000000,1649933921.314392,0.000000,0.000000,1.000000,0.000000,0.000000,0.000000,0.000000,1.565414,8.014779,0.642956
1649933921.415024,4508.000000,1649933921.414798,0.000000,0.000000,1.000000,0.000000,0.000000,0.000000,0.000000,1.557680,8.016085,0.644771
1649933921.515024,4509.000000,1649933921.514846,0.000000,0.000000,1.000000,0.000000,0.000000,0.000000,0.000000,1.566655,8.012975,0.610600
1649933921.614731,4510.000000,1649933921.614560,0.000000,0.000000,1.000000,0.000000,0.000000,0.000000,0.000000,1.583774,8.007878,0.560518
1649933921.714483,4511.000000,1649933921.714362,0.000000,0.000000,1.000000,0.000000,0.000000,0.000000,0.000000,1.593277,8.005280,0.532363
1649933921.814568,4512.000000,1649933921.814432,0.000000,0.000000,1.000000,0.000000,0.000000,0.000000,0.000000,1.591198,8.006140,0.506762
1649933921.914814,4513.000000,1649933921.914658,0.000000,0.000000,1.000000,0.000000,0.000000,0.000000,0.000000,1.580363,8.009174,0.490921
1649933922.014539,4514.000000,1649933922.014377,0.000000,0.000000,1.000000,0.000000,0.000000,0.000000,0.000000,1.584190,8.007710,0.459480
1649933922.114645,4515.000000,1649933922.114535,0.000000,0.000000,1.000000,0.000000,0.000000,0.000000,0.000000,1.598604,8.001995,0.404253
1649933922.215007,4516.000000,1649933922.214870,0.000000,0.000000,1.000000,0.000000,0.000000,0.000000,0.000000,1.620806,7.993368,0.335168
1649933922.314669,4517.000000,1649933922.314520,0.000000,0.000000,1.000000,0.000000,0.000000,0.000000,0.000000,1.627415,7.990735,0.302090
1649933922.415195,4518.000000,1649933922.415061,0.000000,0.000000,1.000000,0.000000,0.000000,0.000000,0.000000,1.639987,7.985050,0.245554
1649933922.514665,4519.000000,1649933922.514501,0.000000,0.000000,1.000000,0.000000,0.000000,0.000000,0.000000,1.645087,7.981946,0.217400
1649933922.614596,4520.000000,1649933922.614452,0.000000,0.000000,1.000000,0.000000,0.000000,0.000000,0.000000,1.636577,7.983466,0.210872
1649933922.714942,4521.000000,1649933922.714699,0.000000,0.000000,1.000000,0.000000,0.000000,0.000000,0.000000,1.620691,7.988259,0.225903
1649933922.814855,4522.000000,1649933922.814678,0.000000,0.000000,1.000000,0.000000,0.000000,0.000000,0.000000,1.618611,7.987402,0.205940
1649933922.914840,4523.000000,1649933922.914676,0.000000,0.000000,1.000000,0.000000,0.000000,0.000000,0.000000,1.604521,7.991017,0.210479
1649933923.016041,4524.000000,1649933923.015765,0.000000,0.000000,1.000000,0.000000,0.000000,0.000000,0.000000,1.606386,7.990122,0.184480
1649933923.115155,4525.000000,1649933923.115011,0.000000,0.000000,1.000000,0.000000,0.000000,0.000000,0.000000,1.618974,7.986052,0.135657
1649933923.214842,4526.000000,1649933923.214708,0.000000,0.000000,1.000000,0.000000,0.000000,0.000000,0.000000,1.638395,7.978991,0.072257
1649933923.314982,4527.000000,1649933923.314783,0.000000,0.000000,1.000000,0.000000,0.000000,0.000000,0.000000,1.645686,7.975663,0.039314
1649933923.414990,4528.000000,1649933923.414788,0.000000,0.000000,1.000000,0.000000,0.000000,0.000000,0.000000,1.661121,7.970418,-0.011945
1649933923.514813,4529.000000,1649933923.514660,0.000000,0.000000,1.000000,0.000000,0.000000,0.000000,0.000000,1.682037,7.963373,-0.055716
1649933923.614842,4530.000000,1649933923.614702,0.000000,0.000000,1.000000,0.000000,0.000000,0.000000,0.000000,1.685185,7.962275,-0.084994
1649933923.714803,4531.000000,1649933923.714611,0.000000,0.000000,1.000000,0.000000,0.000000,0.000000,0.000000,1.690075,7.959165,-0.082597
1649933923.814983,4532.000000,1649933923.814807,0.000000,0.000000,1.000000,0.000000,0.000000,0.000000,0.000000,1.673714,7.963969,-0.066770
1649933923.914476,4533.000000,1649933923.914340,0.000000,0.000000,1.000000,0.000000,0.000000,0.000000,0.000000,1.650411,7.971873,-0.032461
1649933924.014508,4534.000000,1649933924.014351,0.000000,0.000000,1.000000,0.000000,0.000000,0.000000,0.000000,1.644618,7.973954,-0.032917
1649933924.114443,4535.000000,1649933924.114312,0.000000,0.000000,1.000000,0.000000,0.000000,0.000000,0.000000,1.631417,7.979244,-0.024015
1649933924.214472,4536.000000,1649933924.214342,0.000000,0.000000,1.000000,0.000000,0.000000,0.000000,0.000000,1.612349,7.987548,0.005124
1649933924.314515,4537.000000,1649933924.314371,0.000000,0.000000,1.000000,0.000000,0.000000,0.000000,0.000000,1.610695,7.988859,0.003616
1649933924.415023,4538.000000,1649933924.414780,0.000000,0.000000,1.000000,0.000000,0.000000,0.000000,0.000000,1.618967,7.985737,-0.024091
1649933924.514807,4539.000000,1649933924.514643,0.000000,0.000000,1.000000,0.000000,0.000000,0.000000,0.000000,1.624603,7.983883,-0.025295
1649933924.615260,4540.000000,1649933924.615046,0.000000,0.000000,1.000000,0.000000,0.000000,0.000000,0.000000,1.615735,7.987596,-0.023659
1649933924.715194,4541.000000,1649933924.715039,0.000000,0.000000,1.000000,0.000000,0.000000,0.000000,0.000000,1.620443,7.985656,-0.049155
1649933924.815185,4542.000000,1649933924.815045,0.000000,0.000000,1.000000,0.000000,0.000000,0.000000,0.000000,1.633609,7.981648,-0.093404
1649933924.915256,4543.000000,1649933924.915115,0.000000,0.000000,1.000000,0.000000,0.000000,0.000000,0.000000,1.634015,7.981149,-0.100751
1649933925.014693,4544.000000,1649933925.014548,0.000000,0.000000,1.000000,0.000000,0.000000,0.000000,0.000000,1.644164,7.978517,-0.129948
1649933925.114804,4545.000000,1649933925.114655,0.000000,0.000000,1.000000,0.000000,0.000000,0.000000,0.000000,1.632967,7.982597,-0.128471
1649933925.214869,4546.000000,1649933925.214699,0.000000,0.000000,1.000000,0.000000,0.000000,0.000000,0.000000,1.614710,7.989739,-0.102415
1649933925.314529,4547.000000,1649933925.314348,0.000000,0.000000,1.000000,0.000000,0.000000,0.000000,0.000000,1.610555,7.992120,-0.108481
1649933925.415645,4548.000000,1649933925.415207,0.000000,0.000000,1.000000,0.000000,0.000000,0.000000,0.000000,1.588124,7.999806,-0.096185
1649933925.514712,4549.000000,1649933925.514543,0.000000,0.000000,1.000000,0.000000,0.000000,0.000000,0.000000,1.569199,8.005942,-0.067916
1649933925.614942,4550.000000,1649933925.614831,0.000000,0.000000,1.000000,0.000000,0.000000,0.000000,0.000000,1.568908,8.006235,-0.069544
1649933925.714566,4551.000000,1649933925.714447,0.000000,0.000000,1.000000,0.000000,0.000000,0.000000,0.000000,1.579685,8.003185,-0.095031
1649933925.814573,4552.000000,1649933925.814455,0.000000,0.000000,1.000000,0.000000,0.000000,0.000000,0.000000,1.595433,7.996988,-0.119193
1649933925.914571,4553.000000,1649933925.914413,0.000000,0.000000,1.000000,0.000000,0.000000,0.000000,0.000000,1.592927,7.997650,-0.129149
1649933926.014509,4554.000000,1649933926.014391,0.000000,0.000000,1.000000,0.000000,0.000000,0.000000,0.000000,1.603698,7.994983,-0.155308
1649933926.114460,4555.000000,1649933926.114339,0.000000,0.000000,1.000000,0.000000,0.000000,0.000000,0.000000,1.595364,7.998993,-0.148600
1649933926.215132,4556.000000,1649933926.214849,0.000000,0.000000,1.000000,0.000000,0.000000,0.000000,0.000000,1.599522,7.998398,-0.168441
1649933926.314962,4557.000000,1649933926.314800,0.000000,0.000000,1.000000,0.000000,0.000000,0.000000,0.000000,1.587125,8.002178,-0.158095
1649933926.414678,4558.000000,1649933926.414508,0.000000,0.000000,1.000000,0.000000,0.000000,0.000000,0.000000,1.588553,8.001359,-0.174457
1649933926.515001,4559.000000,1649933926.514830,0.000000,0.000000,1.000000,0.000000,0.000000,0.000000,0.000000,1.593232,7.999467,-0.159984
1649933926.614729,4560.000000,1649933926.614575,0.000000,0.000000,1.000000,0.000000,0.000000,0.000000,0.000000,1.609689,7.994388,-0.172411
1649933926.714778,4561.000000,1649933926.714639,0.000000,0.000000,1.000000,0.000000,0.000000,0.000000,0.000000,1.612150,7.992854,-0.156611
1649933926.814909,4562.000000,1649933926.814755,0.000000,0.000000,1.000000,0.000000,0.000000,0.000000,0.000000,1.623178,7.988136,-0.168601
1649933926.914588,4563.000000,1649933926.914426,0.000000,0.000000,1.000000,0.000000,0.000000,0.000000,0.000000,1.624827,7.985873,-0.155638
1649933927.015486,4564.000000,1649933927.015092,0.000000,0.000000,1.000000,0.000000,0.000000,0.000000,0.000000,1.617605,7.985937,-0.128440
1649933927.114716,4565.000000,1649933927.114579,0.000000,0.000000,1.000000,0.000000,0.000000,0.000000,0.000000,1.598752,7.990382,-0.082797
1649933927.214607,4566.000000,1649933927.214461,0.000000,0.000000,1.000000,0.000000,0.000000,0.000000,0.000000,1.594039,7.990230,-0.074378
1649933927.314451,4567.000000,1649933927.314338,0.000000,0.000000,1.000000,0.000000,0.000000,0.000000,0.000000,1.567819,7.997725,-0.042828
1649933927.415655,4568.000000,1649933927.415426,0.000000,0.000000,1.000000,0.000000,0.000000,0.000000,0.000000,1.558415,8.000434,-0.043977
1649933927.514583,4569.000000,1649933927.514421,0.000000,0.000000,1.000000,0.000000,0.000000,0.000000,0.000000,1.547488,8.004061,-0.028118
1649933927.614907,4570.000000,1649933927.614776,0.000000,0.000000,1.000000,0.000000,0.000000,0.000000,0.000000,1.549323,8.003094,-0.041127
1649933927.714543,4571.000000,1649933927.714361,0.000000,0.000000,1.000000,0.000000,0.000000,0.000000,0.000000,1.559936,7.999969,-0.025365
1649933927.815033,4572.000000,1649933927.814914,0.000000,0.000000,1.000000,0.000000,0.000000,0.000000,0.000000,1.560271,8.001358,0.002658
1649933927.914662,4573.000000,1649933927.914522,0.000000,0.000000,1.000000,0.000000,0.000000,0.000000,0.000000,1.547609,8.008102,0.045626
1649933928.014791,4574.000000,1649933928.014658,0.000000,0.000000,1.000000,0.000000,0.000000,0.000000,0.000000,1.541229,8.012256,0.100446
1649933928.115177,4575.000000,1649933928.115020,0.000000,0.000000,1.000000,0.000000,0.000000,0.000000,0.000000,1.548432,8.010680,0.133489
1649933928.214808,4576.000000,1649933928.214617,0.000000,0.000000,1.000000,0.000000,0.000000,0.000000,0.000000,1.536827,8.015688,0.173811
1649933928.314847,4577.000000,1649933928.314654,0.000000,0.000000,1.000000,0.000000,0.000000,0.000000,0.000000,1.540178,8.016005,0.175900
1649933928.414896,4578.000000,1649933928.414726,0.000000,0.000000,1.000000,0.000000,0.000000,0.000000,0.000000,1.536936,8.017339,0.192920
1649933928.514893,4579.000000,1649933928.514638,0.000000,0.000000,1.000000,0.000000,0.000000,0.000000,0.000000,1.534003,8.018545,0.226672
1649933928.615336,4580.000000,1649933928.615178,0.000000,0.000000,1.000000,0.000000,0.000000,0.000000,0.000000,1.524822,8.021809,0.270793
1649933928.714781,4581.000000,1649933928.714585,0.000000,0.000000,1.000000,0.000000,0.000000,0.000000,0.000000,1.530473,8.020470,0.274806
1649933928.814812,4582.000000,1649933928.814676,0.000000,0.000000,1.000000,0.000000,0.000000,0.000000,0.000000,1.537035,8.019148,0.297597
1649933928.914802,4583.000000,1649933928.914644,0.000000,0.000000,1.000000,0.000000,0.000000,0.000000,0.000000,1.532437,8.021121,0.334356
1649933929.015030,4584.000000,1649933929.014848,0.000000,0.000000,1.000000,0.000000,0.000000,0.000000,0.000000,1.524928,8.024026,0.371571
1649933929.114740,4585.000000,1649933929.114546,0.000000,0.000000,1.000000,0.000000,0.000000,0.000000,0.000000,1.531040,8.021262,0.369666
1649933929.214497,4586.000000,1649933929.214352,0.000000,0.000000,1.000000,0.000000,0.000000,0.000000,0.000000,1.524925,8.022964,0.384275
1649933929.314452,4587.000000,1649933929.314266,0.000000,0.000000,1.000000,0.000000,0.000000,0.000000,0.000000,1.518167,8.026706,0.411503
1649933929.414892,4588.000000,1649933929.414717,0.000000,0.000000,1.000000,0.000000,0.000000,0.000000,0.000000,1.494459,8.034548,0.449203
1649933929.514755,4589.000000,1649933929.514581,0.000000,0.000000,1.000000,0.000000,0.000000,0.000000,0.000000,1.470058,8.044064,0.493686
1649933929.614486,4590.000000,1649933929.614350,0.000000,0.000000,1.000000,0.000000,0.000000,0.000000,0.000000,1.466874,8.045325,0.496239
1649933929.714456,4591.000000,1649933929.714315,0.000000,0.000000,1.000000,0.000000,0.000000,0.000000,0.000000,1.463030,8.046415,0.506155
1649933929.814509,4592.000000,1649933929.814370,0.000000,0.000000,1.000000,0.000000,0.000000,0.000000,0.000000,1.471642,8.041894,0.482016
1649933929.914411,4593.000000,1649933929.914262,0.000000,0.000000,1.000000,0.000000,0.000000,0.000000,0.000000,1.472365,8.040811,0.480906
1649933930.015059,4594.000000,1649933930.014921,0.000000,0.000000,1.000000,0.000000,0.000000,0.000000,0.000000,1.487421,8.035353,0.447082
1649933930.114456,4595.000000,1649933930.114329,0.000000,0.000000,1.000000,0.000000,0.000000,0.000000,0.000000,1.495253,8.032323,0.431135
1649933930.215450,4596.000000,1649933930.215265,0.000000,0.000000,1.000000,0.000000,0.000000,0.000000,0.000000,1.514759,8.025058,0.391259
1649933930.314459,4597.000000,1649933930.314329,0.000000,0.000000,1.000000,0.000000,0.000000,0.000000,0.000000,1.507071,8.027989,0.373664
1649933930.414546,4598.000000,1649933930.414408,0.000000,0.000000,1.000000,0.000000,0.000000,0.000000,0.000000,1.508585,8.027468,0.378301
1649933930.514663,4599.000000,1649933930.514498,0.000000,0.000000,1.000000,0.000000,0.000000,0.000000,0.000000,1.510070,8.028048,0.396212
1649933930.614604,4600.000000,1649933930.614496,0.000000,0.000000,1.000000,0.000000,0.000000,0.000000,0.000000,1.502794,8.030757,0.426034
1649933930.714477,4601.000000,1649933930.714350,0.000000,0.000000,1.000000,0.000000,0.000000,0.000000,0.000000,1.493799,8.034382,0.455154
1649933930.814537,4602.000000,1649933930.814410,0.000000,0.000000,1.000000,0.000000,0.000000,0.000000,0.000000,1.487564,8.035592,0.492432
1649933930.914509,4603.000000,1649933930.914377,0.000000,0.000000,1.000000,0.000000,0.000000,0.000000,0.000000,1.494857,8.032337,0.487492
1649933931.015737,4604.000000,1649933931.015419,0.000000,0.000000,1.000000,0.000000,0.000000,0.000000,0.000000,1.495286,8.031414,0.488027
1649933931.115205,4605.000000,1649933931.115029,0.000000,0.000000,1.000000,0.000000,0.000000,0.000000,0.000000,1.489218,8.032700,0.505123
1649933931.215088,4606.000000,1649933931.214924,0.000000,0.000000,1.000000,0.000000,0.000000,0.000000,0.000000,1.472661,8.038254,0.530032
1649933931.315030,4607.000000,1649933931.314831,0.000000,0.000000,1.000000,0.000000,0.000000,0.000000,0.000000,1.475674,8.038013,0.514833
1649933931.414866,4608.000000,1649933931.414704,0.000000,0.000000,1.000000,0.000000,0.000000,0.000000,0.000000,1.465552,8.042109,0.518443
1649933931.514875,4609.000000,1649933931.514670,0.000000,0.000000,1.000000,0.000000,0.000000,0.000000,0.000000,1.447399,8.049205,0.536079
1649933931.614525,4610.000000,1649933931.614405,0.000000,0.000000,1.000000,0.000000,0.000000,0.000000,0.000000,1.434785,8.054757,0.559097
1649933931.714432,4611.000000,1649933931.714309,0.000000,0.000000,1.000000,0.000000,0.000000,0.000000,0.000000,1.426347,8.058835,0.588063
1649933931.815151,4612.000000,1649933931.815020,0.000000,0.000000,1.000000,0.000000,0.000000,0.000000,0.000000,1.434956,8.057150,0.573509
1649933931.914490,4613.000000,1649933931.914329,0.000000,0.000000,1.000000,0.000000,0.000000,0.000000,0.000000,1.428022,8.060929,0.574490
1649933932.014735,4614.000000,1649933932.014545,0.000000,0.000000,1.000000,0.000000,0.000000,0.000000,0.000000,1.439114,8.057874,0.541201
1649933932.114475,4615.000000,1649933932.114323,0.000000,0.000000,1.000000,0.000000,0.000000,0.000000,0.000000,1.427950,8.062546,0.528320
1649933932.214516,4616.000000,1649933932.214403,0.000000,0.000000,1.000000,0.000000,0.000000,0.000000,0.000000,1.426298,8.062520,0.530220
1649933932.314570,4617.000000,1649933932.314380,0.000000,0.000000,1.000000,0.000000,0.000000,0.000000,0.000000,1.424913,8.063509,0.539861
1649933932.414771,4618.000000,1649933932.414524,0.000000,0.000000,1.000000,0.000000,0.000000,0.000000,0.000000,1.437948,8.058916,0.536764
1649933932.514412,4619.000000,1649933932.514282,0.000000,0.000000,1.000000,0.000000,0.000000,0.000000,0.000000,1.447123,8.055606,0.542426
1649933932.615170,4620.000000,1649933932.614898,0.000000,0.000000,1.000000,0.000000,0.000000,0.000000,0.000000,1.451519,8.053523,0.550042
1649933932.714608,4621.000000,1649933932.714470,0.000000,0.000000,1.000000,0.000000,0.000000,0.000000,0.000000,1.459013,8.051520,0.566789
1649933932.814586,4622.000000,1649933932.814415,0.000000,0.000000,1.000000,0.000000,0.000000,0.000000,0.000000,1.479220,8.044147,0.546313
1649933932.914887,4623.000000,1649933932.914705,0.000000,0.000000,1.000000,0.000000,0.000000,0.000000,0.000000,1.502661,8.034994,0.546611
1649933933.014854,4624.000000,1649933933.014723,0.000000,0.000000,1.000000,0.000000,0.000000,0.000000,0.000000,1.533447,8.024187,0.513629
1649933933.114682,4625.000000,1649933933.114500,0.000000,0.000000,1.000000,0.000000,0.000000,0.000000,0.000000,1.546010,8.020570,0.490707
1649933933.214694,4626.000000,1649933933.214468,0.000000,0.000000,1.000000,0.000000,0.000000,0.000000,0.000000,1.567482,8.013947,0.440389
1649933933.314672,4627.000000,1649933933.314534,0.000000,0.000000,1.000000,0.000000,0.000000,0.000000,0.000000,1.596232,8.004499,0.370319
1649933933.415428,4628.000000,1649933933.415175,0.000000,0.000000,1.000000,0.000000,0.000000,0.000000,0.000000,1.628519,7.993494,0.288670
1649933933.514913,4629.000000,1649933933.514720,0.000000,0.000000,1.000000,0.000000,0.000000,0.000000,0.000000,1.635718,7.990859,0.244431
1649933933.615255,4630.000000,1649933933.615093,0.000000,0.000000,1.000000,0.000000,0.000000,0.000000,0.000000,1.652999,7.985235,0.182126
1649933933.715062,4631.000000,1649933933.714935,0.000000,0.000000,1.000000,0.000000,0.000000,0.000000,0.000000,1.650345,7.985518,0.155800
1649933933.814466,4632.000000,1649933933.814293,0.000000,0.000000,1.000000,0.000000,0.000000,0.000000,0.000000,1.634327,7.990285,0.154355
1649933933.914623,4633.000000,1649933933.914463,0.000000,0.000000,1.000000,0.000000,0.000000,0.000000,0.000000,1.630826,7.990547,0.135643
1649933934.014953,4634.000000,1649933934.014785,0.000000,0.000000,1.000000,0.000000,0.000000,0.000000,0.000000,1.639193,7.986541,0.092309
1649933934.114795,4635.000000,1649933934.114662,0.000000,0.000000,1.000000,0.000000,0.000000,0.000000,0.000000,1.655502,7.979596,0.032659
1649933934.215366,4636.000000,1649933934.215119,0.000000,0.000000,1.000000,0.000000,0.000000,0.000000,0.000000,1.676016,7.972069,-0.039342
1649933934.314960,4637.000000,1649933934.314821,0.000000,0.000000,1.000000,0.000000,0.000000,0.000000,0.000000,1.684107,7.968370,-0.077938
1649933934.414816,4638.000000,1649933934.414655,0.000000,0.000000,1.000000,0.000000,0.000000,0.000000,0.000000,1.691352,7.965021,-0.087663
1649933934.515016,4639.000000,1649933934.514888,0.000000,0.000000,1.000000,0.000000,0.000000,0.000000,0.000000,1.687986,7.966367,-0.072113
1649933934.614724,4640.000000,1649933934.614487,0.000000,0.000000,1.000000,0.000000,0.000000,0.000000,0.000000,1.665896,7.973230,-0.045265
1649933934.714727,4641.000000,1649933934.714594,0.000000,0.000000,1.000000,0.000000,0.000000,0.000000,0.000000,1.658906,7.975466,-0.051195
1649933934.814669,4642.000000,1649933934.814528,0.000000,0.000000,1.000000,0.000000,0.000000,0.000000,0.000000,1.664050,7.974405,-0.082144
1649933934.914666,4643.000000,1649933934.914544,0.000000,0.000000,1.000000,0.000000,0.000000,0.000000,0.000000,1.678483,7.969133,-0.127397
1649933935.014989,4644.000000,1649933935.014768,0.000000,0.000000,1.000000,0.000000,0.000000,0.000000,0.000000,1.698399,7.962071,-0.183100
1649933935.114759,4645.000000,1649933935.114606,0.000000,0.000000,1.000000,0.000000,0.000000,0.000000,0.000000,1.720179,7.954425,-0.247956
1649933935.214645,4646.000000,1649933935.214478,0.000000,0.000000,1.000000,0.000000,0.000000,0.000000,0.000000,1.743672,7.946242,-0.319096
1649933935.314584,4647.000000,1649933935.314391,0.000000,0.000000,1.000000,0.000000,0.000000,0.000000,0.000000,1.753467,7.943022,-0.351019
1649933935.414860,4648.000000,1649933935.414732,0.000000,0.000000,1.000000,0.000000,0.000000,0.000000,0.000000,1.753575,7.943406,-0.355770
1649933935.514627,4649.000000,1649933935.514465,0.000000,0.000000,1.000000,0.000000,0.000000,0.000000,0.000000,1.759814,7.940643,-0.334475
1649933935.614671,4650.000000,1649933935.614528,0.000000,0.000000,1.000000,0.000000,0.000000,0.000000,0.000000,1.769672,7.935997,-0.337448
1649933935.714638,4651.000000,1649933935.714488,0.000000,0.000000,1.000000,0.000000,0.000000,0.000000,0.000000,1.763317,7.937209,-0.329868
1649933935.815372,4652.000000,1649933935.815109,0.000000,0.000000,1.000000,0.000000,0.000000,0.000000,0.000000,1.767847,7.935224,-0.344464
1649933935.914973,4653.000000,1649933935.914756,0.000000,0.000000,1.000000,0.000000,0.000000,0.000000,0.000000,1.779403,7.932396,-0.365024
