__time,/dwm1001/id_458E/pose_kf/header/seq,/dwm1001/id_458E/pose_kf/header/stamp,/dwm1001/id_458E/pose_kf/pose/orientation/pitch_deg,/dwm1001/id_458E/pose_kf/pose/orientation/roll_deg,/dwm1001/id_458E/pose_kf/pose/orientation/w,/dwm1001/id_458E/pose_kf/pose/orientation/x,/dwm1001/id_458E/pose_kf/pose/orientation/y,/dwm1001/id_458E/pose_kf/pose/orientation/yaw_deg,/dwm1001/id_458E/pose_kf/pose/orientation/z,/dwm1001/id_458E/pose_kf/pose/position/x,/dwm1001/id_458E/pose_kf/pose/position/y,/dwm1001/id_458E/pose_kf/pose/position/z
1650624921.506525,2.000000,1650624921.506225,0.000000,0.000000,1.000000,0.000000,0.000000,0.000000,0.000000,3.366133,4.848276,-0.804931
1650624921.606391,3.000000,1650624921.606136,0.000000,0.000000,1.000000,0.000000,0.000000,0.000000,0.000000,3.376289,4.847291,-0.774958
1650624921.706097,4.000000,1650624921.705926,0.000000,0.000000,1.000000,0.000000,0.000000,0.000000,0.000000,3.382594,4.848548,-0.750834
1650624921.806217,5.000000,1650624921.806004,0.000000,0.000000,1.000000,0.000000,0.000000,0.000000,0.000000,3.386328,4.848650,-0.733179
1650624921.906153,6.000000,1650624921.905923,0.000000,0.000000,1.000000,0.000000,0.000000,0.000000,0.000000,3.387623,4.848749,-0.728220
1650624922.006078,7.000000,1650624922.005909,0.000000,0.000000,1.000000,0.000000,0.000000,0.000000,0.000000,3.386612,4.849936,-0.731427
1650624922.106096,8.000000,1650624922.105881,0.000000,0.000000,1.000000,0.000000,0.000000,0.000000,0.000000,3.385606,4.849966,-0.742469
1650624922.206039,9.000000,1650624922.205834,0.000000,0.000000,1.000000,0.000000,0.000000,0.000000,0.000000,3.384611,4.851083,-0.751338
1650624922.306036,10.000000,1650624922.305859,0.000000,0.000000,1.000000,0.000000,0.000000,0.000000,0.000000,3.384724,4.852135,-0.766983
1650624922.406051,11.000000,1650624922.405817,0.000000,0.000000,1.000000,0.000000,0.000000,0.000000,0.000000,3.383704,4.852031,-0.774592
1650624922.506051,12.000000,1650624922.505794,0.000000,0.000000,1.000000,0.000000,0.000000,0.000000,0.000000,3.382709,4.853016,-0.788194
1650624922.606106,13.000000,1650624922.605903,0.000000,0.000000,1.000000,0.000000,0.000000,0.000000,0.000000,3.381742,4.853938,-0.796239
1650624922.706074,14.000000,1650624922.705903,0.000000,0.000000,1.000000,0.000000,0.000000,0.000000,0.000000,3.379717,4.855888,-0.807816
1650624922.806051,15.000000,1650624922.805881,0.000000,0.000000,1.000000,0.000000,0.000000,0.000000,0.000000,3.378879,4.858804,-0.825189
1650624922.906069,16.000000,1650624922.905876,0.000000,0.000000,1.000000,0.000000,0.000000,0.000000,0.000000,3.376986,4.860445,-0.843265
1650624923.006174,17.000000,1650624923.006005,0.000000,0.000000,1.000000,0.000000,0.000000,0.000000,0.000000,3.374102,4.861968,-0.860381
1650624923.105939,18.000000,1650624923.105741,0.000000,0.000000,1.000000,0.000000,0.000000,0.000000,0.000000,3.371381,4.863375,-0.881395
1650624923.206449,19.000000,1650624923.206213,0.000000,0.000000,1.000000,0.000000,0.000000,0.000000,0.000000,3.368822,4.863580,-0.905318
1650624923.306789,20.000000,1650624923.306534,0.000000,0.000000,1.000000,0.000000,0.000000,0.000000,0.000000,3.371875,4.860468,-0.886036
1650624923.406376,21.000000,1650624923.406196,0.000000,0.000000,1.000000,0.000000,0.000000,0.000000,0.000000,3.372592,4.858595,-0.864045
1650624923.506378,22.000000,1650624923.506172,0.000000,0.000000,1.000000,0.000000,0.000000,0.000000,0.000000,3.371097,4.857899,-0.856440
1650624923.606468,23.000000,1650624923.606210,0.000000,0.000000,1.000000,0.000000,0.000000,0.000000,0.000000,3.370785,4.856140,-0.843306
1650624923.706504,24.000000,1650624923.706239,0.000000,0.000000,1.000000,0.000000,0.000000,0.000000,0.000000,3.370502,4.854470,-0.834574
1650624923.806371,25.000000,1650624923.806157,0.000000,0.000000,1.000000,0.000000,0.000000,0.000000,0.000000,3.368066,4.855072,-0.831701
1650624923.906442,26.000000,1650624923.906213,0.000000,0.000000,1.000000,0.000000,0.000000,0.000000,0.000000,3.365782,4.854549,-0.828011
1650624924.006379,27.000000,1650624924.006145,0.000000,0.000000,1.000000,0.000000,0.000000,0.000000,0.000000,3.363648,4.855145,-0.829999
1650624924.106087,28.000000,1650624924.105854,0.000000,0.000000,1.000000,0.000000,0.000000,0.000000,0.000000,3.366022,4.853526,-0.790664
1650624924.206072,29.000000,1650624924.205801,0.000000,0.000000,1.000000,0.000000,0.000000,0.000000,0.000000,3.368288,4.853089,-0.767387
1650624924.306040,30.000000,1650624924.305848,0.000000,0.000000,1.000000,0.000000,0.000000,0.000000,0.000000,3.368263,4.852680,-0.759564
1650624924.406048,31.000000,1650624924.405890,0.000000,0.000000,1.000000,0.000000,0.000000,0.000000,0.000000,3.370432,4.852298,-0.763358
1650624924.506211,32.000000,1650624924.505996,0.000000,0.000000,1.000000,0.000000,0.000000,0.000000,0.000000,3.372488,4.853034,-0.760553
1650624924.605980,33.000000,1650624924.605799,0.000000,0.000000,1.000000,0.000000,0.000000,0.000000,0.000000,3.374430,4.854824,-0.754644
1650624924.706028,34.000000,1650624924.705848,0.000000,0.000000,1.000000,0.000000,0.000000,0.000000,0.000000,3.376258,4.855424,-0.760284
1650624924.806285,35.000000,1650624924.806138,0.000000,0.000000,1.000000,0.000000,0.000000,0.000000,0.000000,3.377974,4.855988,-0.772156
1650624924.906388,36.000000,1650624924.906194,0.000000,0.000000,1.000000,0.000000,0.000000,0.000000,0.000000,3.379578,4.857605,-0.784345
1650624925.006345,37.000000,1650624925.006185,0.000000,0.000000,1.000000,0.000000,0.000000,0.000000,0.000000,3.378892,4.856944,-0.801656
1650624925.106461,38.000000,1650624925.106208,0.000000,0.000000,1.000000,0.000000,0.000000,0.000000,0.000000,3.377134,4.856310,-0.808532
1650624925.206424,39.000000,1650624925.206202,0.000000,0.000000,1.000000,0.000000,0.000000,0.000000,0.000000,3.376550,4.854616,-0.816674
1650624925.306142,40.000000,1650624925.305928,0.000000,0.000000,1.000000,0.000000,0.000000,0.000000,0.000000,3.378170,4.854105,-0.814731
1650624925.406058,41.000000,1650624925.405878,0.000000,0.000000,1.000000,0.000000,0.000000,0.000000,0.000000,3.376417,4.854714,-0.821664
1650624925.506055,42.000000,1650624925.505921,0.000000,0.000000,1.000000,0.000000,0.000000,0.000000,0.000000,3.373661,4.855290,-0.816946
1650624925.606031,43.000000,1650624925.605837,0.000000,0.000000,1.000000,0.000000,0.000000,0.000000,0.000000,3.372146,4.854743,-0.822024
1650624925.706107,44.000000,1650624925.705912,0.000000,0.000000,1.000000,0.000000,0.000000,0.000000,0.000000,3.372902,4.855316,-0.816338
1650624925.806162,45.000000,1650624925.805932,0.000000,0.000000,1.000000,0.000000,0.000000,0.000000,0.000000,3.368168,4.852584,-0.772108
1650624925.906062,46.000000,1650624925.905871,0.000000,0.000000,1.000000,0.000000,0.000000,0.000000,0.000000,3.364800,4.851099,-0.747417
1650624926.006111,47.000000,1650624926.005913,0.000000,0.000000,1.000000,0.000000,0.000000,0.000000,0.000000,3.360553,4.849706,-0.735873
1650624926.106293,48.000000,1650624926.106041,0.000000,0.000000,1.000000,0.000000,0.000000,0.000000,0.000000,3.358757,4.848403,-0.736965
1650624926.206188,49.000000,1650624926.205952,0.000000,0.000000,1.000000,0.000000,0.000000,0.000000,0.000000,3.357102,4.846100,-0.744532
1650624926.306041,50.000000,1650624926.305831,0.000000,0.000000,1.000000,0.000000,0.000000,0.000000,0.000000,3.354493,4.845036,-0.751846
1650624926.406010,51.000000,1650624926.405808,0.000000,0.000000,1.000000,0.000000,0.000000,0.000000,0.000000,3.354258,4.844057,-0.764548
1650624926.506058,52.000000,1650624926.505857,0.000000,0.000000,1.000000,0.000000,0.000000,0.000000,0.000000,3.356265,4.844250,-0.775140
1650624926.606493,53.000000,1650624926.606257,0.000000,0.000000,1.000000,0.000000,0.000000,0.000000,0.000000,3.357112,4.844458,-0.790947
1650624926.706118,54.000000,1650624926.705877,0.000000,0.000000,1.000000,0.000000,0.000000,0.000000,0.000000,3.360129,4.844677,-0.796408
1650624926.806115,55.000000,1650624926.805916,0.000000,0.000000,1.000000,0.000000,0.000000,0.000000,0.000000,3.355372,4.844907,-0.767739
1650624926.906099,56.000000,1650624926.905925,0.000000,0.000000,1.000000,0.000000,0.000000,0.000000,0.000000,3.353092,4.842963,-0.750721
1650624927.006081,57.000000,1650624927.005911,0.000000,0.000000,1.000000,0.000000,0.000000,0.000000,0.000000,3.349888,4.842239,-0.748946
1650624927.106066,58.000000,1650624927.105903,0.000000,0.000000,1.000000,0.000000,0.000000,0.000000,0.000000,3.350179,4.843761,-0.737606
1650624927.206049,59.000000,1650624927.205879,0.000000,0.000000,1.000000,0.000000,0.000000,0.000000,0.000000,3.353772,4.843039,-0.730007
1650624927.306107,60.000000,1650624927.305900,0.000000,0.000000,1.000000,0.000000,0.000000,0.000000,0.000000,3.357200,4.842376,-0.734074
1650624927.406029,61.000000,1650624927.405862,0.000000,0.000000,1.000000,0.000000,0.000000,0.000000,0.000000,3.360462,4.841770,-0.733198
1650624927.506013,62.000000,1650624927.505846,0.000000,0.000000,1.000000,0.000000,0.000000,0.000000,0.000000,3.361372,4.841220,-0.742093
1650624927.606069,63.000000,1650624927.605900,0.000000,0.000000,1.000000,0.000000,0.000000,0.000000,0.000000,3.362238,4.840722,-0.755510
1650624927.706203,64.000000,1650624927.705978,0.000000,0.000000,1.000000,0.000000,0.000000,0.000000,0.000000,3.366329,4.842454,-0.769208
1650624927.806027,65.000000,1650624927.805838,0.000000,0.000000,1.000000,0.000000,0.000000,0.000000,0.000000,3.368006,4.843017,-0.774282
1650624927.906078,66.000000,1650624927.905895,0.000000,0.000000,1.000000,0.000000,0.000000,0.000000,0.000000,3.370665,4.843563,-0.786394
1650624928.006298,67.000000,1650624928.006140,0.000000,0.000000,1.000000,0.000000,0.000000,0.000000,0.000000,3.374247,4.843000,-0.759272
1650624928.106384,68.000000,1650624928.106177,0.000000,0.000000,1.000000,0.000000,0.000000,0.000000,0.000000,3.376509,4.841389,-0.746159
1650624928.206440,69.000000,1650624928.206186,0.000000,0.000000,1.000000,0.000000,0.000000,0.000000,0.000000,3.377520,4.840972,-0.747317
1650624928.306784,70.000000,1650624928.306533,0.000000,0.000000,1.000000,0.000000,0.000000,0.000000,0.000000,3.387159,4.837323,-0.706523
1650624928.406416,71.000000,1650624928.406194,0.000000,0.000000,1.000000,0.000000,0.000000,0.000000,0.000000,3.395115,4.836081,-0.675536
1650624928.506479,72.000000,1650624928.506232,0.000000,0.000000,1.000000,0.000000,0.000000,0.000000,0.000000,3.403639,4.833846,-0.617719
1650624928.606445,73.000000,1650624928.606179,0.000000,0.000000,1.000000,0.000000,0.000000,0.000000,0.000000,3.417040,4.832858,-0.545534
1650624928.706375,74.000000,1650624928.706173,0.000000,0.000000,1.000000,0.000000,0.000000,0.000000,0.000000,3.429565,4.831959,-0.506449
1650624928.806452,75.000000,1650624928.806237,0.000000,0.000000,1.000000,0.000000,0.000000,0.000000,0.000000,3.436869,4.832237,-0.474179
1650624928.906414,76.000000,1650624928.906233,0.000000,0.000000,1.000000,0.000000,0.000000,0.000000,0.000000,3.442495,4.832533,-0.460586
1650624929.006113,77.000000,1650624929.005937,0.000000,0.000000,1.000000,0.000000,0.000000,0.000000,0.000000,3.446526,4.831753,-0.418147
1650624929.106126,78.000000,1650624929.105948,0.000000,0.000000,1.000000,0.000000,0.000000,0.000000,0.000000,3.446870,4.831048,-0.400497
1650624929.206058,79.000000,1650624929.205882,0.000000,0.000000,1.000000,0.000000,0.000000,0.000000,0.000000,3.444825,4.833684,-0.380839
1650624929.306123,80.000000,1650624929.305918,0.000000,0.000000,1.000000,0.000000,0.000000,0.000000,0.000000,3.442722,4.835107,-0.380235
1650624929.406046,81.000000,1650624929.405872,0.000000,0.000000,1.000000,0.000000,0.000000,0.000000,0.000000,3.442760,4.836470,-0.392250
1650624929.506030,82.000000,1650624929.505852,0.000000,0.000000,1.000000,0.000000,0.000000,0.000000,0.000000,3.439379,4.837768,-0.397786
1650624929.606560,83.000000,1650624929.606319,0.000000,0.000000,1.000000,0.000000,0.000000,0.000000,0.000000,3.434966,4.840093,-0.399495
1650624929.706161,84.000000,1650624929.705938,0.000000,0.000000,1.000000,0.000000,0.000000,0.000000,0.000000,3.432869,4.843380,-0.412833
1650624929.806485,85.000000,1650624929.806232,0.000000,0.000000,1.000000,0.000000,0.000000,0.000000,0.000000,3.430794,4.845385,-0.430033
1650624929.906048,86.000000,1650624929.905885,0.000000,0.000000,1.000000,0.000000,0.000000,0.000000,0.000000,3.427661,4.846173,-0.446056
1650624930.006026,87.000000,1650624930.005859,0.000000,0.000000,1.000000,0.000000,0.000000,0.000000,0.000000,3.425723,4.845810,-0.472200
1650624930.106074,88.000000,1650624930.105882,0.000000,0.000000,1.000000,0.000000,0.000000,0.000000,0.000000,3.424924,4.843268,-0.456387
1650624930.205971,89.000000,1650624930.205810,0.000000,0.000000,1.000000,0.000000,0.000000,0.000000,0.000000,3.425210,4.840857,-0.450325
1650624930.306129,90.000000,1650624930.305926,0.000000,0.000000,1.000000,0.000000,0.000000,0.000000,0.000000,3.423250,4.836397,-0.459268
1650624930.406152,91.000000,1650624930.405965,0.000000,0.000000,1.000000,0.000000,0.000000,0.000000,0.000000,3.420268,4.834375,-0.476939
1650624930.506101,92.000000,1650624930.505941,0.000000,0.000000,1.000000,0.000000,0.000000,0.000000,0.000000,3.417420,4.833574,-0.501335
1650624930.606028,93.000000,1650624930.605855,0.000000,0.000000,1.000000,0.000000,0.000000,0.000000,0.000000,3.413620,4.833928,-0.531329
1650624930.706168,94.000000,1650624930.705954,0.000000,0.000000,1.000000,0.000000,0.000000,0.000000,0.000000,3.407842,4.835371,-0.556962
1650624930.806219,95.000000,1650624930.806017,0.000000,0.000000,1.000000,0.000000,0.000000,0.000000,0.000000,3.401303,4.836750,-0.588848
1650624930.906183,96.000000,1650624930.905965,0.000000,0.000000,1.000000,0.000000,0.000000,0.000000,0.000000,3.395153,4.839152,-0.625065
1650624931.006121,97.000000,1650624931.005910,0.000000,0.000000,1.000000,0.000000,0.000000,0.000000,0.000000,3.390481,4.840332,-0.660541
1650624931.106178,98.000000,1650624931.105953,0.000000,0.000000,1.000000,0.000000,0.000000,0.000000,0.000000,3.385036,4.842536,-0.694442
1650624931.206135,99.000000,1650624931.205947,0.000000,0.000000,1.000000,0.000000,0.000000,0.000000,0.000000,3.381054,4.844609,-0.730006
1650624931.306057,100.000000,1650624931.305867,0.000000,0.000000,1.000000,0.000000,0.000000,0.000000,0.000000,3.377374,4.846552,-0.765502
1650624931.406180,101.000000,1650624931.405984,0.000000,0.000000,1.000000,0.000000,0.000000,0.000000,0.000000,3.375076,4.848369,-0.800882
1650624931.506062,102.000000,1650624931.505879,0.000000,0.000000,1.000000,0.000000,0.000000,0.000000,0.000000,3.371907,4.850060,-0.834490
1650624931.606139,103.000000,1650624931.605958,0.000000,0.000000,1.000000,0.000000,0.000000,0.000000,0.000000,3.374460,4.849449,-0.826840
1650624931.706099,104.000000,1650624931.705901,0.000000,0.000000,1.000000,0.000000,0.000000,0.000000,0.000000,3.375868,4.847755,-0.826398
1650624931.806445,105.000000,1650624931.806215,0.000000,0.000000,1.000000,0.000000,0.000000,0.000000,0.000000,3.376184,4.847224,-0.815146
1650624931.906401,106.000000,1650624931.906160,0.000000,0.000000,1.000000,0.000000,0.000000,0.000000,0.000000,3.375462,4.847796,-0.805652
1650624932.006411,107.000000,1650624932.006169,0.000000,0.000000,1.000000,0.000000,0.000000,0.000000,0.000000,3.372667,4.848319,-0.795453
1650624932.106360,108.000000,1650624932.106125,0.000000,0.000000,1.000000,0.000000,0.000000,0.000000,0.000000,3.369006,4.849887,-0.774931
1650624932.206398,109.000000,1650624932.206136,0.000000,0.000000,1.000000,0.000000,0.000000,0.000000,0.000000,3.366715,4.850256,-0.771965
1650624932.306374,110.000000,1650624932.306154,0.000000,0.000000,1.000000,0.000000,0.000000,0.000000,0.000000,3.365723,4.850584,-0.779411
1650624932.406426,111.000000,1650624932.406183,0.000000,0.000000,1.000000,0.000000,0.000000,0.000000,0.000000,3.364865,4.849782,-0.785554
1650624932.506468,112.000000,1650624932.506234,0.000000,0.000000,1.000000,0.000000,0.000000,0.000000,0.000000,3.363043,4.850096,-0.787218
1650624932.606451,113.000000,1650624932.606165,0.000000,0.000000,1.000000,0.000000,0.000000,0.000000,0.000000,3.361400,4.850375,-0.785395
1650624932.706083,114.000000,1650624932.705886,0.000000,0.000000,1.000000,0.000000,0.000000,0.000000,0.000000,3.362108,4.850622,-0.779432
1650624932.806068,115.000000,1650624932.805834,0.000000,0.000000,1.000000,0.000000,0.000000,0.000000,0.000000,3.360671,4.850838,-0.772738
1650624932.906137,116.000000,1650624932.905949,0.000000,0.000000,1.000000,0.000000,0.000000,0.000000,0.000000,3.359387,4.851025,-0.761330
1650624933.006063,117.000000,1650624933.005839,0.000000,0.000000,1.000000,0.000000,0.000000,0.000000,0.000000,3.358246,4.852275,-0.760744
1650624933.106102,118.000000,1650624933.105896,0.000000,0.000000,1.000000,0.000000,0.000000,0.000000,0.000000,3.358331,4.853438,-0.771358
1650624933.206110,119.000000,1650624933.205896,0.000000,0.000000,1.000000,0.000000,0.000000,0.000000,0.000000,3.365023,4.851244,-0.741094
1650624933.306453,120.000000,1650624933.306256,0.000000,0.000000,1.000000,0.000000,0.000000,0.000000,0.000000,3.370303,4.851336,-0.718430
1650624933.406007,121.000000,1650624933.405836,0.000000,0.000000,1.000000,0.000000,0.000000,0.000000,0.000000,3.372050,4.850320,-0.712779
1650624933.506022,122.000000,1650624933.505848,0.000000,0.000000,1.000000,0.000000,0.000000,0.000000,0.000000,3.373718,4.850440,-0.707338
1650624933.606003,123.000000,1650624933.605829,0.000000,0.000000,1.000000,0.000000,0.000000,0.000000,0.000000,3.375308,4.850544,-0.698074
1650624933.706099,124.000000,1650624933.705903,0.000000,0.000000,1.000000,0.000000,0.000000,0.000000,0.000000,3.375726,4.850633,-0.702901
1650624933.806077,125.000000,1650624933.805887,0.000000,0.000000,1.000000,0.000000,0.000000,0.000000,0.000000,3.376125,4.849618,-0.716403
1650624933.906072,126.000000,1650624933.905884,0.000000,0.000000,1.000000,0.000000,0.000000,0.000000,0.000000,3.377596,4.849744,-0.722079
1650624934.006046,127.000000,1650624934.005887,0.000000,0.000000,1.000000,0.000000,0.000000,0.000000,0.000000,3.378984,4.848767,-0.729106
1650624934.106154,128.000000,1650624934.105921,0.000000,0.000000,1.000000,0.000000,0.000000,0.000000,0.000000,3.379200,4.848932,-0.743066
1650624934.206155,129.000000,1650624934.205959,0.000000,0.000000,1.000000,0.000000,0.000000,0.000000,0.000000,3.376126,4.847995,-0.754784
1650624934.306229,130.000000,1650624934.306048,0.000000,0.000000,1.000000,0.000000,0.000000,0.000000,0.000000,3.372133,4.847110,-0.774013
1650624934.406265,131.000000,1650624934.406022,0.000000,0.000000,1.000000,0.000000,0.000000,0.000000,0.000000,3.370553,4.847367,-0.780258
1650624934.506250,132.000000,1650624934.506062,0.000000,0.000000,1.000000,0.000000,0.000000,0.000000,0.000000,3.369080,4.848704,-0.779683
1650624934.606048,133.000000,1650624934.605868,0.000000,0.000000,1.000000,0.000000,0.000000,0.000000,0.000000,3.369890,4.849965,-0.774988
1650624934.706050,134.000000,1650624934.705874,0.000000,0.000000,1.000000,0.000000,0.000000,0.000000,0.000000,3.368496,4.853333,-0.775221
1650624934.806162,135.000000,1650624934.805991,0.000000,0.000000,1.000000,0.000000,0.000000,0.000000,0.000000,3.367199,4.855411,-0.776157
1650624934.906119,136.000000,1650624934.905944,0.000000,0.000000,1.000000,0.000000,0.000000,0.000000,0.000000,3.365999,4.856264,-0.773737
1650624935.006150,137.000000,1650624935.005965,0.000000,0.000000,1.000000,0.000000,0.000000,0.000000,0.000000,3.363802,4.857047,-0.779395
1650624935.106061,138.000000,1650624935.105873,0.000000,0.000000,1.000000,0.000000,0.000000,0.000000,0.000000,3.362847,4.857764,-0.775862
1650624935.206101,139.000000,1650624935.205928,0.000000,0.000000,1.000000,0.000000,0.000000,0.000000,0.000000,3.361979,4.858416,-0.774811
1650624935.306041,140.000000,1650624935.305865,0.000000,0.000000,1.000000,0.000000,0.000000,0.000000,0.000000,3.361193,4.857917,-0.766469
1650624935.406105,141.000000,1650624935.405935,0.000000,0.000000,1.000000,0.000000,0.000000,0.000000,0.000000,3.359395,4.858513,-0.764049
1650624935.506192,142.000000,1650624935.506018,0.000000,0.000000,1.000000,0.000000,0.000000,0.000000,0.000000,3.364276,4.856873,-0.730224
1650624935.606104,143.000000,1650624935.605935,0.000000,0.000000,1.000000,0.000000,0.000000,0.000000,0.000000,3.368913,4.856395,-0.715511
1650624935.706349,144.000000,1650624935.706110,0.000000,0.000000,1.000000,0.000000,0.000000,0.000000,0.000000,3.370031,4.857020,-0.709489
1650624935.806071,145.000000,1650624935.805874,0.000000,0.000000,1.000000,0.000000,0.000000,0.000000,0.000000,3.371090,4.857596,-0.704557
1650624935.906066,146.000000,1650624935.905876,0.000000,0.000000,1.000000,0.000000,0.000000,0.000000,0.000000,3.373181,4.858124,-0.707937
1650624936.006007,147.000000,1650624936.005831,0.000000,0.000000,1.000000,0.000000,0.000000,0.000000,0.000000,3.372968,4.858606,-0.722510
1650624936.106472,148.000000,1650624936.106236,0.000000,0.000000,1.000000,0.000000,0.000000,0.000000,0.000000,3.373850,4.860134,-0.726833
1650624936.206410,149.000000,1650624936.206170,0.000000,0.000000,1.000000,0.000000,0.000000,0.000000,0.000000,3.374675,4.860468,-0.740665
1650624936.306456,150.000000,1650624936.306236,0.000000,0.000000,1.000000,0.000000,0.000000,0.000000,0.000000,3.375443,4.859672,-0.750695
1650624936.406081,151.000000,1650624936.405908,0.000000,0.000000,1.000000,0.000000,0.000000,0.000000,0.000000,3.381608,4.854540,-0.718352
1650624936.505975,152.000000,1650624936.505794,0.000000,0.000000,1.000000,0.000000,0.000000,0.000000,0.000000,3.388496,4.848598,-0.656689
1650624936.605966,153.000000,1650624936.605798,0.000000,0.000000,1.000000,0.000000,0.000000,0.000000,0.000000,3.396047,4.844087,-0.578282
1650624936.705983,154.000000,1650624936.705820,0.000000,0.000000,1.000000,0.000000,0.000000,0.000000,0.000000,3.398753,4.840945,-0.529902
1650624936.806020,155.000000,1650624936.805860,0.000000,0.000000,1.000000,0.000000,0.000000,0.000000,0.000000,3.400144,4.839104,-0.503151
1650624936.906054,156.000000,1650624936.905875,0.000000,0.000000,1.000000,0.000000,0.000000,0.000000,0.000000,3.400293,4.838496,-0.486707
1650624937.006060,157.000000,1650624937.005884,0.000000,0.000000,1.000000,0.000000,0.000000,0.000000,0.000000,3.398179,4.837964,-0.477746
1650624937.106032,158.000000,1650624937.105865,0.000000,0.000000,1.000000,0.000000,0.000000,0.000000,0.000000,3.393938,4.837503,-0.485644
1650624937.206031,159.000000,1650624937.205821,0.000000,0.000000,1.000000,0.000000,0.000000,0.000000,0.000000,3.383340,4.836018,-0.459694
1650624937.306096,160.000000,1650624937.305918,0.000000,0.000000,1.000000,0.000000,0.000000,0.000000,0.000000,3.374402,4.835747,-0.454514
1650624937.406066,161.000000,1650624937.405896,0.000000,0.000000,1.000000,0.000000,0.000000,0.000000,0.000000,3.367059,4.834442,-0.457164
1650624937.506029,162.000000,1650624937.505867,0.000000,0.000000,1.000000,0.000000,0.000000,0.000000,0.000000,3.361249,4.834342,-0.456825
1650624937.606062,163.000000,1650624937.605917,0.000000,0.000000,1.000000,0.000000,0.000000,0.000000,0.000000,3.357994,4.834288,-0.467313
1650624937.706038,164.000000,1650624937.705877,0.000000,0.000000,1.000000,0.000000,0.000000,0.000000,0.000000,3.356071,4.835367,-0.484934
1650624937.806042,165.000000,1650624937.805873,0.000000,0.000000,1.000000,0.000000,0.000000,0.000000,0.000000,3.353228,4.836420,-0.508552
1650624937.906107,166.000000,1650624937.905939,0.000000,0.000000,1.000000,0.000000,0.000000,0.000000,0.000000,3.349523,4.836353,-0.538681
1650624938.006083,167.000000,1650624938.005911,0.000000,0.000000,1.000000,0.000000,0.000000,0.000000,0.000000,3.347188,4.837407,-0.574999
1650624938.106113,168.000000,1650624938.105941,0.000000,0.000000,1.000000,0.000000,0.000000,0.000000,0.000000,3.346154,4.839515,-0.605898
1650624938.206019,169.000000,1650624938.205858,0.000000,0.000000,1.000000,0.000000,0.000000,0.000000,0.000000,3.348527,4.840433,-0.642832
1650624938.306409,170.000000,1650624938.306240,0.000000,0.000000,1.000000,0.000000,0.000000,0.000000,0.000000,3.350840,4.841310,-0.679041
1650624938.406041,171.000000,1650624938.405903,0.000000,0.000000,1.000000,0.000000,0.000000,0.000000,0.000000,3.353084,4.842146,-0.715303
1650624938.506051,172.000000,1650624938.505878,0.000000,0.000000,1.000000,0.000000,0.000000,0.000000,0.000000,3.355253,4.845122,-0.748331
1650624938.606075,173.000000,1650624938.605869,0.000000,0.000000,1.000000,0.000000,0.000000,0.000000,0.000000,3.356251,4.846839,-0.784659
1650624938.706140,174.000000,1650624938.705978,0.000000,0.000000,1.000000,0.000000,0.000000,0.000000,0.000000,3.356136,4.847361,-0.821682
1650624938.806054,175.000000,1650624938.805890,0.000000,0.000000,1.000000,0.000000,0.000000,0.000000,0.000000,3.357148,4.847843,-0.853673
1650624938.906308,176.000000,1650624938.906074,0.000000,0.000000,1.000000,0.000000,0.000000,0.000000,0.000000,3.358131,4.848286,-0.884828
1650624939.005970,177.000000,1650624939.005814,0.000000,0.000000,1.000000,0.000000,0.000000,0.000000,0.000000,3.362352,4.847601,-0.874819
1650624939.106067,178.000000,1650624939.105903,0.000000,0.000000,1.000000,0.000000,0.000000,0.000000,0.000000,3.365260,4.846943,-0.875339
1650624939.205995,179.000000,1650624939.205828,0.000000,0.000000,1.000000,0.000000,0.000000,0.000000,0.000000,3.365825,4.846313,-0.884365
1650624939.306094,180.000000,1650624939.305916,0.000000,0.000000,1.000000,0.000000,0.000000,0.000000,0.000000,3.365265,4.846802,-0.884617
1650624939.406039,181.000000,1650624939.405853,0.000000,0.000000,1.000000,0.000000,0.000000,0.000000,0.000000,3.365823,4.851620,-0.876464
1650624939.506153,182.000000,1650624939.505973,0.000000,0.000000,1.000000,0.000000,0.000000,0.000000,0.000000,3.366347,4.855064,-0.858659
1650624939.606146,183.000000,1650624939.605966,0.000000,0.000000,1.000000,0.000000,0.000000,0.000000,0.000000,3.365746,4.858288,-0.853408
1650624939.706122,184.000000,1650624939.705936,0.000000,0.000000,1.000000,0.000000,0.000000,0.000000,0.000000,3.366264,4.861298,-0.847322
1650624939.806038,185.000000,1650624939.805845,0.000000,0.000000,1.000000,0.000000,0.000000,0.000000,0.000000,3.367841,4.865188,-0.828357
1650624939.906010,186.000000,1650624939.905856,0.000000,0.000000,1.000000,0.000000,0.000000,0.000000,0.000000,3.372592,4.866629,-0.815624
1650624940.006097,187.000000,1650624940.005905,0.000000,0.000000,1.000000,0.000000,0.000000,0.000000,0.000000,3.382514,4.864663,-0.763738
1650624940.106110,188.000000,1650624940.105944,0.000000,0.000000,1.000000,0.000000,0.000000,0.000000,0.000000,3.390750,4.862756,-0.721147
1650624940.206013,189.000000,1650624940.205800,0.000000,0.000000,1.000000,0.000000,0.000000,0.000000,0.000000,3.400642,4.859824,-0.656904
1650624940.306094,190.000000,1650624940.305900,0.000000,0.000000,1.000000,0.000000,0.000000,0.000000,0.000000,3.408802,4.855933,-0.616345
1650624940.406098,191.000000,1650624940.405929,0.000000,0.000000,1.000000,0.000000,0.000000,0.000000,0.000000,3.413123,4.854421,-0.592128
1650624940.506223,192.000000,1650624940.506006,0.000000,0.000000,1.000000,0.000000,0.000000,0.000000,0.000000,3.414898,4.855164,-0.577176
1650624940.606093,193.000000,1650624940.605903,0.000000,0.000000,1.000000,0.000000,0.000000,0.000000,0.000000,3.415358,4.855856,-0.580002
1650624940.706109,194.000000,1650624940.705923,0.000000,0.000000,1.000000,0.000000,0.000000,0.000000,0.000000,3.414581,4.855409,-0.578100
1650624940.806046,195.000000,1650624940.805876,0.000000,0.000000,1.000000,0.000000,0.000000,0.000000,0.000000,3.421367,4.851705,-0.537784
1650624940.906130,196.000000,1650624940.905944,0.000000,0.000000,1.000000,0.000000,0.000000,0.000000,0.000000,3.423295,4.849296,-0.521145
1650624941.006150,197.000000,1650624941.005960,0.000000,0.000000,1.000000,0.000000,0.000000,0.000000,0.000000,3.423901,4.847028,-0.523213
1650624941.106108,198.000000,1650624941.105881,0.000000,0.000000,1.000000,0.000000,0.000000,0.000000,0.000000,3.424353,4.847081,-0.528702
1650624941.206234,199.000000,1650624941.205996,0.000000,0.000000,1.000000,0.000000,0.000000,0.000000,0.000000,3.425757,4.846056,-0.541486
1650624941.306256,200.000000,1650624941.306011,0.000000,0.000000,1.000000,0.000000,0.000000,0.000000,0.000000,3.424790,4.845105,-0.564463
1650624941.406193,201.000000,1650624941.405941,0.000000,0.000000,1.000000,0.000000,0.000000,0.000000,0.000000,3.423773,4.845316,-0.577013
1650624941.506122,202.000000,1650624941.505893,0.000000,0.000000,1.000000,0.000000,0.000000,0.000000,0.000000,3.421626,4.846624,-0.595657
1650624941.606075,203.000000,1650624941.605863,0.000000,0.000000,1.000000,0.000000,0.000000,0.000000,0.000000,3.419515,4.846783,-0.618499
1650624941.706057,204.000000,1650624941.705888,0.000000,0.000000,1.000000,0.000000,0.000000,0.000000,0.000000,3.416358,4.848035,-0.629196
1650624941.806014,205.000000,1650624941.805874,0.000000,0.000000,1.000000,0.000000,0.000000,0.000000,0.000000,3.412226,4.845955,-0.645153
1650624941.906034,206.000000,1650624941.905883,0.000000,0.000000,1.000000,0.000000,0.000000,0.000000,0.000000,3.407188,4.846182,-0.670161
1650624942.006048,207.000000,1650624942.005859,0.000000,0.000000,1.000000,0.000000,0.000000,0.000000,0.000000,3.402403,4.847498,-0.682038
1650624942.106288,208.000000,1650624942.106030,0.000000,0.000000,1.000000,0.000000,0.000000,0.000000,0.000000,3.397873,4.849841,-0.696617
1650624942.206023,209.000000,1650624942.205877,0.000000,0.000000,1.000000,0.000000,0.000000,0.000000,0.000000,3.392507,4.850964,-0.710540
1650624942.306074,210.000000,1650624942.305887,0.000000,0.000000,1.000000,0.000000,0.000000,0.000000,0.000000,3.389641,4.850931,-0.725426
1650624942.406102,211.000000,1650624942.405937,0.000000,0.000000,1.000000,0.000000,0.000000,0.000000,0.000000,3.388053,4.850896,-0.746860
1650624942.506028,212.000000,1650624942.505871,0.000000,0.000000,1.000000,0.000000,0.000000,0.000000,0.000000,3.386588,4.851950,-0.770513
1650624942.606085,213.000000,1650624942.605916,0.000000,0.000000,1.000000,0.000000,0.000000,0.000000,0.000000,3.384151,4.852939,-0.776101
1650624942.706130,214.000000,1650624942.705940,0.000000,0.000000,1.000000,0.000000,0.000000,0.000000,0.000000,3.379710,4.853865,-0.779673
1650624942.806178,215.000000,1650624942.806006,0.000000,0.000000,1.000000,0.000000,0.000000,0.000000,0.000000,3.376656,4.855819,-0.790989
1650624942.906141,216.000000,1650624942.905956,0.000000,0.000000,1.000000,0.000000,0.000000,0.000000,0.000000,3.376012,4.855468,-0.810531
1650624943.006041,217.000000,1650624943.005883,0.000000,0.000000,1.000000,0.000000,0.000000,0.000000,0.000000,3.373282,4.856211,-0.816974
1650624943.106049,218.000000,1650624943.105883,0.000000,0.000000,1.000000,0.000000,0.000000,0.000000,0.000000,3.376218,4.855807,-0.785039
1650624943.205990,219.000000,1650624943.205800,0.000000,0.000000,1.000000,0.000000,0.000000,0.000000,0.000000,3.382318,4.854320,-0.721980
1650624943.306393,220.000000,1650624943.306211,0.000000,0.000000,1.000000,0.000000,0.000000,0.000000,0.000000,3.384844,4.853996,-0.686424
1650624943.406480,221.000000,1650624943.406226,0.000000,0.000000,1.000000,0.000000,0.000000,0.000000,0.000000,3.387253,4.850410,-0.669259
1650624943.506442,222.000000,1650624943.506232,0.000000,0.000000,1.000000,0.000000,0.000000,0.000000,0.000000,3.388452,4.848115,-0.668965
1650624943.606420,223.000000,1650624943.606211,0.000000,0.000000,1.000000,0.000000,0.000000,0.000000,0.000000,3.389594,4.845956,-0.667927
1650624943.706542,224.000000,1650624943.706295,0.000000,0.000000,1.000000,0.000000,0.000000,0.000000,0.000000,3.389585,4.843932,-0.675850
1650624943.806374,225.000000,1650624943.806160,0.000000,0.000000,1.000000,0.000000,0.000000,0.000000,0.000000,3.390671,4.844221,-0.673003
1650624943.906604,226.000000,1650624943.906365,0.000000,0.000000,1.000000,0.000000,0.000000,0.000000,0.000000,3.386245,4.844516,-0.634824
1650624944.006113,227.000000,1650624944.005905,0.000000,0.000000,1.000000,0.000000,0.000000,0.000000,0.000000,3.382074,4.843722,-0.610380
1650624944.106105,228.000000,1650624944.105942,0.000000,0.000000,1.000000,0.000000,0.000000,0.000000,0.000000,3.379246,4.844082,-0.600769
1650624944.206146,229.000000,1650624944.205957,0.000000,0.000000,1.000000,0.000000,0.000000,0.000000,0.000000,3.373334,4.843350,-0.559435
1650624944.306009,230.000000,1650624944.305854,0.000000,0.000000,1.000000,0.000000,0.000000,0.000000,0.000000,3.363432,4.840495,-0.493365
1650624944.406088,231.000000,1650624944.405914,0.000000,0.000000,1.000000,0.000000,0.000000,0.000000,0.000000,3.357420,4.837823,-0.459306
1650624944.506225,232.000000,1650624944.505972,0.000000,0.000000,1.000000,0.000000,0.000000,0.000000,0.000000,3.354008,4.837511,-0.450365
1650624944.606121,233.000000,1650624944.605911,0.000000,0.000000,1.000000,0.000000,0.000000,0.000000,0.000000,3.353061,4.839429,-0.442951
1650624944.706152,234.000000,1650624944.705933,0.000000,0.000000,1.000000,0.000000,0.000000,0.000000,0.000000,3.352260,4.840177,-0.451516
1650624944.806268,235.000000,1650624944.806051,0.000000,0.000000,1.000000,0.000000,0.000000,0.000000,0.000000,3.353777,4.841996,-0.454417
1650624944.906087,236.000000,1650624944.905882,0.000000,0.000000,1.000000,0.000000,0.000000,0.000000,0.000000,3.356383,4.842640,-0.472026
1650624945.006104,237.000000,1650624945.005925,0.000000,0.000000,1.000000,0.000000,0.000000,0.000000,0.000000,3.356736,4.843259,-0.495643
1650624945.106177,238.000000,1650624945.105984,0.000000,0.000000,1.000000,0.000000,0.000000,0.000000,0.000000,3.358225,4.843854,-0.526587
1650624945.206086,239.000000,1650624945.205906,0.000000,0.000000,1.000000,0.000000,0.000000,0.000000,0.000000,3.357507,4.844422,-0.558051
1650624945.306111,240.000000,1650624945.305920,0.000000,0.000000,1.000000,0.000000,0.000000,0.000000,0.000000,3.355793,4.843873,-0.594791
1650624945.406130,241.000000,1650624945.405963,0.000000,0.000000,1.000000,0.000000,0.000000,0.000000,0.000000,3.358591,4.842269,-0.593787
1650624945.506177,242.000000,1650624945.505954,0.000000,0.000000,1.000000,0.000000,0.000000,0.000000,0.000000,3.361282,4.840763,-0.596883
1650624945.606182,243.000000,1650624945.605989,0.000000,0.000000,1.000000,0.000000,0.000000,0.000000,0.000000,3.362769,4.839353,-0.611166
1650624945.706163,244.000000,1650624945.705934,0.000000,0.000000,1.000000,0.000000,0.000000,0.000000,0.000000,3.363112,4.839129,-0.615999
1650624945.806090,245.000000,1650624945.805890,0.000000,0.000000,1.000000,0.000000,0.000000,0.000000,0.000000,3.361281,4.840025,-0.628689
1650624945.906159,246.000000,1650624945.905974,0.000000,0.000000,1.000000,0.000000,0.000000,0.000000,0.000000,3.359578,4.840886,-0.642448
1650624946.006112,247.000000,1650624946.005931,0.000000,0.000000,1.000000,0.000000,0.000000,0.000000,0.000000,3.360181,4.841710,-0.663662
1650624946.106114,248.000000,1650624946.105921,0.000000,0.000000,1.000000,0.000000,0.000000,0.000000,0.000000,3.361871,4.842497,-0.687965
1650624946.206078,249.000000,1650624946.205899,0.000000,0.000000,1.000000,0.000000,0.000000,0.000000,0.000000,3.362400,4.843245,-0.705517
1650624946.306043,250.000000,1650624946.305897,0.000000,0.000000,1.000000,0.000000,0.000000,0.000000,0.000000,3.365100,4.843954,-0.729470
1650624946.405984,251.000000,1650624946.405802,0.000000,0.000000,1.000000,0.000000,0.000000,0.000000,0.000000,3.368753,4.844624,-0.757111
1650624946.506157,252.000000,1650624946.505955,0.000000,0.000000,1.000000,0.000000,0.000000,0.000000,0.000000,3.370023,4.845254,-0.775349
1650624946.606329,253.000000,1650624946.606143,0.000000,0.000000,1.000000,0.000000,0.000000,0.000000,0.000000,3.371218,4.846937,-0.780510
1650624946.706090,254.000000,1650624946.705894,0.000000,0.000000,1.000000,0.000000,0.000000,0.000000,0.000000,3.370157,4.847427,-0.794897
1650624946.806140,255.000000,1650624946.805951,0.000000,0.000000,1.000000,0.000000,0.000000,0.000000,0.000000,3.364786,4.844609,-0.765704
1650624946.906001,256.000000,1650624946.905805,0.000000,0.000000,1.000000,0.000000,0.000000,0.000000,0.000000,3.357538,4.840853,-0.704425
1650624947.006094,257.000000,1650624947.005914,0.000000,0.000000,1.000000,0.000000,0.000000,0.000000,0.000000,3.352899,4.839493,-0.669724
1650624947.106046,258.000000,1650624947.105883,0.000000,0.000000,1.000000,0.000000,0.000000,0.000000,0.000000,3.351830,4.838222,-0.657367
1650624947.206093,259.000000,1650624947.205927,0.000000,0.000000,1.000000,0.000000,0.000000,0.000000,0.000000,3.353047,4.838128,-0.655990
1650624947.306422,260.000000,1650624947.306223,0.000000,0.000000,1.000000,0.000000,0.000000,0.000000,0.000000,3.352057,4.839147,-0.659509
1650624947.406410,261.000000,1650624947.406182,0.000000,0.000000,1.000000,0.000000,0.000000,0.000000,0.000000,3.352252,4.839032,-0.674172
1650624947.506415,262.000000,1650624947.506201,0.000000,0.000000,1.000000,0.000000,0.000000,0.000000,0.000000,3.351385,4.840026,-0.692247
1650624947.606406,263.000000,1650624947.606182,0.000000,0.000000,1.000000,0.000000,0.000000,0.000000,0.000000,3.348423,4.842065,-0.716793
1650624947.706504,264.000000,1650624947.706291,0.000000,0.000000,1.000000,0.000000,0.000000,0.000000,0.000000,3.350029,4.843995,-0.727348
1650624947.806032,265.000000,1650624947.805850,0.000000,0.000000,1.000000,0.000000,0.000000,0.000000,0.000000,3.351586,4.844724,-0.743817
1650624947.906097,266.000000,1650624947.905894,0.000000,0.000000,1.000000,0.000000,0.000000,0.000000,0.000000,3.349817,4.846498,-0.744972
1650624948.006112,267.000000,1650624948.005943,0.000000,0.000000,1.000000,0.000000,0.000000,0.000000,0.000000,3.343819,4.845982,-0.708046
1650624948.106004,268.000000,1650624948.105835,0.000000,0.000000,1.000000,0.000000,0.000000,0.000000,0.000000,3.345831,4.844395,-0.651576
1650624948.206079,269.000000,1650624948.205907,0.000000,0.000000,1.000000,0.000000,0.000000,0.000000,0.000000,3.346686,4.845070,-0.615161
1650624948.306753,270.000000,1650624948.306574,0.000000,0.000000,1.000000,0.000000,0.000000,0.000000,0.000000,3.349711,4.844613,-0.600469
1650624948.406052,271.000000,1650624948.405890,0.000000,0.000000,1.000000,0.000000,0.000000,0.000000,0.000000,3.351508,4.845267,-0.597777
1650624948.506060,272.000000,1650624948.505885,0.000000,0.000000,1.000000,0.000000,0.000000,0.000000,0.000000,3.353224,4.846970,-0.601761
1650624948.606093,273.000000,1650624948.605914,0.000000,0.000000,1.000000,0.000000,0.000000,0.000000,0.000000,3.354860,4.847479,-0.602464
1650624948.706072,274.000000,1650624948.705900,0.000000,0.000000,1.000000,0.000000,0.000000,0.000000,0.000000,3.354231,4.850129,-0.605656
1650624948.806073,275.000000,1650624948.805907,0.000000,0.000000,1.000000,0.000000,0.000000,0.000000,0.000000,3.354734,4.853705,-0.614454
1650624948.906095,276.000000,1650624948.905920,0.000000,0.000000,1.000000,0.000000,0.000000,0.000000,0.000000,3.357397,4.857057,-0.629419
1650624949.006080,277.000000,1650624949.005913,0.000000,0.000000,1.000000,0.000000,0.000000,0.000000,0.000000,3.358821,4.860188,-0.636566
1650624949.106393,278.000000,1650624949.106156,0.000000,0.000000,1.000000,0.000000,0.000000,0.000000,0.000000,3.361251,4.863102,-0.646679
1650624949.206505,279.000000,1650624949.206250,0.000000,0.000000,1.000000,0.000000,0.000000,0.000000,0.000000,3.363533,4.864714,-0.649943
1650624949.306661,280.000000,1650624949.306369,0.000000,0.000000,1.000000,0.000000,0.000000,0.000000,0.000000,3.365671,4.865094,-0.617596
1650624949.406143,281.000000,1650624949.405946,0.000000,0.000000,1.000000,0.000000,0.000000,0.000000,0.000000,3.366575,4.866490,-0.589030
1650624949.506131,282.000000,1650624949.505927,0.000000,0.000000,1.000000,0.000000,0.000000,0.000000,0.000000,3.370673,4.866666,-0.579462
1650624949.606038,283.000000,1650624949.605868,0.000000,0.000000,1.000000,0.000000,0.000000,0.000000,0.000000,3.375599,4.866780,-0.584913
1650624949.706100,284.000000,1650624949.705929,0.000000,0.000000,1.000000,0.000000,0.000000,0.000000,0.000000,3.380205,4.865749,-0.600731
1650624949.806045,285.000000,1650624949.805876,0.000000,0.000000,1.000000,0.000000,0.000000,0.000000,0.000000,3.384496,4.865822,-0.624046
1650624949.906096,286.000000,1650624949.905933,0.000000,0.000000,1.000000,0.000000,0.000000,0.000000,0.000000,3.387389,4.866941,-0.649677
1650624950.006144,287.000000,1650624950.005974,0.000000,0.000000,1.000000,0.000000,0.000000,0.000000,0.000000,3.386775,4.869047,-0.671840
1650624950.106148,288.000000,1650624950.105944,0.000000,0.000000,1.000000,0.000000,0.000000,0.000000,0.000000,3.386122,4.869902,-0.691443
1650624950.206136,289.000000,1650624950.205968,0.000000,0.000000,1.000000,0.000000,0.000000,0.000000,0.000000,3.384349,4.869574,-0.719044
1650624950.306463,290.000000,1650624950.306281,0.000000,0.000000,1.000000,0.000000,0.000000,0.000000,0.000000,3.382616,4.868132,-0.751050
1650624950.406491,291.000000,1650624950.406257,0.000000,0.000000,1.000000,0.000000,0.000000,0.000000,0.000000,3.379839,4.866732,-0.783203
1650624950.506461,292.000000,1650624950.506256,0.000000,0.000000,1.000000,0.000000,0.000000,0.000000,0.000000,3.376086,4.865380,-0.798514
1650624950.605994,293.000000,1650624950.605805,0.000000,0.000000,1.000000,0.000000,0.000000,0.000000,0.000000,3.374697,4.864078,-0.817001
1650624950.706065,294.000000,1650624950.705893,0.000000,0.000000,1.000000,0.000000,0.000000,0.000000,0.000000,3.374457,4.862830,-0.836095
1650624950.806068,295.000000,1650624950.805905,0.000000,0.000000,1.000000,0.000000,0.000000,0.000000,0.000000,3.374215,4.863818,-0.854943
1650624950.906210,296.000000,1650624950.906003,0.000000,0.000000,1.000000,0.000000,0.000000,0.000000,0.000000,3.373973,4.863647,-0.875955
1650624951.006170,297.000000,1650624951.005991,0.000000,0.000000,1.000000,0.000000,0.000000,0.000000,0.000000,3.374823,4.862381,-0.890955
1650624951.106098,298.000000,1650624951.105898,0.000000,0.000000,1.000000,0.000000,0.000000,0.000000,0.000000,3.373431,4.861175,-0.907434
1650624951.206210,299.000000,1650624951.206025,0.000000,0.000000,1.000000,0.000000,0.000000,0.000000,0.000000,3.373198,4.862211,-0.906768
1650624951.306154,300.000000,1650624951.305951,0.000000,0.000000,1.000000,0.000000,0.000000,0.000000,0.000000,3.369698,4.864274,-0.893697
1650624951.406224,301.000000,1650624951.405981,0.000000,0.000000,1.000000,0.000000,0.000000,0.000000,0.000000,3.368575,4.867301,-0.883273
1650624951.506074,302.000000,1650624951.505884,0.000000,0.000000,1.000000,0.000000,0.000000,0.000000,0.000000,3.367519,4.869050,-0.884291
1650624951.606180,303.000000,1650624951.605987,0.000000,0.000000,1.000000,0.000000,0.000000,0.000000,0.000000,3.367622,4.870678,-0.892268
1650624951.706230,304.000000,1650624951.705999,0.000000,0.000000,1.000000,0.000000,0.000000,0.000000,0.000000,3.367729,4.872186,-0.881919
1650624951.806059,305.000000,1650624951.805872,0.000000,0.000000,1.000000,0.000000,0.000000,0.000000,0.000000,3.367838,4.873580,-0.866915
1650624951.906134,306.000000,1650624951.905949,0.000000,0.000000,1.000000,0.000000,0.000000,0.000000,0.000000,3.367949,4.873771,-0.860383
1650624952.006029,307.000000,1650624952.005852,0.000000,0.000000,1.000000,0.000000,0.000000,0.000000,0.000000,3.370241,4.873918,-0.864420
1650624952.106069,308.000000,1650624952.105886,0.000000,0.000000,1.000000,0.000000,0.000000,0.000000,0.000000,3.371318,4.874024,-0.860858
1650624952.206113,309.000000,1650624952.205922,0.000000,0.000000,1.000000,0.000000,0.000000,0.000000,0.000000,3.378874,4.871913,-0.817758
1650624952.306251,310.000000,1650624952.306076,0.000000,0.000000,1.000000,0.000000,0.000000,0.000000,0.000000,3.383810,4.869894,-0.791635
1650624952.406095,311.000000,1650624952.405905,0.000000,0.000000,1.000000,0.000000,0.000000,0.000000,0.000000,3.387345,4.867969,-0.781044
1650624952.506307,312.000000,1650624952.506056,0.000000,0.000000,1.000000,0.000000,0.000000,0.000000,0.000000,3.387366,4.867232,-0.778120
1650624952.606038,313.000000,1650624952.605856,0.000000,0.000000,1.000000,0.000000,0.000000,0.000000,0.000000,3.386248,4.867621,-0.778530
1650624952.706230,314.000000,1650624952.706032,0.000000,0.000000,1.000000,0.000000,0.000000,0.000000,0.000000,3.384059,4.867981,-0.788588
1650624952.806125,315.000000,1650624952.805912,0.000000,0.000000,1.000000,0.000000,0.000000,0.000000,0.000000,3.383048,4.869406,-0.785310
1650624952.906205,316.000000,1650624952.905990,0.000000,0.000000,1.000000,0.000000,0.000000,0.000000,0.000000,3.383156,4.868561,-0.792627
1650624953.006097,317.000000,1650624953.005895,0.000000,0.000000,1.000000,0.000000,0.000000,0.000000,0.000000,3.382141,4.868845,-0.786712
1650624953.106071,318.000000,1650624953.105879,0.000000,0.000000,1.000000,0.000000,0.000000,0.000000,0.000000,3.381161,4.871286,-0.775370
1650624953.206082,319.000000,1650624953.205883,0.000000,0.000000,1.000000,0.000000,0.000000,0.000000,0.000000,3.380218,4.871398,-0.766902
1650624953.306607,320.000000,1650624953.306383,0.000000,0.000000,1.000000,0.000000,0.000000,0.000000,0.000000,3.379313,4.870398,-0.770886
1650624953.406108,321.000000,1650624953.405891,0.000000,0.000000,1.000000,0.000000,0.000000,0.000000,0.000000,3.378448,4.870532,-0.777940
1650624953.506117,322.000000,1650624953.505908,0.000000,0.000000,1.000000,0.000000,0.000000,0.000000,0.000000,3.376533,4.869558,-0.791156
1650624953.606058,323.000000,1650624953.605871,0.000000,0.000000,1.000000,0.000000,0.000000,0.000000,0.000000,3.373634,4.868630,-0.808649
1650624953.706178,324.000000,1650624953.705967,0.000000,0.000000,1.000000,0.000000,0.000000,0.000000,0.000000,3.369811,4.865568,-0.779412
1650624953.806568,325.000000,1650624953.806343,0.000000,0.000000,1.000000,0.000000,0.000000,0.000000,0.000000,3.369488,4.862679,-0.768284
1650624953.906531,326.000000,1650624953.906295,0.000000,0.000000,1.000000,0.000000,0.000000,0.000000,0.000000,3.368114,4.859963,-0.768909
1650624954.006461,327.000000,1650624954.006219,0.000000,0.000000,1.000000,0.000000,0.000000,0.000000,0.000000,3.367929,4.858507,-0.761457
1650624954.106910,328.000000,1650624954.106462,0.000000,0.000000,1.000000,0.000000,0.000000,0.000000,0.000000,3.366686,4.858247,-0.747878
1650624954.206447,329.000000,1650624954.206218,0.000000,0.000000,1.000000,0.000000,0.000000,0.000000,0.000000,3.365537,4.856936,-0.746183
1650624954.306493,330.000000,1650624954.306248,0.000000,0.000000,1.000000,0.000000,0.000000,0.000000,0.000000,3.363388,4.855724,-0.745410
1650624954.406492,331.000000,1650624954.406284,0.000000,0.000000,1.000000,0.000000,0.000000,0.000000,0.000000,3.362480,4.856789,-0.750360
1650624954.506461,332.000000,1650624954.506258,0.000000,0.000000,1.000000,0.000000,0.000000,0.000000,0.000000,3.361655,4.857821,-0.759986
1650624954.606423,333.000000,1650624954.606177,0.000000,0.000000,1.000000,0.000000,0.000000,0.000000,0.000000,3.362000,4.858818,-0.757145
1650624954.706096,334.000000,1650624954.705922,0.000000,0.000000,1.000000,0.000000,0.000000,0.000000,0.000000,3.361267,4.860866,-0.760894
1650624954.806093,335.000000,1650624954.805915,0.000000,0.000000,1.000000,0.000000,0.000000,0.000000,0.000000,3.359516,4.862811,-0.759667
1650624954.906134,336.000000,1650624954.905944,0.000000,0.000000,1.000000,0.000000,0.000000,0.000000,0.000000,3.357896,4.863562,-0.766572
1650624955.006547,337.000000,1650624955.006349,0.000000,0.000000,1.000000,0.000000,0.000000,0.000000,0.000000,3.357493,4.864272,-0.766750
1650624955.106485,338.000000,1650624955.106282,0.000000,0.000000,1.000000,0.000000,0.000000,0.000000,0.000000,3.358240,4.864940,-0.758055
1650624955.206317,339.000000,1650624955.206115,0.000000,0.000000,1.000000,0.000000,0.000000,0.000000,0.000000,3.357890,4.867748,-0.751341
1650624955.306406,340.000000,1650624955.306181,0.000000,0.000000,1.000000,0.000000,0.000000,0.000000,0.000000,3.357591,4.869300,-0.739281
1650624955.406462,341.000000,1650624955.406245,0.000000,0.000000,1.000000,0.000000,0.000000,0.000000,0.000000,3.356249,4.869659,-0.739853
1650624955.506462,342.000000,1650624955.506249,0.000000,0.000000,1.000000,0.000000,0.000000,0.000000,0.000000,3.355014,4.868891,-0.746899
1650624955.606477,343.000000,1650624955.606257,0.000000,0.000000,1.000000,0.000000,0.000000,0.000000,0.000000,3.353883,4.868151,-0.762562
1650624955.706494,344.000000,1650624955.706289,0.000000,0.000000,1.000000,0.000000,0.000000,0.000000,0.000000,3.353940,4.865259,-0.777599
1650624955.806469,345.000000,1650624955.806255,0.000000,0.000000,1.000000,0.000000,0.000000,0.000000,0.000000,3.354030,4.863614,-0.794426
1650624955.906522,346.000000,1650624955.906277,0.000000,0.000000,1.000000,0.000000,0.000000,0.000000,0.000000,3.356328,4.862063,-0.814557
1650624956.006510,347.000000,1650624956.006223,0.000000,0.000000,1.000000,0.000000,0.000000,0.000000,0.000000,3.357434,4.861695,-0.836215
1650624956.105961,348.000000,1650624956.105674,0.000000,0.000000,1.000000,0.000000,0.000000,0.000000,0.000000,3.358499,4.861357,-0.856885
1650624956.206482,349.000000,1650624956.206286,0.000000,0.000000,1.000000,0.000000,0.000000,0.000000,0.000000,3.360610,4.862138,-0.845931
1650624956.306125,350.000000,1650624956.305979,0.000000,0.000000,1.000000,0.000000,0.000000,0.000000,0.000000,3.363703,4.863973,-0.840137
1650624956.406268,351.000000,1650624956.406069,0.000000,0.000000,1.000000,0.000000,0.000000,0.000000,0.000000,3.365535,4.863528,-0.845761
1650624956.506101,352.000000,1650624956.505903,0.000000,0.000000,1.000000,0.000000,0.000000,0.000000,0.000000,3.366167,4.862019,-0.859112
1650624956.606093,353.000000,1650624956.605926,0.000000,0.000000,1.000000,0.000000,0.000000,0.000000,0.000000,3.367845,4.861690,-0.875022
1650624956.706073,354.000000,1650624956.705904,0.000000,0.000000,1.000000,0.000000,0.000000,0.000000,0.000000,3.368326,4.862476,-0.890947
1650624956.806048,355.000000,1650624956.805899,0.000000,0.000000,1.000000,0.000000,0.000000,0.000000,0.000000,3.368765,4.862133,-0.910897
1650624956.906113,356.000000,1650624956.905946,0.000000,0.000000,1.000000,0.000000,0.000000,0.000000,0.000000,3.369164,4.862905,-0.932266
1650624957.006124,357.000000,1650624957.005953,0.000000,0.000000,1.000000,0.000000,0.000000,0.000000,0.000000,3.371705,4.863637,-0.952547
1650624957.106163,358.000000,1650624957.105990,0.000000,0.000000,1.000000,0.000000,0.000000,0.000000,0.000000,3.374085,4.865420,-0.970954
1650624957.206175,359.000000,1650624957.206017,0.000000,0.000000,1.000000,0.000000,0.000000,0.000000,0.000000,3.374124,4.866010,-0.978671
1650624957.306203,360.000000,1650624957.305995,0.000000,0.000000,1.000000,0.000000,0.000000,0.000000,0.000000,3.375223,4.865470,-0.990642
1650624957.406183,361.000000,1650624957.406018,0.000000,0.000000,1.000000,0.000000,0.000000,0.000000,0.000000,3.379504,4.862774,-0.956688
1650624957.506267,362.000000,1650624957.506065,0.000000,0.000000,1.000000,0.000000,0.000000,0.000000,0.000000,3.383510,4.860228,-0.919857
1650624957.606035,363.000000,1650624957.605816,0.000000,0.000000,1.000000,0.000000,0.000000,0.000000,0.000000,3.382885,4.855652,-0.852112
1650624957.706111,364.000000,1650624957.705938,0.000000,0.000000,1.000000,0.000000,0.000000,0.000000,0.000000,3.381156,4.853532,-0.806432
1650624957.806089,365.000000,1650624957.805921,0.000000,0.000000,1.000000,0.000000,0.000000,0.000000,0.000000,3.378392,4.851557,-0.769910
1650624957.906116,366.000000,1650624957.905943,0.000000,0.000000,1.000000,0.000000,0.000000,0.000000,0.000000,3.375751,4.848635,-0.748687
1650624958.006025,367.000000,1650624958.005875,0.000000,0.000000,1.000000,0.000000,0.000000,0.000000,0.000000,3.373235,4.847004,-0.741371
1650624958.106858,368.000000,1650624958.106432,0.000000,0.000000,1.000000,0.000000,0.000000,0.000000,0.000000,3.370848,4.846598,-0.742569
1650624958.206336,369.000000,1650624958.206124,0.000000,0.000000,1.000000,0.000000,0.000000,0.000000,0.000000,3.368590,4.847347,-0.750318
1650624958.306801,370.000000,1650624958.306601,0.000000,0.000000,1.000000,0.000000,0.000000,0.000000,0.000000,3.369732,4.845914,-0.719977
1650624958.406357,371.000000,1650624958.406135,0.000000,0.000000,1.000000,0.000000,0.000000,0.000000,0.000000,3.371905,4.845690,-0.705549
1650624958.506442,372.000000,1650624958.506175,0.000000,0.000000,1.000000,0.000000,0.000000,0.000000,0.000000,3.377226,4.842247,-0.657215
1650624958.606177,373.000000,1650624958.605976,0.000000,0.000000,1.000000,0.000000,0.000000,0.000000,0.000000,3.380055,4.840129,-0.629642
1650624958.706166,374.000000,1650624958.705959,0.000000,0.000000,1.000000,0.000000,0.000000,0.000000,0.000000,3.380520,4.839269,-0.601061
1650624958.806145,375.000000,1650624958.805945,0.000000,0.000000,1.000000,0.000000,0.000000,0.000000,0.000000,3.387474,4.836327,-0.545742
1650624958.906213,376.000000,1650624958.906011,0.000000,0.000000,1.000000,0.000000,0.000000,0.000000,0.000000,3.389638,4.834693,-0.505971
1650624959.006223,377.000000,1650624959.006012,0.000000,0.000000,1.000000,0.000000,0.000000,0.000000,0.000000,3.389451,4.833208,-0.490042
1650624959.106078,378.000000,1650624959.105852,0.000000,0.000000,1.000000,0.000000,0.000000,0.000000,0.000000,3.388135,4.834045,-0.472810
1650624959.206089,379.000000,1650624959.205882,0.000000,0.000000,1.000000,0.000000,0.000000,0.000000,0.000000,3.386847,4.834891,-0.460786
1650624959.306149,380.000000,1650624959.305959,0.000000,0.000000,1.000000,0.000000,0.000000,0.000000,0.000000,3.384504,4.835740,-0.465858
1650624959.406113,381.000000,1650624959.405884,0.000000,0.000000,1.000000,0.000000,0.000000,0.000000,0.000000,3.382262,4.835496,-0.484083
1650624959.506122,382.000000,1650624959.505874,0.000000,0.000000,1.000000,0.000000,0.000000,0.000000,0.000000,3.379034,4.835307,-0.500364
1650624959.606081,383.000000,1650624959.605923,0.000000,0.000000,1.000000,0.000000,0.000000,0.000000,0.000000,3.382518,4.834078,-0.476831
1650624959.706197,384.000000,1650624959.706021,0.000000,0.000000,1.000000,0.000000,0.000000,0.000000,0.000000,3.384704,4.831866,-0.473986
1650624959.806030,385.000000,1650624959.805865,0.000000,0.000000,1.000000,0.000000,0.000000,0.000000,0.000000,3.386749,4.829821,-0.486950
1650624959.906180,386.000000,1650624959.905927,0.000000,0.000000,1.000000,0.000000,0.000000,0.000000,0.000000,3.389744,4.827938,-0.511017
1650624960.006067,387.000000,1650624960.005821,0.000000,0.000000,1.000000,0.000000,0.000000,0.000000,0.000000,3.392540,4.826209,-0.540846
1650624960.106223,388.000000,1650624960.106011,0.000000,0.000000,1.000000,0.000000,0.000000,0.000000,0.000000,3.392960,4.826811,-0.571303
1650624960.206106,389.000000,1650624960.205928,0.000000,0.000000,1.000000,0.000000,0.000000,0.000000,0.000000,3.394406,4.826340,-0.557947
1650624960.306061,390.000000,1650624960.305865,0.000000,0.000000,1.000000,0.000000,0.000000,0.000000,0.000000,3.392458,4.824853,-0.555786
1650624960.406170,391.000000,1650624960.405972,0.000000,0.000000,1.000000,0.000000,0.000000,0.000000,0.000000,3.388401,4.824588,-0.562752
1650624960.506342,392.000000,1650624960.506111,0.000000,0.000000,1.000000,0.000000,0.000000,0.000000,0.000000,3.385635,4.825476,-0.570395
1650624960.606404,393.000000,1650624960.606146,0.000000,0.000000,1.000000,0.000000,0.000000,0.000000,0.000000,3.383009,4.826359,-0.587538
1650624960.706456,394.000000,1650624960.706215,0.000000,0.000000,1.000000,0.000000,0.000000,0.000000,0.000000,3.379435,4.829412,-0.608119
1650624960.806482,395.000000,1650624960.806311,0.000000,0.000000,1.000000,0.000000,0.000000,0.000000,0.000000,3.372793,4.830144,-0.631960
1650624960.906470,396.000000,1650624960.906241,0.000000,0.000000,1.000000,0.000000,0.000000,0.000000,0.000000,3.363273,4.828677,-0.614532
1650624961.006483,397.000000,1650624961.006216,0.000000,0.000000,1.000000,0.000000,0.000000,0.000000,0.000000,3.356510,4.828406,-0.614786
1650624961.106464,398.000000,1650624961.106300,0.000000,0.000000,1.000000,0.000000,0.000000,0.000000,0.000000,3.353463,4.827084,-0.623135
1650624961.206393,399.000000,1650624961.206235,0.000000,0.000000,1.000000,0.000000,0.000000,0.000000,0.000000,3.350664,4.826953,-0.639238
1650624961.306522,400.000000,1650624961.306322,0.000000,0.000000,1.000000,0.000000,0.000000,0.000000,0.000000,3.349193,4.825764,-0.663560
1650624961.406421,401.000000,1650624961.406181,0.000000,0.000000,1.000000,0.000000,0.000000,0.000000,0.000000,3.346797,4.825759,-0.690889
1650624961.506467,402.000000,1650624961.506221,0.000000,0.000000,1.000000,0.000000,0.000000,0.000000,0.000000,3.343530,4.826872,-0.721062
1650624961.606467,403.000000,1650624961.606199,0.000000,0.000000,1.000000,0.000000,0.000000,0.000000,0.000000,3.342714,4.826855,-0.745043
1650624961.706533,404.000000,1650624961.706324,0.000000,0.000000,1.000000,0.000000,0.000000,0.000000,0.000000,3.343123,4.826860,-0.773532
1650624961.806494,405.000000,1650624961.806261,0.000000,0.000000,1.000000,0.000000,0.000000,0.000000,0.000000,3.343594,4.827975,-0.783725
1650624961.906438,406.000000,1650624961.906202,0.000000,0.000000,1.000000,0.000000,0.000000,0.000000,0.000000,3.346298,4.827954,-0.802158
1650624962.006433,407.000000,1650624962.006194,0.000000,0.000000,1.000000,0.000000,0.000000,0.000000,0.000000,3.343467,4.826857,-0.777670
1650624962.106516,408.000000,1650624962.106276,0.000000,0.000000,1.000000,0.000000,0.000000,0.000000,0.000000,3.341950,4.826927,-0.756397
1650624962.206329,409.000000,1650624962.206122,0.000000,0.000000,1.000000,0.000000,0.000000,0.000000,0.000000,3.339496,4.828099,-0.748739
1650624962.306498,410.000000,1650624962.306238,0.000000,0.000000,1.000000,0.000000,0.000000,0.000000,0.000000,3.336160,4.830309,-0.730778
1650624962.406495,411.000000,1650624962.406228,0.000000,0.000000,1.000000,0.000000,0.000000,0.000000,0.000000,3.334176,4.832402,-0.727159
1650624962.506475,412.000000,1650624962.506196,0.000000,0.000000,1.000000,0.000000,0.000000,0.000000,0.000000,3.334563,4.833286,-0.734087
1650624962.606518,413.000000,1650624962.606224,0.000000,0.000000,1.000000,0.000000,0.000000,0.000000,0.000000,3.333914,4.835207,-0.728550
1650624962.706422,414.000000,1650624962.706197,0.000000,0.000000,1.000000,0.000000,0.000000,0.000000,0.000000,3.332284,4.835922,-0.736869
1650624962.806500,415.000000,1650624962.806209,0.000000,0.000000,1.000000,0.000000,0.000000,0.000000,0.000000,3.332998,4.835493,-0.704443
1650624962.906529,416.000000,1650624962.906321,0.000000,0.000000,1.000000,0.000000,0.000000,0.000000,0.000000,3.334832,4.836167,-0.692649
1650624963.006517,417.000000,1650624963.006274,0.000000,0.000000,1.000000,0.000000,0.000000,0.000000,0.000000,3.340986,4.835702,-0.657129
1650624963.106356,418.000000,1650624963.106175,0.000000,0.000000,1.000000,0.000000,0.000000,0.000000,0.000000,3.345749,4.834161,-0.634383
1650624963.206523,419.000000,1650624963.206281,0.000000,0.000000,1.000000,0.000000,0.000000,0.000000,0.000000,3.349181,4.834879,-0.613450
1650624963.307036,420.000000,1650624963.306855,0.000000,0.000000,1.000000,0.000000,0.000000,0.000000,0.000000,3.356795,4.835552,-0.608805
1650624963.406478,421.000000,1650624963.406212,0.000000,0.000000,1.000000,0.000000,0.000000,0.000000,0.000000,3.361795,4.837269,-0.599631
1650624963.506518,422.000000,1650624963.506312,0.000000,0.000000,1.000000,0.000000,0.000000,0.000000,0.000000,3.367581,4.836699,-0.556284
1650624963.606482,423.000000,1650624963.606213,0.000000,0.000000,1.000000,0.000000,0.000000,0.000000,0.000000,3.371913,4.836148,-0.539079
1650624963.706739,424.000000,1650624963.706384,0.000000,0.000000,1.000000,0.000000,0.000000,0.000000,0.000000,3.375949,4.836710,-0.520371
1650624963.806360,425.000000,1650624963.806131,0.000000,0.000000,1.000000,0.000000,0.000000,0.000000,0.000000,3.378605,4.838321,-0.517984
1650624963.906455,426.000000,1650624963.906209,0.000000,0.000000,1.000000,0.000000,0.000000,0.000000,0.000000,3.379954,4.840920,-0.521578
1650624964.006454,427.000000,1650624964.006252,0.000000,0.000000,1.000000,0.000000,0.000000,0.000000,0.000000,3.381156,4.844447,-0.530894
1650624964.106468,428.000000,1650624964.106243,0.000000,0.000000,1.000000,0.000000,0.000000,0.000000,0.000000,3.382219,4.847749,-0.548097
1650624964.206554,429.000000,1650624964.206262,0.000000,0.000000,1.000000,0.000000,0.000000,0.000000,0.000000,3.379881,4.850832,-0.574444
1650624964.306521,430.000000,1650624964.306277,0.000000,0.000000,1.000000,0.000000,0.000000,0.000000,0.000000,3.375430,4.851518,-0.558709
1650624964.406567,431.000000,1650624964.406298,0.000000,0.000000,1.000000,0.000000,0.000000,0.000000,0.000000,3.372268,4.852120,-0.556642
1650624964.506151,432.000000,1650624964.505907,0.000000,0.000000,1.000000,0.000000,0.000000,0.000000,0.000000,3.370339,4.853734,-0.569302
