__time,/dwm1001/id_458E/pose_kf/header/seq,/dwm1001/id_458E/pose_kf/header/stamp,/dwm1001/id_458E/pose_kf/pose/orientation/pitch_deg,/dwm1001/id_458E/pose_kf/pose/orientation/roll_deg,/dwm1001/id_458E/pose_kf/pose/orientation/w,/dwm1001/id_458E/pose_kf/pose/orientation/x,/dwm1001/id_458E/pose_kf/pose/orientation/y,/dwm1001/id_458E/pose_kf/pose/orientation/yaw_deg,/dwm1001/id_458E/pose_kf/pose/orientation/z,/dwm1001/id_458E/pose_kf/pose/position/x,/dwm1001/id_458E/pose_kf/pose/position/y,/dwm1001/id_458E/pose_kf/pose/position/z
1650625234.506775,1804.000000,1650625234.506561,0.000000,0.000000,1.000000,0.000000,0.000000,0.000000,0.000000,1.537670,14.565439,1.102719
1650625234.606759,1805.000000,1650625234.606542,0.000000,0.000000,1.000000,0.000000,0.000000,0.000000,0.000000,1.536449,14.564403,1.120065
1650625234.706763,1806.000000,1650625234.706563,0.000000,0.000000,1.000000,0.000000,0.000000,0.000000,0.000000,1.533076,14.564543,1.126104
1650625234.806788,1807.000000,1650625234.806580,0.000000,0.000000,1.000000,0.000000,0.000000,0.000000,0.000000,1.533135,14.564701,1.128546
1650625234.907156,1808.000000,1650625234.906810,0.000000,0.000000,1.000000,0.000000,0.000000,0.000000,0.000000,1.527715,14.564876,1.133180
1650625235.006759,1809.000000,1650625235.006559,0.000000,0.000000,1.000000,0.000000,0.000000,0.000000,0.000000,1.529128,14.565064,1.144756
1650625235.106742,1810.000000,1650625235.106536,0.000000,0.000000,1.000000,0.000000,0.000000,0.000000,0.000000,1.530456,14.563081,1.159754
1650625235.206718,1811.000000,1650625235.206524,0.000000,0.000000,1.000000,0.000000,0.000000,0.000000,0.000000,1.525156,14.562323,1.166726
1650625235.306695,1812.000000,1650625235.306536,0.000000,0.000000,1.000000,0.000000,0.000000,0.000000,0.000000,1.517970,14.560543,1.175667
1650625235.406731,1813.000000,1650625235.406517,0.000000,0.000000,1.000000,0.000000,0.000000,0.000000,0.000000,1.528648,14.558890,1.121975
1650625235.506741,1814.000000,1650625235.506527,0.000000,0.000000,1.000000,0.000000,0.000000,0.000000,0.000000,1.534376,14.558452,1.087304
1650625235.606730,1815.000000,1650625235.606577,0.000000,0.000000,1.000000,0.000000,0.000000,0.000000,0.000000,1.536495,14.556981,1.069337
1650625235.706860,1816.000000,1650625235.706623,0.000000,0.000000,1.000000,0.000000,0.000000,0.000000,0.000000,1.534106,14.556717,1.054529
1650625235.806824,1817.000000,1650625235.806629,0.000000,0.000000,1.000000,0.000000,0.000000,0.000000,0.000000,1.530736,14.556503,1.047616
1650625235.906747,1818.000000,1650625235.906544,0.000000,0.000000,1.000000,0.000000,0.000000,0.000000,0.000000,1.525359,14.557424,1.037805
1650625236.006710,1819.000000,1650625236.006484,0.000000,0.000000,1.000000,0.000000,0.000000,0.000000,0.000000,1.523554,14.557233,1.041357
1650625236.106752,1820.000000,1650625236.106554,0.000000,0.000000,1.000000,0.000000,0.000000,0.000000,0.000000,1.518589,14.555991,1.056111
1650625236.206784,1821.000000,1650625236.206555,0.000000,0.000000,1.000000,0.000000,0.000000,0.000000,0.000000,1.513923,14.555936,1.050138
1650625236.306733,1822.000000,1650625236.306525,0.000000,0.000000,1.000000,0.000000,0.000000,0.000000,0.000000,1.526998,14.553732,0.998474
1650625236.406706,1823.000000,1650625236.406503,0.000000,0.000000,1.000000,0.000000,0.000000,0.000000,0.000000,1.534997,14.552773,0.953049
1650625236.506945,1824.000000,1650625236.506606,0.000000,0.000000,1.000000,0.000000,0.000000,0.000000,0.000000,1.534901,14.550810,0.929810
1650625236.606731,1825.000000,1650625236.606554,0.000000,0.000000,1.000000,0.000000,0.000000,0.000000,0.000000,1.530422,14.551174,0.906122
1650625236.706666,1826.000000,1650625236.706501,0.000000,0.000000,1.000000,0.000000,0.000000,0.000000,0.000000,1.523997,14.551554,0.890903
1650625236.806708,1827.000000,1650625236.806544,0.000000,0.000000,1.000000,0.000000,0.000000,0.000000,0.000000,1.515752,14.551946,0.876569
1650625236.906740,1828.000000,1650625236.906549,0.000000,0.000000,1.000000,0.000000,0.000000,0.000000,0.000000,1.506901,14.552345,0.867131
1650625237.006758,1829.000000,1650625237.006554,0.000000,0.000000,1.000000,0.000000,0.000000,0.000000,0.000000,1.502957,14.552749,0.868038
1650625237.106745,1830.000000,1650625237.106539,0.000000,0.000000,1.000000,0.000000,0.000000,0.000000,0.000000,1.498207,14.553155,0.874830
1650625237.206723,1831.000000,1650625237.206523,0.000000,0.000000,1.000000,0.000000,0.000000,0.000000,0.000000,1.493798,14.554650,0.864664
1650625237.306940,1832.000000,1650625237.306654,0.000000,0.000000,1.000000,0.000000,0.000000,0.000000,0.000000,1.491901,14.556079,0.855167
1650625237.406742,1833.000000,1650625237.406490,0.000000,0.000000,1.000000,0.000000,0.000000,0.000000,0.000000,1.490198,14.556349,0.858413
1650625237.506719,1834.000000,1650625237.506512,0.000000,0.000000,1.000000,0.000000,0.000000,0.000000,0.000000,1.488680,14.557703,0.852905
1650625237.606699,1835.000000,1650625237.606533,0.000000,0.000000,1.000000,0.000000,0.000000,0.000000,0.000000,1.487336,14.558986,0.844639
1650625237.706640,1836.000000,1650625237.706476,0.000000,0.000000,1.000000,0.000000,0.000000,0.000000,0.000000,1.482884,14.560199,0.843408
1650625237.806710,1837.000000,1650625237.806542,0.000000,0.000000,1.000000,0.000000,0.000000,0.000000,0.000000,1.476593,14.560251,0.848113
1650625237.906723,1838.000000,1650625237.906491,0.000000,0.000000,1.000000,0.000000,0.000000,0.000000,0.000000,1.472938,14.560296,0.855272
1650625238.006704,1839.000000,1650625238.006486,0.000000,0.000000,1.000000,0.000000,0.000000,0.000000,0.000000,1.467419,14.559244,0.867182
1650625238.107002,1840.000000,1650625238.106673,0.000000,0.000000,1.000000,0.000000,0.000000,0.000000,0.000000,1.459059,14.558248,0.886044
1650625238.206650,1841.000000,1650625238.206488,0.000000,0.000000,1.000000,0.000000,0.000000,0.000000,0.000000,1.454572,14.557309,0.908311
1650625238.307108,1842.000000,1650625238.306890,0.000000,0.000000,1.000000,0.000000,0.000000,0.000000,0.000000,1.457026,14.555336,0.931385
1650625238.406708,1843.000000,1650625238.406544,0.000000,0.000000,1.000000,0.000000,0.000000,0.000000,0.000000,1.458392,14.553481,0.959221
1650625238.506746,1844.000000,1650625238.506541,0.000000,0.000000,1.000000,0.000000,0.000000,0.000000,0.000000,1.456536,14.551744,0.978676
1650625238.606688,1845.000000,1650625238.606524,0.000000,0.000000,1.000000,0.000000,0.000000,0.000000,0.000000,1.464719,14.547942,0.937634
1650625238.706839,1846.000000,1650625238.706612,0.000000,0.000000,1.000000,0.000000,0.000000,0.000000,0.000000,1.471455,14.544378,0.922477
1650625238.806777,1847.000000,1650625238.806559,0.000000,0.000000,1.000000,0.000000,0.000000,0.000000,0.000000,1.482250,14.539960,0.923314
1650625238.906977,1848.000000,1650625238.906688,0.000000,0.000000,1.000000,0.000000,0.000000,0.000000,0.000000,1.489211,14.536924,0.929819
1650625239.006780,1849.000000,1650625239.006508,0.000000,0.000000,1.000000,0.000000,0.000000,0.000000,0.000000,1.492525,14.536295,0.949815
1650625239.106751,1850.000000,1650625239.106555,0.000000,0.000000,1.000000,0.000000,0.000000,0.000000,0.000000,1.498922,14.536847,0.971432
1650625239.206823,1851.000000,1650625239.206562,0.000000,0.000000,1.000000,0.000000,0.000000,0.000000,0.000000,1.503852,14.536332,0.995374
1650625239.306804,1852.000000,1650625239.306541,0.000000,0.000000,1.000000,0.000000,0.000000,0.000000,0.000000,1.506291,14.536986,1.006185
1650625239.406742,1853.000000,1650625239.406547,0.000000,0.000000,1.000000,0.000000,0.000000,0.000000,0.000000,1.506370,14.537651,1.021316
1650625239.506769,1854.000000,1650625239.506518,0.000000,0.000000,1.000000,0.000000,0.000000,0.000000,0.000000,1.503129,14.538321,1.040568
1650625239.606722,1855.000000,1650625239.606518,0.000000,0.000000,1.000000,0.000000,0.000000,0.000000,0.000000,1.500033,14.538991,1.062137
1650625239.706875,1856.000000,1650625239.706585,0.000000,0.000000,1.000000,0.000000,0.000000,0.000000,0.000000,1.514532,14.536387,1.028638
1650625239.806758,1857.000000,1650625239.806556,0.000000,0.000000,1.000000,0.000000,0.000000,0.000000,0.000000,1.525995,14.532873,1.006871
1650625239.906738,1858.000000,1650625239.906539,0.000000,0.000000,1.000000,0.000000,0.000000,0.000000,0.000000,1.534557,14.530688,0.982695
1650625240.006713,1859.000000,1650625240.006520,0.000000,0.000000,1.000000,0.000000,0.000000,0.000000,0.000000,1.543624,14.528675,0.975606
1650625240.106711,1860.000000,1650625240.106517,0.000000,0.000000,1.000000,0.000000,0.000000,0.000000,0.000000,1.547696,14.527917,0.966379
1650625240.206707,1861.000000,1650625240.206508,0.000000,0.000000,1.000000,0.000000,0.000000,0.000000,0.000000,1.549220,14.529435,0.973665
1650625240.306726,1862.000000,1650625240.306529,0.000000,0.000000,1.000000,0.000000,0.000000,0.000000,0.000000,1.564695,14.527646,0.925817
1650625240.406734,1863.000000,1650625240.406543,0.000000,0.000000,1.000000,0.000000,0.000000,0.000000,0.000000,1.575875,14.526004,0.900945
1650625240.506974,1864.000000,1650625240.506675,0.000000,0.000000,1.000000,0.000000,0.000000,0.000000,0.000000,1.580787,14.525594,0.880420
1650625240.606403,1865.000000,1650625240.606275,0.000000,0.000000,1.000000,0.000000,0.000000,0.000000,0.000000,1.583040,14.526347,0.868129
1650625240.706387,1866.000000,1650625240.706223,0.000000,0.000000,1.000000,0.000000,0.000000,0.000000,0.000000,1.582785,14.528193,0.866980
1650625240.806440,1867.000000,1650625240.806262,0.000000,0.000000,1.000000,0.000000,0.000000,0.000000,0.000000,1.582352,14.529976,0.871681
1650625240.906408,1868.000000,1650625240.906214,0.000000,0.000000,1.000000,0.000000,0.000000,0.000000,0.000000,1.590485,14.529510,0.824724
1650625241.006443,1869.000000,1650625241.006280,0.000000,0.000000,1.000000,0.000000,0.000000,0.000000,0.000000,1.599070,14.528007,0.802456
1650625241.106392,1870.000000,1650625241.106214,0.000000,0.000000,1.000000,0.000000,0.000000,0.000000,0.000000,1.603706,14.527708,0.791010
1650625241.206343,1871.000000,1650625241.206168,0.000000,0.000000,1.000000,0.000000,0.000000,0.000000,0.000000,1.605695,14.527455,0.786732
1650625241.306429,1872.000000,1650625241.306263,0.000000,0.000000,1.000000,0.000000,0.000000,0.000000,0.000000,1.596465,14.529428,0.798200
1650625241.406518,1873.000000,1650625241.406342,0.000000,0.000000,1.000000,0.000000,0.000000,0.000000,0.000000,1.583209,14.532405,0.806201
1650625241.506415,1874.000000,1650625241.506268,0.000000,0.000000,1.000000,0.000000,0.000000,0.000000,0.000000,1.593459,14.533050,0.764079
1650625241.606405,1875.000000,1650625241.606265,0.000000,0.000000,1.000000,0.000000,0.000000,0.000000,0.000000,1.600829,14.533669,0.728754
1650625241.706374,1876.000000,1650625241.706215,0.000000,0.000000,1.000000,0.000000,0.000000,0.000000,0.000000,1.601100,14.534260,0.706454
1650625241.806385,1877.000000,1650625241.806228,0.000000,0.000000,1.000000,0.000000,0.000000,0.000000,0.000000,1.600118,14.534822,0.696679
1650625241.906422,1878.000000,1650625241.906274,0.000000,0.000000,1.000000,0.000000,0.000000,0.000000,0.000000,1.600144,14.534266,0.704571
1650625242.006386,1879.000000,1650625242.006234,0.000000,0.000000,1.000000,0.000000,0.000000,0.000000,0.000000,1.597859,14.534834,0.714874
1650625242.106730,1880.000000,1650625242.106441,0.000000,0.000000,1.000000,0.000000,0.000000,0.000000,0.000000,1.597766,14.535372,0.729881
1650625242.206546,1881.000000,1650625242.206346,0.000000,0.000000,1.000000,0.000000,0.000000,0.000000,0.000000,1.598662,14.534791,0.752590
1650625242.306450,1882.000000,1650625242.306258,0.000000,0.000000,1.000000,0.000000,0.000000,0.000000,0.000000,1.600496,14.534242,0.777803
1650625242.406515,1883.000000,1650625242.406322,0.000000,0.000000,1.000000,0.000000,0.000000,0.000000,0.000000,1.596675,14.535908,0.811821
1650625242.506495,1884.000000,1650625242.506305,0.000000,0.000000,1.000000,0.000000,0.000000,0.000000,0.000000,1.584254,14.538571,0.834869
1650625242.606502,1885.000000,1650625242.606311,0.000000,0.000000,1.000000,0.000000,0.000000,0.000000,0.000000,1.575740,14.539988,0.866702
1650625242.706740,1886.000000,1650625242.706516,0.000000,0.000000,1.000000,0.000000,0.000000,0.000000,0.000000,1.565496,14.543494,0.899653
1650625242.806720,1887.000000,1650625242.806556,0.000000,0.000000,1.000000,0.000000,0.000000,0.000000,0.000000,1.559103,14.544604,0.932009
1650625242.906986,1888.000000,1650625242.906781,0.000000,0.000000,1.000000,0.000000,0.000000,0.000000,0.000000,1.554188,14.545627,0.962128
1650625243.006747,1889.000000,1650625243.006502,0.000000,0.000000,1.000000,0.000000,0.000000,0.000000,0.000000,1.550684,14.546566,0.990056
1650625243.106695,1890.000000,1650625243.106499,0.000000,0.000000,1.000000,0.000000,0.000000,0.000000,0.000000,1.546342,14.546334,1.019066
1650625243.206671,1891.000000,1650625243.206475,0.000000,0.000000,1.000000,0.000000,0.000000,0.000000,0.000000,1.539036,14.546087,1.053913
1650625243.307163,1892.000000,1650625243.306920,0.000000,0.000000,1.000000,0.000000,0.000000,0.000000,0.000000,1.535490,14.546919,1.081410
1650625243.406782,1893.000000,1650625243.406564,0.000000,0.000000,1.000000,0.000000,0.000000,0.000000,0.000000,1.535504,14.545500,1.102626
1650625243.506734,1894.000000,1650625243.506525,0.000000,0.000000,1.000000,0.000000,0.000000,0.000000,0.000000,1.534517,14.546318,1.108920
1650625243.606725,1895.000000,1650625243.606481,0.000000,0.000000,1.000000,0.000000,0.000000,0.000000,0.000000,1.539124,14.545979,1.127513
1650625243.706836,1896.000000,1650625243.706551,0.000000,0.000000,1.000000,0.000000,0.000000,0.000000,0.000000,1.535916,14.545640,1.144987
1650625243.806828,1897.000000,1650625243.806567,0.000000,0.000000,1.000000,0.000000,0.000000,0.000000,0.000000,1.527506,14.546393,1.171051
1650625243.906819,1898.000000,1650625243.906575,0.000000,0.000000,1.000000,0.000000,0.000000,0.000000,0.000000,1.524013,14.547087,1.195654
1650625244.006810,1899.000000,1650625244.006568,0.000000,0.000000,1.000000,0.000000,0.000000,0.000000,0.000000,1.521903,14.546632,1.220443
1650625244.106823,1900.000000,1650625244.106550,0.000000,0.000000,1.000000,0.000000,0.000000,0.000000,0.000000,1.517830,14.545096,1.249419
1650625244.206684,1901.000000,1650625244.206489,0.000000,0.000000,1.000000,0.000000,0.000000,0.000000,0.000000,1.512999,14.544722,1.281577
1650625244.306770,1902.000000,1650625244.306546,0.000000,0.000000,1.000000,0.000000,0.000000,0.000000,0.000000,1.517272,14.543269,1.309496
1650625244.406737,1903.000000,1650625244.406501,0.000000,0.000000,1.000000,0.000000,0.000000,0.000000,0.000000,1.538858,14.539710,1.272839
1650625244.507028,1904.000000,1650625244.506692,0.000000,0.000000,1.000000,0.000000,0.000000,0.000000,0.000000,1.550570,14.538533,1.242841
1650625244.606754,1905.000000,1650625244.606565,0.000000,0.000000,1.000000,0.000000,0.000000,0.000000,0.000000,1.559450,14.537430,1.228981
1650625244.706822,1906.000000,1650625244.706610,0.000000,0.000000,1.000000,0.000000,0.000000,0.000000,0.000000,1.565624,14.535311,1.222586
1650625244.806749,1907.000000,1650625244.806571,0.000000,0.000000,1.000000,0.000000,0.000000,0.000000,0.000000,1.572495,14.535507,1.208057
1650625244.906748,1908.000000,1650625244.906543,0.000000,0.000000,1.000000,0.000000,0.000000,0.000000,0.000000,1.572374,14.536800,1.209954
1650625245.006705,1909.000000,1650625245.006516,0.000000,0.000000,1.000000,0.000000,0.000000,0.000000,0.000000,1.567826,14.539126,1.205850
1650625245.106722,1910.000000,1650625245.106533,0.000000,0.000000,1.000000,0.000000,0.000000,0.000000,0.000000,1.561292,14.540239,1.206488
1650625245.206705,1911.000000,1650625245.206507,0.000000,0.000000,1.000000,0.000000,0.000000,0.000000,0.000000,1.556176,14.541293,1.207656
1650625245.307085,1912.000000,1650625245.306703,0.000000,0.000000,1.000000,0.000000,0.000000,0.000000,0.000000,1.557869,14.542286,1.211761
1650625245.406758,1913.000000,1650625245.406570,0.000000,0.000000,1.000000,0.000000,0.000000,0.000000,0.000000,1.556183,14.543219,1.215460
1650625245.506736,1914.000000,1650625245.506520,0.000000,0.000000,1.000000,0.000000,0.000000,0.000000,0.000000,1.554579,14.545184,1.209098
1650625245.606699,1915.000000,1650625245.606543,0.000000,0.000000,1.000000,0.000000,0.000000,0.000000,0.000000,1.548696,14.547028,1.197132
1650625245.706664,1916.000000,1650625245.706513,0.000000,0.000000,1.000000,0.000000,0.000000,0.000000,0.000000,1.546420,14.547661,1.197559
1650625245.806699,1917.000000,1650625245.806543,0.000000,0.000000,1.000000,0.000000,0.000000,0.000000,0.000000,1.541017,14.548241,1.198597
1650625245.906719,1918.000000,1650625245.906555,0.000000,0.000000,1.000000,0.000000,0.000000,0.000000,0.000000,1.537036,14.547678,1.207485
1650625246.006743,1919.000000,1650625246.006553,0.000000,0.000000,1.000000,0.000000,0.000000,0.000000,0.000000,1.530047,14.548218,1.210190
1650625246.106833,1920.000000,1650625246.106637,0.000000,0.000000,1.000000,0.000000,0.000000,0.000000,0.000000,1.521325,14.547621,1.214220
1650625246.206716,1921.000000,1650625246.206535,0.000000,0.000000,1.000000,0.000000,0.000000,0.000000,0.000000,1.512077,14.547040,1.225976
1650625246.306711,1922.000000,1650625246.306546,0.000000,0.000000,1.000000,0.000000,0.000000,0.000000,0.000000,1.508900,14.545389,1.244327
1650625246.406753,1923.000000,1650625246.406512,0.000000,0.000000,1.000000,0.000000,0.000000,0.000000,0.000000,1.508193,14.544910,1.254467
1650625246.506789,1924.000000,1650625246.506552,0.000000,0.000000,1.000000,0.000000,0.000000,0.000000,0.000000,1.506548,14.545544,1.257526
1650625246.606753,1925.000000,1650625246.606570,0.000000,0.000000,1.000000,0.000000,0.000000,0.000000,0.000000,1.504013,14.546136,1.261052
1650625246.706774,1926.000000,1650625246.706539,0.000000,0.000000,1.000000,0.000000,0.000000,0.000000,0.000000,1.500639,14.546688,1.263415
1650625246.806749,1927.000000,1650625246.806520,0.000000,0.000000,1.000000,0.000000,0.000000,0.000000,0.000000,1.512831,14.543930,1.207410
1650625246.907087,1928.000000,1650625246.906845,0.000000,0.000000,1.000000,0.000000,0.000000,0.000000,0.000000,1.533154,14.540231,1.109203
1650625247.006788,1929.000000,1650625247.006515,0.000000,0.000000,1.000000,0.000000,0.000000,0.000000,0.000000,1.549103,14.537836,1.030342
1650625247.106749,1930.000000,1650625247.106557,0.000000,0.000000,1.000000,0.000000,0.000000,0.000000,0.000000,1.565227,14.535590,0.983889
1650625247.206725,1931.000000,1650625247.206518,0.000000,0.000000,1.000000,0.000000,0.000000,0.000000,0.000000,1.572745,14.533491,0.962156
1650625247.306814,1932.000000,1650625247.306559,0.000000,0.000000,1.000000,0.000000,0.000000,0.000000,0.000000,1.581922,14.531535,0.952883
1650625247.406702,1933.000000,1650625247.406489,0.000000,0.000000,1.000000,0.000000,0.000000,0.000000,0.000000,1.580650,14.530811,0.943473
1650625247.506774,1934.000000,1650625247.506526,0.000000,0.000000,1.000000,0.000000,0.000000,0.000000,0.000000,1.578234,14.530160,0.947647
1650625247.606768,1935.000000,1650625247.606541,0.000000,0.000000,1.000000,0.000000,0.000000,0.000000,0.000000,1.568207,14.531761,0.939835
1650625247.706950,1936.000000,1650625247.706648,0.000000,0.000000,1.000000,0.000000,0.000000,0.000000,0.000000,1.559747,14.532211,0.944717
1650625247.806721,1937.000000,1650625247.806518,0.000000,0.000000,1.000000,0.000000,0.000000,0.000000,0.000000,1.568062,14.529390,0.894825
1650625247.906763,1938.000000,1650625247.906546,0.000000,0.000000,1.000000,0.000000,0.000000,0.000000,0.000000,1.574771,14.527845,0.862602
1650625248.006778,1939.000000,1650625248.006569,0.000000,0.000000,1.000000,0.000000,0.000000,0.000000,0.000000,1.582123,14.527509,0.833666
1650625248.106764,1940.000000,1650625248.106558,0.000000,0.000000,1.000000,0.000000,0.000000,0.000000,0.000000,1.591155,14.528316,0.810337
1650625248.206722,1941.000000,1650625248.206517,0.000000,0.000000,1.000000,0.000000,0.000000,0.000000,0.000000,1.599573,14.529108,0.794832
1650625248.307052,1942.000000,1650625248.306862,0.000000,0.000000,1.000000,0.000000,0.000000,0.000000,0.000000,1.600848,14.530974,0.783618
1650625248.406768,1943.000000,1650625248.406566,0.000000,0.000000,1.000000,0.000000,0.000000,0.000000,0.000000,1.594283,14.532755,0.785392
1650625248.507025,1944.000000,1650625248.506661,0.000000,0.000000,1.000000,0.000000,0.000000,0.000000,0.000000,1.599960,14.532270,0.736707
1650625248.606697,1945.000000,1650625248.606508,0.000000,0.000000,1.000000,0.000000,0.000000,0.000000,0.000000,1.605208,14.531823,0.708210
1650625248.706731,1946.000000,1650625248.706533,0.000000,0.000000,1.000000,0.000000,0.000000,0.000000,0.000000,1.608949,14.532505,0.684598
1650625248.806736,1947.000000,1650625248.806545,0.000000,0.000000,1.000000,0.000000,0.000000,0.000000,0.000000,1.609080,14.534249,0.666501
1650625248.906717,1948.000000,1650625248.906523,0.000000,0.000000,1.000000,0.000000,0.000000,0.000000,0.000000,1.625433,14.533722,0.602897
1650625249.006749,1949.000000,1650625249.006553,0.000000,0.000000,1.000000,0.000000,0.000000,0.000000,0.000000,1.635272,14.533228,0.565868
1650625249.106741,1950.000000,1650625249.106549,0.000000,0.000000,1.000000,0.000000,0.000000,0.000000,0.000000,1.637840,14.532768,0.544701
1650625249.206722,1951.000000,1650625249.206528,0.000000,0.000000,1.000000,0.000000,0.000000,0.000000,0.000000,1.641169,14.532341,0.545217
1650625249.306926,1952.000000,1650625249.306626,0.000000,0.000000,1.000000,0.000000,0.000000,0.000000,0.000000,1.659393,14.530855,0.500384
1650625249.406776,1953.000000,1650625249.406582,0.000000,0.000000,1.000000,0.000000,0.000000,0.000000,0.000000,1.668756,14.529463,0.475788
1650625249.506736,1954.000000,1650625249.506554,0.000000,0.000000,1.000000,0.000000,0.000000,0.000000,0.000000,1.672997,14.528164,0.478692
1650625249.606719,1955.000000,1650625249.606536,0.000000,0.000000,1.000000,0.000000,0.000000,0.000000,0.000000,1.669123,14.530225,0.501501
1650625249.706808,1956.000000,1650625249.706662,0.000000,0.000000,1.000000,0.000000,0.000000,0.000000,0.000000,1.658695,14.531096,0.521571
1650625249.806710,1957.000000,1650625249.806541,0.000000,0.000000,1.000000,0.000000,0.000000,0.000000,0.000000,1.648656,14.531928,0.551857
1650625249.906707,1958.000000,1650625249.906542,0.000000,0.000000,1.000000,0.000000,0.000000,0.000000,0.000000,1.635758,14.533811,0.578970
1650625250.006723,1959.000000,1650625250.006558,0.000000,0.000000,1.000000,0.000000,0.000000,0.000000,0.000000,1.622384,14.534500,0.603779
1650625250.106819,1960.000000,1650625250.106602,0.000000,0.000000,1.000000,0.000000,0.000000,0.000000,0.000000,1.627144,14.531877,0.575510
1650625250.206408,1961.000000,1650625250.206237,0.000000,0.000000,1.000000,0.000000,0.000000,0.000000,0.000000,1.630502,14.530492,0.568919
1650625250.306454,1962.000000,1650625250.306227,0.000000,0.000000,1.000000,0.000000,0.000000,0.000000,0.000000,1.633616,14.525922,0.583125
1650625250.406403,1963.000000,1650625250.406204,0.000000,0.000000,1.000000,0.000000,0.000000,0.000000,0.000000,1.633222,14.521624,0.605155
1650625250.506415,1964.000000,1650625250.506222,0.000000,0.000000,1.000000,0.000000,0.000000,0.000000,0.000000,1.629518,14.518686,0.633836
1650625250.606395,1965.000000,1650625250.606273,0.000000,0.000000,1.000000,0.000000,0.000000,0.000000,0.000000,1.624878,14.515950,0.674484
1650625250.706434,1966.000000,1650625250.706305,0.000000,0.000000,1.000000,0.000000,0.000000,0.000000,0.000000,1.620461,14.515594,0.712829
1650625250.806334,1967.000000,1650625250.806209,0.000000,0.000000,1.000000,0.000000,0.000000,0.000000,0.000000,1.606458,14.515304,0.749699
1650625250.906646,1968.000000,1650625250.906426,0.000000,0.000000,1.000000,0.000000,0.000000,0.000000,0.000000,1.596521,14.516165,0.786701
1650625251.006360,1969.000000,1650625251.006172,0.000000,0.000000,1.000000,0.000000,0.000000,0.000000,0.000000,1.589366,14.517020,0.822154
1650625251.106537,1970.000000,1650625251.106347,0.000000,0.000000,1.000000,0.000000,0.000000,0.000000,0.000000,1.578319,14.518953,0.858482
1650625251.206501,1971.000000,1650625251.206313,0.000000,0.000000,1.000000,0.000000,0.000000,0.000000,0.000000,1.566893,14.520809,0.889141
1650625251.306484,1972.000000,1650625251.306322,0.000000,0.000000,1.000000,0.000000,0.000000,0.000000,0.000000,1.552958,14.523673,0.921574
1650625251.406452,1973.000000,1650625251.406286,0.000000,0.000000,1.000000,0.000000,0.000000,0.000000,0.000000,1.538868,14.527480,0.946791
1650625251.506453,1974.000000,1650625251.506287,0.000000,0.000000,1.000000,0.000000,0.000000,0.000000,0.000000,1.524664,14.529987,0.969892
1650625251.606392,1975.000000,1650625251.606212,0.000000,0.000000,1.000000,0.000000,0.000000,0.000000,0.000000,1.508205,14.531256,0.994965
1650625251.706713,1976.000000,1650625251.706419,0.000000,0.000000,1.000000,0.000000,0.000000,0.000000,0.000000,1.494013,14.533532,1.014646
1650625251.806473,1977.000000,1650625251.806287,0.000000,0.000000,1.000000,0.000000,0.000000,0.000000,0.000000,1.488535,14.533483,1.043648
1650625251.906432,1978.000000,1650625251.906253,0.000000,0.000000,1.000000,0.000000,0.000000,0.000000,0.000000,1.478212,14.535598,1.052530
1650625252.006589,1979.000000,1650625252.006409,0.000000,0.000000,1.000000,0.000000,0.000000,0.000000,0.000000,1.474226,14.537573,1.063072
1650625252.106471,1980.000000,1650625252.106288,0.000000,0.000000,1.000000,0.000000,0.000000,0.000000,0.000000,1.469684,14.539411,1.076014
1650625252.206435,1981.000000,1650625252.206257,0.000000,0.000000,1.000000,0.000000,0.000000,0.000000,0.000000,1.473334,14.540024,1.091253
1650625252.306442,1982.000000,1650625252.306269,0.000000,0.000000,1.000000,0.000000,0.000000,0.000000,0.000000,1.473798,14.540571,1.100624
1650625252.406440,1983.000000,1650625252.406255,0.000000,0.000000,1.000000,0.000000,0.000000,0.000000,0.000000,1.472321,14.542145,1.105170
1650625252.506462,1984.000000,1650625252.506287,0.000000,0.000000,1.000000,0.000000,0.000000,0.000000,0.000000,1.468999,14.544687,1.108323
1650625252.606493,1985.000000,1650625252.606286,0.000000,0.000000,1.000000,0.000000,0.000000,0.000000,0.000000,1.470469,14.545958,1.118214
1650625252.706480,1986.000000,1650625252.706264,0.000000,0.000000,1.000000,0.000000,0.000000,0.000000,0.000000,1.474272,14.546025,1.129733
1650625252.806477,1987.000000,1650625252.806279,0.000000,0.000000,1.000000,0.000000,0.000000,0.000000,0.000000,1.478074,14.546047,1.147649
1650625252.906478,1988.000000,1650625252.906281,0.000000,0.000000,1.000000,0.000000,0.000000,0.000000,0.000000,1.481851,14.547119,1.155563
1650625253.006502,1989.000000,1650625253.006291,0.000000,0.000000,1.000000,0.000000,0.000000,0.000000,0.000000,1.486672,14.547002,1.170010
1650625253.106416,1990.000000,1650625253.106217,0.000000,0.000000,1.000000,0.000000,0.000000,0.000000,0.000000,1.493547,14.546853,1.176203
1650625253.206423,1991.000000,1650625253.206223,0.000000,0.000000,1.000000,0.000000,0.000000,0.000000,0.000000,1.500153,14.547768,1.182546
1650625253.306938,1992.000000,1650625253.306682,0.000000,0.000000,1.000000,0.000000,0.000000,0.000000,0.000000,1.509750,14.545327,1.195492
1650625253.406511,1993.000000,1650625253.406296,0.000000,0.000000,1.000000,0.000000,0.000000,0.000000,0.000000,1.512326,14.542992,1.213156
1650625253.506469,1994.000000,1650625253.506255,0.000000,0.000000,1.000000,0.000000,0.000000,0.000000,0.000000,1.515885,14.541857,1.229690
1650625253.606486,1995.000000,1650625253.606295,0.000000,0.000000,1.000000,0.000000,0.000000,0.000000,0.000000,1.520362,14.539681,1.247548
1650625253.706491,1996.000000,1650625253.706307,0.000000,0.000000,1.000000,0.000000,0.000000,0.000000,0.000000,1.522419,14.539799,1.253762
1650625253.806493,1997.000000,1650625253.806309,0.000000,0.000000,1.000000,0.000000,0.000000,0.000000,0.000000,1.522181,14.539906,1.256067
1650625253.906482,1998.000000,1650625253.906297,0.000000,0.000000,1.000000,0.000000,0.000000,0.000000,0.000000,1.520866,14.540001,1.253021
1650625254.006449,1999.000000,1650625254.006255,0.000000,0.000000,1.000000,0.000000,0.000000,0.000000,0.000000,1.515264,14.541177,1.243250
1650625254.106601,2000.000000,1650625254.106342,0.000000,0.000000,1.000000,0.000000,0.000000,0.000000,0.000000,1.512168,14.539009,1.246414
1650625254.206504,2001.000000,1650625254.206288,0.000000,0.000000,1.000000,0.000000,0.000000,0.000000,0.000000,1.508181,14.536957,1.253130
1650625254.306434,2002.000000,1650625254.306267,0.000000,0.000000,1.000000,0.000000,0.000000,0.000000,0.000000,1.498999,14.536113,1.250355
1650625254.406567,2003.000000,1650625254.406348,0.000000,0.000000,1.000000,0.000000,0.000000,0.000000,0.000000,1.493655,14.535322,1.256233
1650625254.506572,2004.000000,1650625254.506356,0.000000,0.000000,1.000000,0.000000,0.000000,0.000000,0.000000,1.482139,14.535675,1.254289
1650625254.606436,2005.000000,1650625254.606223,0.000000,0.000000,1.000000,0.000000,0.000000,0.000000,0.000000,1.476815,14.536016,1.252922
1650625254.706465,2006.000000,1650625254.706281,0.000000,0.000000,1.000000,0.000000,0.000000,0.000000,0.000000,1.478444,14.536345,1.256961
1650625254.806421,2007.000000,1650625254.806221,0.000000,0.000000,1.000000,0.000000,0.000000,0.000000,0.000000,1.476823,14.536662,1.262162
1650625254.906521,2008.000000,1650625254.906280,0.000000,0.000000,1.000000,0.000000,0.000000,0.000000,0.000000,1.481942,14.535874,1.264449
1650625255.006426,2009.000000,1650625255.006247,0.000000,0.000000,1.000000,0.000000,0.000000,0.000000,0.000000,1.487957,14.531864,1.272012
1650625255.106407,2010.000000,1650625255.106206,0.000000,0.000000,1.000000,0.000000,0.000000,0.000000,0.000000,1.491527,14.529182,1.277379
1650625255.206483,2011.000000,1650625255.206304,0.000000,0.000000,1.000000,0.000000,0.000000,0.000000,0.000000,1.488407,14.528851,1.280642
1650625255.306391,2012.000000,1650625255.306196,0.000000,0.000000,1.000000,0.000000,0.000000,0.000000,0.000000,1.487692,14.528565,1.283504
1650625255.406520,2013.000000,1650625255.406351,0.000000,0.000000,1.000000,0.000000,0.000000,0.000000,0.000000,1.488161,14.529408,1.290020
1650625255.506482,2014.000000,1650625255.506310,0.000000,0.000000,1.000000,0.000000,0.000000,0.000000,0.000000,1.490833,14.530227,1.293590
1650625255.606423,2015.000000,1650625255.606274,0.000000,0.000000,1.000000,0.000000,0.000000,0.000000,0.000000,1.495578,14.532108,1.275792
1650625255.706526,2016.000000,1650625255.706320,0.000000,0.000000,1.000000,0.000000,0.000000,0.000000,0.000000,1.494634,14.534987,1.255268
1650625255.806454,2017.000000,1650625255.806288,0.000000,0.000000,1.000000,0.000000,0.000000,0.000000,0.000000,1.498124,14.537709,1.235398
1650625255.906403,2018.000000,1650625255.906237,0.000000,0.000000,1.000000,0.000000,0.000000,0.000000,0.000000,1.500345,14.540275,1.220229
1650625256.006426,2019.000000,1650625256.006255,0.000000,0.000000,1.000000,0.000000,0.000000,0.000000,0.000000,1.508989,14.541595,1.217668
1650625256.106520,2020.000000,1650625256.106348,0.000000,0.000000,1.000000,0.000000,0.000000,0.000000,0.000000,1.514957,14.542824,1.221569
1650625256.206570,2021.000000,1650625256.206370,0.000000,0.000000,1.000000,0.000000,0.000000,0.000000,0.000000,1.519467,14.543964,1.233283
1650625256.306421,2022.000000,1650625256.306218,0.000000,0.000000,1.000000,0.000000,0.000000,0.000000,0.000000,1.523678,14.543927,1.242801
1650625256.406545,2023.000000,1650625256.406370,0.000000,0.000000,1.000000,0.000000,0.000000,0.000000,0.000000,1.526504,14.543869,1.247780
1650625256.506647,2024.000000,1650625256.506391,0.000000,0.000000,1.000000,0.000000,0.000000,0.000000,0.000000,1.530198,14.543794,1.255660
1650625256.606521,2025.000000,1650625256.606337,0.000000,0.000000,1.000000,0.000000,0.000000,0.000000,0.000000,1.533613,14.542612,1.266314
1650625256.706474,2026.000000,1650625256.706285,0.000000,0.000000,1.000000,0.000000,0.000000,0.000000,0.000000,1.533489,14.541480,1.280425
1650625256.806518,2027.000000,1650625256.806339,0.000000,0.000000,1.000000,0.000000,0.000000,0.000000,0.000000,1.531112,14.541490,1.289770
1650625256.906541,2028.000000,1650625256.906366,0.000000,0.000000,1.000000,0.000000,0.000000,0.000000,0.000000,1.529889,14.540399,1.303405
1650625257.006466,2029.000000,1650625257.006297,0.000000,0.000000,1.000000,0.000000,0.000000,0.000000,0.000000,1.541758,14.536090,1.255012
1650625257.106429,2030.000000,1650625257.106254,0.000000,0.000000,1.000000,0.000000,0.000000,0.000000,0.000000,1.545256,14.534204,1.228631
1650625257.206451,2031.000000,1650625257.206276,0.000000,0.000000,1.000000,0.000000,0.000000,0.000000,0.000000,1.543014,14.533525,1.205683
1650625257.306727,2032.000000,1650625257.306442,0.000000,0.000000,1.000000,0.000000,0.000000,0.000000,0.000000,1.557164,14.529627,1.133651
1650625257.406531,2033.000000,1650625257.406335,0.000000,0.000000,1.000000,0.000000,0.000000,0.000000,0.000000,1.563876,14.527058,1.086410
1650625257.506457,2034.000000,1650625257.506289,0.000000,0.000000,1.000000,0.000000,0.000000,0.000000,0.000000,1.563541,14.526843,1.046101
1650625257.606414,2035.000000,1650625257.606264,0.000000,0.000000,1.000000,0.000000,0.000000,0.000000,0.000000,1.562004,14.527761,1.003634
1650625257.706388,2036.000000,1650625257.706204,0.000000,0.000000,1.000000,0.000000,0.000000,0.000000,0.000000,1.569156,14.527565,0.922867
1650625257.806413,2037.000000,1650625257.806257,0.000000,0.000000,1.000000,0.000000,0.000000,0.000000,0.000000,1.565972,14.528497,0.877241
1650625257.906410,2038.000000,1650625257.906246,0.000000,0.000000,1.000000,0.000000,0.000000,0.000000,0.000000,1.558485,14.530490,0.848465
1650625258.006425,2039.000000,1650625258.006261,0.000000,0.000000,1.000000,0.000000,0.000000,0.000000,0.000000,1.550229,14.533479,0.828628
1650625258.106451,2040.000000,1650625258.106281,0.000000,0.000000,1.000000,0.000000,0.000000,0.000000,0.000000,1.552183,14.533037,0.823028
1650625258.206436,2041.000000,1650625258.206271,0.000000,0.000000,1.000000,0.000000,0.000000,0.000000,0.000000,1.553972,14.530444,0.826239
1650625258.306752,2042.000000,1650625258.306602,0.000000,0.000000,1.000000,0.000000,0.000000,0.000000,0.000000,1.558876,14.529096,0.834653
1650625258.406415,2043.000000,1650625258.406266,0.000000,0.000000,1.000000,0.000000,0.000000,0.000000,0.000000,1.559079,14.530017,0.832702
1650625258.506393,2044.000000,1650625258.506263,0.000000,0.000000,1.000000,0.000000,0.000000,0.000000,0.000000,1.557022,14.531992,0.826433
1650625258.606482,2045.000000,1650625258.606332,0.000000,0.000000,1.000000,0.000000,0.000000,0.000000,0.000000,1.551748,14.534955,0.823271
1650625258.706461,2046.000000,1650625258.706275,0.000000,0.000000,1.000000,0.000000,0.000000,0.000000,0.000000,1.539091,14.538843,0.835980
1650625258.806392,2047.000000,1650625258.806252,0.000000,0.000000,1.000000,0.000000,0.000000,0.000000,0.000000,1.531489,14.542503,0.857431
1650625258.906629,2048.000000,1650625258.906415,0.000000,0.000000,1.000000,0.000000,0.000000,0.000000,0.000000,1.523238,14.547027,0.889637
1650625259.006444,2049.000000,1650625259.006288,0.000000,0.000000,1.000000,0.000000,0.000000,0.000000,0.000000,1.518761,14.549085,0.925645
1650625259.106446,2050.000000,1650625259.106287,0.000000,0.000000,1.000000,0.000000,0.000000,0.000000,0.000000,1.511320,14.550987,0.954747
1650625259.206427,2051.000000,1650625259.206271,0.000000,0.000000,1.000000,0.000000,0.000000,0.000000,0.000000,1.498915,14.552738,0.965871
1650625259.306433,2052.000000,1650625259.306279,0.000000,0.000000,1.000000,0.000000,0.000000,0.000000,0.000000,1.485122,14.555435,0.975042
1650625259.406453,2053.000000,1650625259.406303,0.000000,0.000000,1.000000,0.000000,0.000000,0.000000,0.000000,1.473325,14.557929,0.969415
1650625259.506434,2054.000000,1650625259.506284,0.000000,0.000000,1.000000,0.000000,0.000000,0.000000,0.000000,1.463444,14.560227,0.969753
1650625259.606453,2055.000000,1650625259.606282,0.000000,0.000000,1.000000,0.000000,0.000000,0.000000,0.000000,1.455394,14.562336,0.970973
1650625259.706768,2056.000000,1650625259.706511,0.000000,0.000000,1.000000,0.000000,0.000000,0.000000,0.000000,1.447999,14.563173,0.983517
1650625259.806520,2057.000000,1650625259.806383,0.000000,0.000000,1.000000,0.000000,0.000000,0.000000,0.000000,1.442324,14.563899,0.995614
1650625259.906479,2058.000000,1650625259.906328,0.000000,0.000000,1.000000,0.000000,0.000000,0.000000,0.000000,1.443733,14.565611,1.005646
1650625260.006437,2059.000000,1650625260.006284,0.000000,0.000000,1.000000,0.000000,0.000000,0.000000,0.000000,1.450732,14.564984,1.024968
1650625260.106435,2060.000000,1650625260.106253,0.000000,0.000000,1.000000,0.000000,0.000000,0.000000,0.000000,1.458619,14.564330,1.041075
1650625260.206447,2061.000000,1650625260.206308,0.000000,0.000000,1.000000,0.000000,0.000000,0.000000,0.000000,1.462951,14.563658,1.057296
1650625260.306448,2062.000000,1650625260.306300,0.000000,0.000000,1.000000,0.000000,0.000000,0.000000,0.000000,1.466078,14.564064,1.055859
1650625260.406453,2063.000000,1650625260.406285,0.000000,0.000000,1.000000,0.000000,0.000000,0.000000,0.000000,1.466960,14.564399,1.059255
1650625260.506567,2064.000000,1650625260.506367,0.000000,0.000000,1.000000,0.000000,0.000000,0.000000,0.000000,1.470072,14.563580,1.056802
1650625260.606478,2065.000000,1650625260.606314,0.000000,0.000000,1.000000,0.000000,0.000000,0.000000,0.000000,1.487271,14.560584,1.010840
1650625260.706390,2066.000000,1650625260.706188,0.000000,0.000000,1.000000,0.000000,0.000000,0.000000,0.000000,1.499194,14.558813,0.990944
1650625260.806402,2067.000000,1650625260.806200,0.000000,0.000000,1.000000,0.000000,0.000000,0.000000,0.000000,1.508270,14.557117,0.977550
1650625260.906388,2068.000000,1650625260.906218,0.000000,0.000000,1.000000,0.000000,0.000000,0.000000,0.000000,1.514628,14.555497,0.972027
1650625261.006404,2069.000000,1650625261.006238,0.000000,0.000000,1.000000,0.000000,0.000000,0.000000,0.000000,1.517306,14.555047,0.965194
1650625261.106464,2070.000000,1650625261.106287,0.000000,0.000000,1.000000,0.000000,0.000000,0.000000,0.000000,1.521954,14.554615,0.962758
1650625261.206352,2071.000000,1650625261.206197,0.000000,0.000000,1.000000,0.000000,0.000000,0.000000,0.000000,1.521909,14.555291,0.964541
1650625261.306786,2072.000000,1650625261.306495,0.000000,0.000000,1.000000,0.000000,0.000000,0.000000,0.000000,1.516342,14.557013,0.979237
1650625261.406676,2073.000000,1650625261.406476,0.000000,0.000000,1.000000,0.000000,0.000000,0.000000,0.000000,1.518661,14.557539,0.998234
1650625261.506453,2074.000000,1650625261.506276,0.000000,0.000000,1.000000,0.000000,0.000000,0.000000,0.000000,1.517527,14.558023,1.008420
1650625261.606494,2075.000000,1650625261.606311,0.000000,0.000000,1.000000,0.000000,0.000000,0.000000,0.000000,1.537123,14.554105,0.962551
1650625261.706503,2076.000000,1650625261.706326,0.000000,0.000000,1.000000,0.000000,0.000000,0.000000,0.000000,1.547912,14.552580,0.922642
1650625261.806526,2077.000000,1650625261.806347,0.000000,0.000000,1.000000,0.000000,0.000000,0.000000,0.000000,1.551436,14.552233,0.891743
1650625261.906522,2078.000000,1650625261.906284,0.000000,0.000000,1.000000,0.000000,0.000000,0.000000,0.000000,1.545907,14.551910,0.865505
1650625262.006500,2079.000000,1650625262.006328,0.000000,0.000000,1.000000,0.000000,0.000000,0.000000,0.000000,1.538385,14.551610,0.859099
1650625262.106564,2080.000000,1650625262.106336,0.000000,0.000000,1.000000,0.000000,0.000000,0.000000,0.000000,1.534461,14.551332,0.852373
1650625262.206530,2081.000000,1650625262.206314,0.000000,0.000000,1.000000,0.000000,0.000000,0.000000,0.000000,1.536137,14.547806,0.863889
1650625262.306551,2082.000000,1650625262.306352,0.000000,0.000000,1.000000,0.000000,0.000000,0.000000,0.000000,1.557282,14.541217,0.824334
1650625262.406480,2083.000000,1650625262.406280,0.000000,0.000000,1.000000,0.000000,0.000000,0.000000,0.000000,1.574964,14.537206,0.803568
1650625262.506532,2084.000000,1650625262.506338,0.000000,0.000000,1.000000,0.000000,0.000000,0.000000,0.000000,1.588233,14.535641,0.804890
1650625262.606504,2085.000000,1650625262.606311,0.000000,0.000000,1.000000,0.000000,0.000000,0.000000,0.000000,1.594029,14.535302,0.797557
1650625262.706496,2086.000000,1650625262.706298,0.000000,0.000000,1.000000,0.000000,0.000000,0.000000,0.000000,1.591660,14.536120,0.791596
1650625262.806513,2087.000000,1650625262.806327,0.000000,0.000000,1.000000,0.000000,0.000000,0.000000,0.000000,1.590314,14.536936,0.795822
1650625262.906793,2088.000000,1650625262.906476,0.000000,0.000000,1.000000,0.000000,0.000000,0.000000,0.000000,1.587771,14.538836,0.804967
1650625263.006469,2089.000000,1650625263.006276,0.000000,0.000000,1.000000,0.000000,0.000000,0.000000,0.000000,1.585205,14.539571,0.820419
1650625263.106536,2090.000000,1650625263.106343,0.000000,0.000000,1.000000,0.000000,0.000000,0.000000,0.000000,1.580454,14.540292,0.840276
1650625263.206588,2091.000000,1650625263.206384,0.000000,0.000000,1.000000,0.000000,0.000000,0.000000,0.000000,1.579111,14.539905,0.868351
1650625263.306759,2092.000000,1650625263.306595,0.000000,0.000000,1.000000,0.000000,0.000000,0.000000,0.000000,1.566828,14.540651,0.877645
1650625263.406547,2093.000000,1650625263.406355,0.000000,0.000000,1.000000,0.000000,0.000000,0.000000,0.000000,1.559510,14.540284,0.898736
1650625263.506456,2094.000000,1650625263.506265,0.000000,0.000000,1.000000,0.000000,0.000000,0.000000,0.000000,1.554734,14.541046,0.913366
1650625263.606515,2095.000000,1650625263.606326,0.000000,0.000000,1.000000,0.000000,0.000000,0.000000,0.000000,1.544745,14.541781,0.925803
1650625263.706655,2096.000000,1650625263.706428,0.000000,0.000000,1.000000,0.000000,0.000000,0.000000,0.000000,1.542945,14.541397,0.951434
1650625263.806581,2097.000000,1650625263.806359,0.000000,0.000000,1.000000,0.000000,0.000000,0.000000,0.000000,1.537988,14.542137,0.966300
1650625263.906710,2098.000000,1650625263.906528,0.000000,0.000000,1.000000,0.000000,0.000000,0.000000,0.000000,1.533333,14.542845,0.980488
1650625264.006559,2099.000000,1650625264.006371,0.000000,0.000000,1.000000,0.000000,0.000000,0.000000,0.000000,1.533337,14.541341,1.002875
1650625264.106580,2100.000000,1650625264.106364,0.000000,0.000000,1.000000,0.000000,0.000000,0.000000,0.000000,1.533382,14.541019,1.023421
1650625264.206447,2101.000000,1650625264.206273,0.000000,0.000000,1.000000,0.000000,0.000000,0.000000,0.000000,1.533465,14.541817,1.047815
1650625264.306467,2102.000000,1650625264.306295,0.000000,0.000000,1.000000,0.000000,0.000000,0.000000,0.000000,1.546664,14.538218,1.011351
1650625264.406455,2103.000000,1650625264.406286,0.000000,0.000000,1.000000,0.000000,0.000000,0.000000,0.000000,1.551504,14.537014,0.981875
1650625264.506575,2104.000000,1650625264.506366,0.000000,0.000000,1.000000,0.000000,0.000000,0.000000,0.000000,1.557149,14.535897,0.972870
1650625264.606524,2105.000000,1650625264.606328,0.000000,0.000000,1.000000,0.000000,0.000000,0.000000,0.000000,1.560268,14.535956,0.969014
1650625264.706526,2106.000000,1650625264.706336,0.000000,0.000000,1.000000,0.000000,0.000000,0.000000,0.000000,1.565351,14.536033,0.971720
1650625264.806540,2107.000000,1650625264.806342,0.000000,0.000000,1.000000,0.000000,0.000000,0.000000,0.000000,1.567918,14.536127,0.983141
1650625264.906472,2108.000000,1650625264.906277,0.000000,0.000000,1.000000,0.000000,0.000000,0.000000,0.000000,1.563738,14.536235,1.003715
1650625265.006523,2109.000000,1650625265.006334,0.000000,0.000000,1.000000,0.000000,0.000000,0.000000,0.000000,1.549925,14.537446,1.011265
1650625265.106460,2110.000000,1650625265.106270,0.000000,0.000000,1.000000,0.000000,0.000000,0.000000,0.000000,1.541226,14.537513,1.021632
1650625265.206520,2111.000000,1650625265.206331,0.000000,0.000000,1.000000,0.000000,0.000000,0.000000,0.000000,1.534117,14.537588,1.033075
1650625265.306711,2112.000000,1650625265.306467,0.000000,0.000000,1.000000,0.000000,0.000000,0.000000,0.000000,1.525262,14.537670,1.043924
1650625265.406404,2113.000000,1650625265.406207,0.000000,0.000000,1.000000,0.000000,0.000000,0.000000,0.000000,1.525685,14.536668,1.066287
1650625265.506447,2114.000000,1650625265.506205,0.000000,0.000000,1.000000,0.000000,0.000000,0.000000,0.000000,1.530513,14.535733,1.088377
1650625265.606478,2115.000000,1650625265.606252,0.000000,0.000000,1.000000,0.000000,0.000000,0.000000,0.000000,1.537307,14.533773,1.118240
1650625265.706474,2116.000000,1650625265.706286,0.000000,0.000000,1.000000,0.000000,0.000000,0.000000,0.000000,1.552478,14.529760,1.084553
1650625265.806443,2117.000000,1650625265.806283,0.000000,0.000000,1.000000,0.000000,0.000000,0.000000,0.000000,1.563526,14.527088,1.060913
1650625265.906451,2118.000000,1650625265.906318,0.000000,0.000000,1.000000,0.000000,0.000000,0.000000,0.000000,1.584817,14.522418,0.995349
1650625266.006428,2119.000000,1650625266.006281,0.000000,0.000000,1.000000,0.000000,0.000000,0.000000,0.000000,1.601555,14.518054,0.960637
1650625266.106613,2120.000000,1650625266.106400,0.000000,0.000000,1.000000,0.000000,0.000000,0.000000,0.000000,1.613942,14.516170,0.951559
1650625266.206543,2121.000000,1650625266.206381,0.000000,0.000000,1.000000,0.000000,0.000000,0.000000,0.000000,1.632000,14.513362,0.890483
1650625266.306486,2122.000000,1650625266.306261,0.000000,0.000000,1.000000,0.000000,0.000000,0.000000,0.000000,1.641198,14.511866,0.852187
1650625266.406967,2123.000000,1650625266.406693,0.000000,0.000000,1.000000,0.000000,0.000000,0.000000,0.000000,1.648547,14.510522,0.835812
1650625266.506847,2124.000000,1650625266.506653,0.000000,0.000000,1.000000,0.000000,0.000000,0.000000,0.000000,1.646507,14.511502,0.840492
1650625266.606805,2125.000000,1650625266.606615,0.000000,0.000000,1.000000,0.000000,0.000000,0.000000,0.000000,1.644333,14.512491,0.849232
1650625266.706813,2126.000000,1650625266.706620,0.000000,0.000000,1.000000,0.000000,0.000000,0.000000,0.000000,1.634422,14.513483,0.857006
1650625266.806836,2127.000000,1650625266.806626,0.000000,0.000000,1.000000,0.000000,0.000000,0.000000,0.000000,1.632505,14.514471,0.878347
1650625266.907150,2128.000000,1650625266.906894,0.000000,0.000000,1.000000,0.000000,0.000000,0.000000,0.000000,1.628348,14.515448,0.901375
1650625267.006799,2129.000000,1650625267.006592,0.000000,0.000000,1.000000,0.000000,0.000000,0.000000,0.000000,1.616644,14.517501,0.917107
1650625267.106812,2130.000000,1650625267.106611,0.000000,0.000000,1.000000,0.000000,0.000000,0.000000,0.000000,1.605483,14.519472,0.929839
1650625267.206785,2131.000000,1650625267.206579,0.000000,0.000000,1.000000,0.000000,0.000000,0.000000,0.000000,1.612321,14.519176,0.888054
1650625267.306805,2132.000000,1650625267.306607,0.000000,0.000000,1.000000,0.000000,0.000000,0.000000,0.000000,1.608900,14.522189,0.873053
1650625267.406783,2133.000000,1650625267.406579,0.000000,0.000000,1.000000,0.000000,0.000000,0.000000,0.000000,1.604517,14.525048,0.855550
1650625267.506823,2134.000000,1650625267.506592,0.000000,0.000000,1.000000,0.000000,0.000000,0.000000,0.000000,1.597061,14.527753,0.847769
1650625267.606751,2135.000000,1650625267.606591,0.000000,0.000000,1.000000,0.000000,0.000000,0.000000,0.000000,1.593266,14.530302,0.843679
1650625267.706959,2136.000000,1650625267.706679,0.000000,0.000000,1.000000,0.000000,0.000000,0.000000,0.000000,1.588586,14.529427,0.852810
1650625267.806818,2137.000000,1650625267.806645,0.000000,0.000000,1.000000,0.000000,0.000000,0.000000,0.000000,1.583083,14.529678,0.877026
1650625267.906800,2138.000000,1650625267.906598,0.000000,0.000000,1.000000,0.000000,0.000000,0.000000,0.000000,1.569186,14.530994,0.892286
1650625268.006817,2139.000000,1650625268.006611,0.000000,0.000000,1.000000,0.000000,0.000000,0.000000,0.000000,1.562659,14.531132,0.915856
1650625268.106820,2140.000000,1650625268.106620,0.000000,0.000000,1.000000,0.000000,0.000000,0.000000,0.000000,1.548943,14.533430,0.917521
1650625268.206780,2141.000000,1650625268.206588,0.000000,0.000000,1.000000,0.000000,0.000000,0.000000,0.000000,1.544823,14.534490,0.928805
1650625268.307205,2142.000000,1650625268.306973,0.000000,0.000000,1.000000,0.000000,0.000000,0.000000,0.000000,1.538878,14.536561,0.931559
1650625268.406447,2143.000000,1650625268.406297,0.000000,0.000000,1.000000,0.000000,0.000000,0.000000,0.000000,1.533399,14.537399,0.937414
1650625268.506523,2144.000000,1650625268.506350,0.000000,0.000000,1.000000,0.000000,0.000000,0.000000,0.000000,1.527281,14.538163,0.943008
1650625268.606429,2145.000000,1650625268.606245,0.000000,0.000000,1.000000,0.000000,0.000000,0.000000,0.000000,1.514025,14.538854,0.945925
1650625268.706414,2146.000000,1650625268.706270,0.000000,0.000000,1.000000,0.000000,0.000000,0.000000,0.000000,1.498414,14.541659,0.946270
1650625268.806496,2147.000000,1650625268.806364,0.000000,0.000000,1.000000,0.000000,0.000000,0.000000,0.000000,1.489339,14.542092,0.957855
1650625268.906427,2148.000000,1650625268.906283,0.000000,0.000000,1.000000,0.000000,0.000000,0.000000,0.000000,1.482096,14.544646,0.981824
1650625269.006414,2149.000000,1650625269.006278,0.000000,0.000000,1.000000,0.000000,0.000000,0.000000,0.000000,1.474413,14.547017,1.005541
1650625269.106428,2150.000000,1650625269.106258,0.000000,0.000000,1.000000,0.000000,0.000000,0.000000,0.000000,1.477227,14.544851,1.033013
1650625269.206475,2151.000000,1650625269.206304,0.000000,0.000000,1.000000,0.000000,0.000000,0.000000,0.000000,1.476859,14.543854,1.057596
1650625269.306698,2152.000000,1650625269.306395,0.000000,0.000000,1.000000,0.000000,0.000000,0.000000,0.000000,1.476740,14.543970,1.077758
1650625269.406549,2153.000000,1650625269.406317,0.000000,0.000000,1.000000,0.000000,0.000000,0.000000,0.000000,1.473571,14.542957,1.094458
1650625269.506640,2154.000000,1650625269.506466,0.000000,0.000000,1.000000,0.000000,0.000000,0.000000,0.000000,1.465337,14.544154,1.118302
1650625269.606519,2155.000000,1650625269.606309,0.000000,0.000000,1.000000,0.000000,0.000000,0.000000,0.000000,1.465410,14.545258,1.137681
1650625269.706459,2156.000000,1650625269.706287,0.000000,0.000000,1.000000,0.000000,0.000000,0.000000,0.000000,1.459152,14.547361,1.140657
1650625269.806469,2157.000000,1650625269.806297,0.000000,0.000000,1.000000,0.000000,0.000000,0.000000,0.000000,1.458907,14.549314,1.150480
1650625269.906483,2158.000000,1650625269.906306,0.000000,0.000000,1.000000,0.000000,0.000000,0.000000,0.000000,1.458884,14.550032,1.160416
1650625270.006464,2159.000000,1650625270.006289,0.000000,0.000000,1.000000,0.000000,0.000000,0.000000,0.000000,1.456879,14.551761,1.163201
1650625270.106805,2160.000000,1650625270.106476,0.000000,0.000000,1.000000,0.000000,0.000000,0.000000,0.000000,1.457356,14.551173,1.172838
1650625270.206548,2161.000000,1650625270.206294,0.000000,0.000000,1.000000,0.000000,0.000000,0.000000,0.000000,1.454715,14.551669,1.176951
1650625270.307387,2162.000000,1650625270.307230,0.000000,0.000000,1.000000,0.000000,0.000000,0.000000,0.000000,1.449124,14.552100,1.185446
1650625270.406502,2163.000000,1650625270.406347,0.000000,0.000000,1.000000,0.000000,0.000000,0.000000,0.000000,1.446203,14.551381,1.199757
1650625270.506418,2164.000000,1650625270.506227,0.000000,0.000000,1.000000,0.000000,0.000000,0.000000,0.000000,1.443625,14.550669,1.211573
1650625270.606421,2165.000000,1650625270.606278,0.000000,0.000000,1.000000,0.000000,0.000000,0.000000,0.000000,1.442458,14.549967,1.223407
1650625270.706433,2166.000000,1650625270.706284,0.000000,0.000000,1.000000,0.000000,0.000000,0.000000,0.000000,1.442619,14.549279,1.222348
1650625270.806418,2167.000000,1650625270.806271,0.000000,0.000000,1.000000,0.000000,0.000000,0.000000,0.000000,1.442935,14.548607,1.214575
1650625270.906715,2168.000000,1650625270.906365,0.000000,0.000000,1.000000,0.000000,0.000000,0.000000,0.000000,1.444477,14.547955,1.212483
1650625271.006468,2169.000000,1650625271.006307,0.000000,0.000000,1.000000,0.000000,0.000000,0.000000,0.000000,1.446075,14.547324,1.213437
1650625271.106464,2170.000000,1650625271.106267,0.000000,0.000000,1.000000,0.000000,0.000000,0.000000,0.000000,1.449892,14.546715,1.211681
1650625271.206848,2171.000000,1650625271.206652,0.000000,0.000000,1.000000,0.000000,0.000000,0.000000,0.000000,1.452519,14.547221,1.209755
1650625271.306470,2172.000000,1650625271.306284,0.000000,0.000000,1.000000,0.000000,0.000000,0.000000,0.000000,1.451823,14.547689,1.210906
1650625271.406522,2173.000000,1650625271.406358,0.000000,0.000000,1.000000,0.000000,0.000000,0.000000,0.000000,1.446894,14.549211,1.194856
1650625271.506441,2174.000000,1650625271.506294,0.000000,0.000000,1.000000,0.000000,0.000000,0.000000,0.000000,1.444513,14.550636,1.180077
1650625271.606511,2175.000000,1650625271.606367,0.000000,0.000000,1.000000,0.000000,0.000000,0.000000,0.000000,1.444544,14.551963,1.166550
1650625271.706699,2176.000000,1650625271.706484,0.000000,0.000000,1.000000,0.000000,0.000000,0.000000,0.000000,1.441399,14.552106,1.159899
1650625271.806494,2177.000000,1650625271.806323,0.000000,0.000000,1.000000,0.000000,0.000000,0.000000,0.000000,1.447247,14.553311,1.149380
1650625271.906537,2178.000000,1650625271.906368,0.000000,0.000000,1.000000,0.000000,0.000000,0.000000,0.000000,1.452853,14.554426,1.131945
1650625272.006701,2179.000000,1650625272.006535,0.000000,0.000000,1.000000,0.000000,0.000000,0.000000,0.000000,1.449483,14.556546,1.132099
1650625272.106510,2180.000000,1650625272.106342,0.000000,0.000000,1.000000,0.000000,0.000000,0.000000,0.000000,1.450721,14.557428,1.130586
1650625272.206445,2181.000000,1650625272.206277,0.000000,0.000000,1.000000,0.000000,0.000000,0.000000,0.000000,1.448673,14.558230,1.129899
1650625272.306486,2182.000000,1650625272.306325,0.000000,0.000000,1.000000,0.000000,0.000000,0.000000,0.000000,1.443523,14.558956,1.129199
1650625272.406503,2183.000000,1650625272.406346,0.000000,0.000000,1.000000,0.000000,0.000000,0.000000,0.000000,1.444176,14.559610,1.131717
1650625272.506649,2184.000000,1650625272.506401,0.000000,0.000000,1.000000,0.000000,0.000000,0.000000,0.000000,1.449218,14.560195,1.136512
1650625272.606467,2185.000000,1650625272.606308,0.000000,0.000000,1.000000,0.000000,0.000000,0.000000,0.000000,1.445307,14.562895,1.145101
1650625272.706441,2186.000000,1650625272.706290,0.000000,0.000000,1.000000,0.000000,0.000000,0.000000,0.000000,1.449296,14.563228,1.159737
1650625272.806506,2187.000000,1650625272.806334,0.000000,0.000000,1.000000,0.000000,0.000000,0.000000,0.000000,1.453107,14.564594,1.180153
1650625272.906488,2188.000000,1650625272.906296,0.000000,0.000000,1.000000,0.000000,0.000000,0.000000,0.000000,1.461095,14.563665,1.199634
1650625273.006514,2189.000000,1650625273.006319,0.000000,0.000000,1.000000,0.000000,0.000000,0.000000,0.000000,1.469736,14.562751,1.221415
1650625273.106496,2190.000000,1650625273.106283,0.000000,0.000000,1.000000,0.000000,0.000000,0.000000,0.000000,1.473516,14.561857,1.236502
1650625273.206448,2191.000000,1650625273.206267,0.000000,0.000000,1.000000,0.000000,0.000000,0.000000,0.000000,1.475960,14.560986,1.240307
1650625273.306825,2192.000000,1650625273.306643,0.000000,0.000000,1.000000,0.000000,0.000000,0.000000,0.000000,1.476045,14.561230,1.239737
1650625273.406473,2193.000000,1650625273.406286,0.000000,0.000000,1.000000,0.000000,0.000000,0.000000,0.000000,1.477173,14.560350,1.242237
1650625273.506453,2194.000000,1650625273.506300,0.000000,0.000000,1.000000,0.000000,0.000000,0.000000,0.000000,1.480377,14.558411,1.246073
1650625273.606490,2195.000000,1650625273.606336,0.000000,0.000000,1.000000,0.000000,0.000000,0.000000,0.000000,1.484445,14.558748,1.243934
1650625273.706470,2196.000000,1650625273.706299,0.000000,0.000000,1.000000,0.000000,0.000000,0.000000,0.000000,1.484959,14.557965,1.233652
1650625273.806512,2197.000000,1650625273.806361,0.000000,0.000000,1.000000,0.000000,0.000000,0.000000,0.000000,1.484296,14.557218,1.231709
1650625273.906514,2198.000000,1650625273.906361,0.000000,0.000000,1.000000,0.000000,0.000000,0.000000,0.000000,1.487976,14.555416,1.234552
1650625274.006759,2199.000000,1650625274.006617,0.000000,0.000000,1.000000,0.000000,0.000000,0.000000,0.000000,1.491394,14.554805,1.225860
1650625274.106461,2200.000000,1650625274.106310,0.000000,0.000000,1.000000,0.000000,0.000000,0.000000,0.000000,1.497827,14.554229,1.222247
1650625274.206434,2201.000000,1650625274.206291,0.000000,0.000000,1.000000,0.000000,0.000000,0.000000,0.000000,1.504915,14.551509,1.229971
1650625274.306435,2202.000000,1650625274.306290,0.000000,0.000000,1.000000,0.000000,0.000000,0.000000,0.000000,1.506061,14.548951,1.245341
1650625274.406497,2203.000000,1650625274.406350,0.000000,0.000000,1.000000,0.000000,0.000000,0.000000,0.000000,1.502683,14.547642,1.247864
1650625274.506485,2204.000000,1650625274.506302,0.000000,0.000000,1.000000,0.000000,0.000000,0.000000,0.000000,1.513580,14.544247,1.196931
1650625274.606489,2205.000000,1650625274.606292,0.000000,0.000000,1.000000,0.000000,0.000000,0.000000,0.000000,1.537944,14.538889,1.105272
1650625274.706531,2206.000000,1650625274.706361,0.000000,0.000000,1.000000,0.000000,0.000000,0.000000,0.000000,1.554255,14.534961,1.039202
1650625274.806458,2207.000000,1650625274.806315,0.000000,0.000000,1.000000,0.000000,0.000000,0.000000,0.000000,1.561821,14.531305,0.996184
1650625274.906534,2208.000000,1650625274.906334,0.000000,0.000000,1.000000,0.000000,0.000000,0.000000,0.000000,1.577461,14.526822,0.910835
1650625275.006466,2209.000000,1650625275.006264,0.000000,0.000000,1.000000,0.000000,0.000000,0.000000,0.000000,1.587617,14.524840,0.846284
1650625275.106638,2210.000000,1650625275.106469,0.000000,0.000000,1.000000,0.000000,0.000000,0.000000,0.000000,1.590390,14.523044,0.797754
1650625275.206421,2211.000000,1650625275.206247,0.000000,0.000000,1.000000,0.000000,0.000000,0.000000,0.000000,1.586191,14.522515,0.771110
1650625275.306530,2212.000000,1650625275.306374,0.000000,0.000000,1.000000,0.000000,0.000000,0.000000,0.000000,1.576517,14.523181,0.767910
1650625275.406565,2213.000000,1650625275.406397,0.000000,0.000000,1.000000,0.000000,0.000000,0.000000,0.000000,1.570437,14.524971,0.766223
1650625275.506431,2214.000000,1650625275.506273,0.000000,0.000000,1.000000,0.000000,0.000000,0.000000,0.000000,1.562332,14.527813,0.757095
1650625275.606458,2215.000000,1650625275.606318,0.000000,0.000000,1.000000,0.000000,0.000000,0.000000,0.000000,1.550169,14.531639,0.748882
1650625275.706608,2216.000000,1650625275.706403,0.000000,0.000000,1.000000,0.000000,0.000000,0.000000,0.000000,1.538575,14.533108,0.756861
1650625275.806511,2217.000000,1650625275.806353,0.000000,0.000000,1.000000,0.000000,0.000000,0.000000,0.000000,1.528653,14.536703,0.777118
1650625275.906503,2218.000000,1650625275.906353,0.000000,0.000000,1.000000,0.000000,0.000000,0.000000,0.000000,1.518165,14.540117,0.796199
1650625276.006510,2219.000000,1650625276.006324,0.000000,0.000000,1.000000,0.000000,0.000000,0.000000,0.000000,1.515898,14.542255,0.816519
1650625276.106455,2220.000000,1650625276.106297,0.000000,0.000000,1.000000,0.000000,0.000000,0.000000,0.000000,1.513778,14.543182,0.833140
1650625276.206487,2221.000000,1650625276.206329,0.000000,0.000000,1.000000,0.000000,0.000000,0.000000,0.000000,1.510713,14.542961,0.859069
1650625276.306466,2222.000000,1650625276.306309,0.000000,0.000000,1.000000,0.000000,0.000000,0.000000,0.000000,1.504580,14.544925,0.892264
1650625276.406530,2223.000000,1650625276.406376,0.000000,0.000000,1.000000,0.000000,0.000000,0.000000,0.000000,1.501016,14.546770,0.921880
1650625276.506563,2224.000000,1650625276.506395,0.000000,0.000000,1.000000,0.000000,0.000000,0.000000,0.000000,1.503160,14.547407,0.956069
1650625276.606565,2225.000000,1650625276.606399,0.000000,0.000000,1.000000,0.000000,0.000000,0.000000,0.000000,1.515053,14.544720,0.930066
1650625276.706564,2226.000000,1650625276.706397,0.000000,0.000000,1.000000,0.000000,0.000000,0.000000,0.000000,1.543756,14.539989,0.864082
1650625276.806476,2227.000000,1650625276.806319,0.000000,0.000000,1.000000,0.000000,0.000000,0.000000,0.000000,1.567544,14.535523,0.833222
1650625276.906509,2228.000000,1650625276.906282,0.000000,0.000000,1.000000,0.000000,0.000000,0.000000,0.000000,1.577893,14.532410,0.819180
1650625277.006533,2229.000000,1650625277.006374,0.000000,0.000000,1.000000,0.000000,0.000000,0.000000,0.000000,1.579871,14.530586,0.820485
1650625277.106476,2230.000000,1650625277.106324,0.000000,0.000000,1.000000,0.000000,0.000000,0.000000,0.000000,1.579390,14.529985,0.818761
