__time,/dwm1001/id_458E/pose_kf/header/seq,/dwm1001/id_458E/pose_kf/header/stamp,/dwm1001/id_458E/pose_kf/pose/orientation/pitch_deg,/dwm1001/id_458E/pose_kf/pose/orientation/roll_deg,/dwm1001/id_458E/pose_kf/pose/orientation/w,/dwm1001/id_458E/pose_kf/pose/orientation/x,/dwm1001/id_458E/pose_kf/pose/orientation/y,/dwm1001/id_458E/pose_kf/pose/orientation/yaw_deg,/dwm1001/id_458E/pose_kf/pose/orientation/z,/dwm1001/id_458E/pose_kf/pose/position/x,/dwm1001/id_458E/pose_kf/pose/position/y,/dwm1001/id_458E/pose_kf/pose/position/z
1650625295.406658,2405.000000,1650625295.406456,0.000000,0.000000,1.000000,0.000000,0.000000,0.000000,0.000000,1.567589,14.533406,0.831768
1650625295.506630,2406.000000,1650625295.506466,0.000000,0.000000,1.000000,0.000000,0.000000,0.000000,0.000000,1.563152,14.533882,0.867954
1650625295.606601,2407.000000,1650625295.606440,0.000000,0.000000,1.000000,0.000000,0.000000,0.000000,0.000000,1.562261,14.534345,0.900938
1650625295.706918,2408.000000,1650625295.706597,0.000000,0.000000,1.000000,0.000000,0.000000,0.000000,0.000000,1.558182,14.534793,0.932411
1650625295.806522,2409.000000,1650625295.806328,0.000000,0.000000,1.000000,0.000000,0.000000,0.000000,0.000000,1.555461,14.531954,0.967228
1650625295.906624,2410.000000,1650625295.906413,0.000000,0.000000,1.000000,0.000000,0.000000,0.000000,0.000000,1.561663,14.528196,1.007623
1650625296.006620,2411.000000,1650625296.006414,0.000000,0.000000,1.000000,0.000000,0.000000,0.000000,0.000000,1.563193,14.526851,1.034766
1650625296.106571,2412.000000,1650625296.106411,0.000000,0.000000,1.000000,0.000000,0.000000,0.000000,0.000000,1.576657,14.523428,1.002385
1650625296.206571,2413.000000,1650625296.206412,0.000000,0.000000,1.000000,0.000000,0.000000,0.000000,0.000000,1.586095,14.521322,0.986336
1650625296.306581,2414.000000,1650625296.306412,0.000000,0.000000,1.000000,0.000000,0.000000,0.000000,0.000000,1.592788,14.520465,0.976325
1650625296.406592,2415.000000,1650625296.406426,0.000000,0.000000,1.000000,0.000000,0.000000,0.000000,0.000000,1.596868,14.519698,0.980198
1650625296.507054,2416.000000,1650625296.506683,0.000000,0.000000,1.000000,0.000000,0.000000,0.000000,0.000000,1.596286,14.519017,0.991756
1650625296.606651,2417.000000,1650625296.606444,0.000000,0.000000,1.000000,0.000000,0.000000,0.000000,0.000000,1.592395,14.520597,0.986483
1650625296.706679,2418.000000,1650625296.706506,0.000000,0.000000,1.000000,0.000000,0.000000,0.000000,0.000000,1.585390,14.522126,0.987659
1650625296.806534,2419.000000,1650625296.806374,0.000000,0.000000,1.000000,0.000000,0.000000,0.000000,0.000000,1.580918,14.522511,1.000675
1650625296.906689,2420.000000,1650625296.906475,0.000000,0.000000,1.000000,0.000000,0.000000,0.000000,0.000000,1.574495,14.522902,1.018589
1650625297.006549,2421.000000,1650625297.006370,0.000000,0.000000,1.000000,0.000000,0.000000,0.000000,0.000000,1.562978,14.523294,1.044409
1650625297.106596,2422.000000,1650625297.106427,0.000000,0.000000,1.000000,0.000000,0.000000,0.000000,0.000000,1.552131,14.522595,1.076976
1650625297.206548,2423.000000,1650625297.206380,0.000000,0.000000,1.000000,0.000000,0.000000,0.000000,0.000000,1.540860,14.523047,1.101459
1650625297.306674,2424.000000,1650625297.306440,0.000000,0.000000,1.000000,0.000000,0.000000,0.000000,0.000000,1.530310,14.523493,1.116541
1650625297.406566,2425.000000,1650625297.406363,0.000000,0.000000,1.000000,0.000000,0.000000,0.000000,0.000000,1.523738,14.523931,1.137108
1650625297.506586,2426.000000,1650625297.506387,0.000000,0.000000,1.000000,0.000000,0.000000,0.000000,0.000000,1.520942,14.521089,1.167758
1650625297.606570,2427.000000,1650625297.606396,0.000000,0.000000,1.000000,0.000000,0.000000,0.000000,0.000000,1.516264,14.520605,1.184659
1650625297.706573,2428.000000,1650625297.706362,0.000000,0.000000,1.000000,0.000000,0.000000,0.000000,0.000000,1.516355,14.520169,1.201260
1650625297.806590,2429.000000,1650625297.806380,0.000000,0.000000,1.000000,0.000000,0.000000,0.000000,0.000000,1.511133,14.520871,1.201432
1650625297.906593,2430.000000,1650625297.906387,0.000000,0.000000,1.000000,0.000000,0.000000,0.000000,0.000000,1.512890,14.521553,1.214082
1650625298.006544,2431.000000,1650625298.006378,0.000000,0.000000,1.000000,0.000000,0.000000,0.000000,0.000000,1.514689,14.523305,1.218542
1650625298.107290,2432.000000,1650625298.106976,0.000000,0.000000,1.000000,0.000000,0.000000,0.000000,0.000000,1.516514,14.524970,1.221603
1650625298.206945,2433.000000,1650625298.206714,0.000000,0.000000,1.000000,0.000000,0.000000,0.000000,0.000000,1.516169,14.527639,1.220108
1650625298.307260,2434.000000,1650625298.307021,0.000000,0.000000,1.000000,0.000000,0.000000,0.000000,0.000000,1.514859,14.530158,1.218293
1650625298.406861,2435.000000,1650625298.406619,0.000000,0.000000,1.000000,0.000000,0.000000,0.000000,0.000000,1.511544,14.533617,1.205705
1650625298.506929,2436.000000,1650625298.506741,0.000000,0.000000,1.000000,0.000000,0.000000,0.000000,0.000000,1.506336,14.536865,1.198139
1650625298.606897,2437.000000,1650625298.606651,0.000000,0.000000,1.000000,0.000000,0.000000,0.000000,0.000000,1.500441,14.538814,1.195417
1650625298.706887,2438.000000,1650625298.706660,0.000000,0.000000,1.000000,0.000000,0.000000,0.000000,0.000000,1.492816,14.541712,1.190911
1650625298.806903,2439.000000,1650625298.806645,0.000000,0.000000,1.000000,0.000000,0.000000,0.000000,0.000000,1.485752,14.543318,1.183098
1650625298.907280,2440.000000,1650625298.906953,0.000000,0.000000,1.000000,0.000000,0.000000,0.000000,0.000000,1.484686,14.544791,1.178589
1650625299.006954,2441.000000,1650625299.006773,0.000000,0.000000,1.000000,0.000000,0.000000,0.000000,0.000000,1.487104,14.546136,1.181299
1650625299.106822,2442.000000,1650625299.106658,0.000000,0.000000,1.000000,0.000000,0.000000,0.000000,0.000000,1.491709,14.547359,1.183685
1650625299.206830,2443.000000,1650625299.206602,0.000000,0.000000,1.000000,0.000000,0.000000,0.000000,0.000000,1.498359,14.549555,1.181731
1650625299.306849,2444.000000,1650625299.306627,0.000000,0.000000,1.000000,0.000000,0.000000,0.000000,0.000000,1.504735,14.549397,1.189336
1650625299.406927,2445.000000,1650625299.406757,0.000000,0.000000,1.000000,0.000000,0.000000,0.000000,0.000000,1.514097,14.545926,1.201270
1650625299.506855,2446.000000,1650625299.506635,0.000000,0.000000,1.000000,0.000000,0.000000,0.000000,0.000000,1.521889,14.543698,1.211702
1650625299.606884,2447.000000,1650625299.606666,0.000000,0.000000,1.000000,0.000000,0.000000,0.000000,0.000000,1.524899,14.542654,1.214232
1650625299.706707,2448.000000,1650625299.706497,0.000000,0.000000,1.000000,0.000000,0.000000,0.000000,0.000000,1.529918,14.541644,1.225313
1650625299.806600,2449.000000,1650625299.806397,0.000000,0.000000,1.000000,0.000000,0.000000,0.000000,0.000000,1.531372,14.540671,1.228462
1650625299.906578,2450.000000,1650625299.906392,0.000000,0.000000,1.000000,0.000000,0.000000,0.000000,0.000000,1.532721,14.540827,1.225615
1650625300.006583,2451.000000,1650625300.006410,0.000000,0.000000,1.000000,0.000000,0.000000,0.000000,0.000000,1.533970,14.540961,1.224287
1650625300.106569,2452.000000,1650625300.106388,0.000000,0.000000,1.000000,0.000000,0.000000,0.000000,0.000000,1.535119,14.541075,1.231685
1650625300.206597,2453.000000,1650625300.206406,0.000000,0.000000,1.000000,0.000000,0.000000,0.000000,0.000000,1.550350,14.538988,1.182130
1650625300.306611,2454.000000,1650625300.306402,0.000000,0.000000,1.000000,0.000000,0.000000,0.000000,0.000000,1.561401,14.538100,1.145753
1650625300.406596,2455.000000,1650625300.406397,0.000000,0.000000,1.000000,0.000000,0.000000,0.000000,0.000000,1.572832,14.537258,1.126121
1650625300.507344,2456.000000,1650625300.507139,0.000000,0.000000,1.000000,0.000000,0.000000,0.000000,0.000000,1.576960,14.537552,1.108885
1650625300.606876,2457.000000,1650625300.606684,0.000000,0.000000,1.000000,0.000000,0.000000,0.000000,0.000000,1.582901,14.537830,1.099623
1650625300.707049,2458.000000,1650625300.706827,0.000000,0.000000,1.000000,0.000000,0.000000,0.000000,0.000000,1.587275,14.537001,1.100447
1650625300.806861,2459.000000,1650625300.806671,0.000000,0.000000,1.000000,0.000000,0.000000,0.000000,0.000000,1.587980,14.536218,1.106111
1650625300.906836,2460.000000,1650625300.906646,0.000000,0.000000,1.000000,0.000000,0.000000,0.000000,0.000000,1.586314,14.535481,1.118019
1650625301.007025,2461.000000,1650625301.006784,0.000000,0.000000,1.000000,0.000000,0.000000,0.000000,0.000000,1.584602,14.534790,1.129448
1650625301.106858,2462.000000,1650625301.106629,0.000000,0.000000,1.000000,0.000000,0.000000,0.000000,0.000000,1.578497,14.536325,1.129915
1650625301.206850,2463.000000,1650625301.206685,0.000000,0.000000,1.000000,0.000000,0.000000,0.000000,0.000000,1.574807,14.536688,1.136795
1650625301.307042,2464.000000,1650625301.306763,0.000000,0.000000,1.000000,0.000000,0.000000,0.000000,0.000000,1.570148,14.535943,1.149014
1650625301.406831,2465.000000,1650625301.406670,0.000000,0.000000,1.000000,0.000000,0.000000,0.000000,0.000000,1.583127,14.531970,1.102627
1650625301.506964,2466.000000,1650625301.506754,0.000000,0.000000,1.000000,0.000000,0.000000,0.000000,0.000000,1.592029,14.530409,1.070239
1650625301.606828,2467.000000,1650625301.606627,0.000000,0.000000,1.000000,0.000000,0.000000,0.000000,0.000000,1.602506,14.528954,1.053757
1650625301.706975,2468.000000,1650625301.706783,0.000000,0.000000,1.000000,0.000000,0.000000,0.000000,0.000000,1.614446,14.527600,1.053372
1650625301.807044,2469.000000,1650625301.806789,0.000000,0.000000,1.000000,0.000000,0.000000,0.000000,0.000000,1.622289,14.526347,1.059560
1650625301.906862,2470.000000,1650625301.906610,0.000000,0.000000,1.000000,0.000000,0.000000,0.000000,0.000000,1.622971,14.525190,1.066395
1650625302.007004,2471.000000,1650625302.006744,0.000000,0.000000,1.000000,0.000000,0.000000,0.000000,0.000000,1.617983,14.526308,1.082709
1650625302.107195,2472.000000,1650625302.106813,0.000000,0.000000,1.000000,0.000000,0.000000,0.000000,0.000000,1.610930,14.527389,1.099215
1650625302.206984,2473.000000,1650625302.206738,0.000000,0.000000,1.000000,0.000000,0.000000,0.000000,0.000000,1.605227,14.527342,1.113459
1650625302.306885,2474.000000,1650625302.306679,0.000000,0.000000,1.000000,0.000000,0.000000,0.000000,0.000000,1.600826,14.524046,1.131150
1650625302.406971,2475.000000,1650625302.406768,0.000000,0.000000,1.000000,0.000000,0.000000,0.000000,0.000000,1.594404,14.522048,1.140024
1650625302.506909,2476.000000,1650625302.506665,0.000000,0.000000,1.000000,0.000000,0.000000,0.000000,0.000000,1.591548,14.520192,1.144456
1650625302.606839,2477.000000,1650625302.606677,0.000000,0.000000,1.000000,0.000000,0.000000,0.000000,0.000000,1.589896,14.519565,1.145424
1650625302.706929,2478.000000,1650625302.706763,0.000000,0.000000,1.000000,0.000000,0.000000,0.000000,0.000000,1.586117,14.519008,1.146297
1650625302.806819,2479.000000,1650625302.806653,0.000000,0.000000,1.000000,0.000000,0.000000,0.000000,0.000000,1.578162,14.519609,1.144658
1650625302.907411,2480.000000,1650625302.907108,0.000000,0.000000,1.000000,0.000000,0.000000,0.000000,0.000000,1.572826,14.521301,1.147872
1650625303.006828,2481.000000,1650625303.006668,0.000000,0.000000,1.000000,0.000000,0.000000,0.000000,0.000000,1.567803,14.520745,1.156548
1650625303.106842,2482.000000,1650625303.106686,0.000000,0.000000,1.000000,0.000000,0.000000,0.000000,0.000000,1.559818,14.521335,1.164000
1650625303.206828,2483.000000,1650625303.206676,0.000000,0.000000,1.000000,0.000000,0.000000,0.000000,0.000000,1.563231,14.519734,1.111398
1650625303.307207,2484.000000,1650625303.307024,0.000000,0.000000,1.000000,0.000000,0.000000,0.000000,0.000000,1.565413,14.517157,1.084318
1650625303.406964,2485.000000,1650625303.406765,0.000000,0.000000,1.000000,0.000000,0.000000,0.000000,0.000000,1.567512,14.516933,1.070487
1650625303.506908,2486.000000,1650625303.506707,0.000000,0.000000,1.000000,0.000000,0.000000,0.000000,0.000000,1.570614,14.517843,1.056489
1650625303.606989,2487.000000,1650625303.606793,0.000000,0.000000,1.000000,0.000000,0.000000,0.000000,0.000000,1.575743,14.518731,1.042351
1650625303.707064,2488.000000,1650625303.706791,0.000000,0.000000,1.000000,0.000000,0.000000,0.000000,0.000000,1.579502,14.519593,1.039388
1650625303.806890,2489.000000,1650625303.806647,0.000000,0.000000,1.000000,0.000000,0.000000,0.000000,0.000000,1.580861,14.521516,1.041505
1650625303.906790,2490.000000,1650625303.906644,0.000000,0.000000,1.000000,0.000000,0.000000,0.000000,0.000000,1.578859,14.524437,1.039617
1650625304.006985,2491.000000,1650625304.006749,0.000000,0.000000,1.000000,0.000000,0.000000,0.000000,0.000000,1.582408,14.526110,1.041949
1650625304.106994,2492.000000,1650625304.106778,0.000000,0.000000,1.000000,0.000000,0.000000,0.000000,0.000000,1.586834,14.526597,1.055580
1650625304.206929,2493.000000,1650625304.206767,0.000000,0.000000,1.000000,0.000000,0.000000,0.000000,0.000000,1.594258,14.527052,1.060672
1650625304.306613,2494.000000,1650625304.306457,0.000000,0.000000,1.000000,0.000000,0.000000,0.000000,0.000000,1.601223,14.527477,1.075300
1650625304.406649,2495.000000,1650625304.406494,0.000000,0.000000,1.000000,0.000000,0.000000,0.000000,0.000000,1.601193,14.527871,1.080504
1650625304.506710,2496.000000,1650625304.506522,0.000000,0.000000,1.000000,0.000000,0.000000,0.000000,0.000000,1.595643,14.529326,1.083104
1650625304.606559,2497.000000,1650625304.606386,0.000000,0.000000,1.000000,0.000000,0.000000,0.000000,0.000000,1.605615,14.527418,1.028361
1650625304.706540,2498.000000,1650625304.706376,0.000000,0.000000,1.000000,0.000000,0.000000,0.000000,0.000000,1.605153,14.527789,0.985614
1650625304.806577,2499.000000,1650625304.806400,0.000000,0.000000,1.000000,0.000000,0.000000,0.000000,0.000000,1.601376,14.528134,0.958480
1650625304.906714,2500.000000,1650625304.906489,0.000000,0.000000,1.000000,0.000000,0.000000,0.000000,0.000000,1.596659,14.528453,0.943141
1650625305.006550,2501.000000,1650625305.006383,0.000000,0.000000,1.000000,0.000000,0.000000,0.000000,0.000000,1.589983,14.529837,0.935108
1650625305.106559,2502.000000,1650625305.106395,0.000000,0.000000,1.000000,0.000000,0.000000,0.000000,0.000000,1.580385,14.531135,0.926831
1650625305.206627,2503.000000,1650625305.206469,0.000000,0.000000,1.000000,0.000000,0.000000,0.000000,0.000000,1.570239,14.532346,0.919131
1650625305.307093,2504.000000,1650625305.306845,0.000000,0.000000,1.000000,0.000000,0.000000,0.000000,0.000000,1.558512,14.533474,0.915212
1650625305.406607,2505.000000,1650625305.406404,0.000000,0.000000,1.000000,0.000000,0.000000,0.000000,0.000000,1.554050,14.531249,0.924597
1650625305.506738,2506.000000,1650625305.506554,0.000000,0.000000,1.000000,0.000000,0.000000,0.000000,0.000000,1.547742,14.531313,0.924949
1650625305.606581,2507.000000,1650625305.606387,0.000000,0.000000,1.000000,0.000000,0.000000,0.000000,0.000000,1.536433,14.532452,0.935170
1650625305.706765,2508.000000,1650625305.706542,0.000000,0.000000,1.000000,0.000000,0.000000,0.000000,0.000000,1.530237,14.534606,0.945159
1650625305.806631,2509.000000,1650625305.806443,0.000000,0.000000,1.000000,0.000000,0.000000,0.000000,0.000000,1.522346,14.535530,0.962967
1650625305.906758,2510.000000,1650625305.906553,0.000000,0.000000,1.000000,0.000000,0.000000,0.000000,0.000000,1.516139,14.537473,0.966466
1650625306.006748,2511.000000,1650625306.006537,0.000000,0.000000,1.000000,0.000000,0.000000,0.000000,0.000000,1.513716,14.539282,0.969125
1650625306.106940,2512.000000,1650625306.106700,0.000000,0.000000,1.000000,0.000000,0.000000,0.000000,0.000000,1.511596,14.539872,0.963712
1650625306.206699,2513.000000,1650625306.206513,0.000000,0.000000,1.000000,0.000000,0.000000,0.000000,0.000000,1.505399,14.542578,0.963460
1650625306.306733,2514.000000,1650625306.306539,0.000000,0.000000,1.000000,0.000000,0.000000,0.000000,0.000000,1.499718,14.545099,0.972189
1650625306.406668,2515.000000,1650625306.406449,0.000000,0.000000,1.000000,0.000000,0.000000,0.000000,0.000000,1.494532,14.546349,0.990325
1650625306.506711,2516.000000,1650625306.506529,0.000000,0.000000,1.000000,0.000000,0.000000,0.000000,0.000000,1.490910,14.546395,1.010197
1650625306.606595,2517.000000,1650625306.606378,0.000000,0.000000,1.000000,0.000000,0.000000,0.000000,0.000000,1.488768,14.547486,1.022020
1650625306.706632,2518.000000,1650625306.706465,0.000000,0.000000,1.000000,0.000000,0.000000,0.000000,0.000000,1.496744,14.546293,0.976100
1650625306.806667,2519.000000,1650625306.806457,0.000000,0.000000,1.000000,0.000000,0.000000,0.000000,0.000000,1.504437,14.545128,0.945003
1650625306.906889,2520.000000,1650625306.906667,0.000000,0.000000,1.000000,0.000000,0.000000,0.000000,0.000000,1.498745,14.546175,0.922536
1650625307.006656,2521.000000,1650625307.006492,0.000000,0.000000,1.000000,0.000000,0.000000,0.000000,0.000000,1.491312,14.544951,0.915642
1650625307.106905,2522.000000,1650625307.106727,0.000000,0.000000,1.000000,0.000000,0.000000,0.000000,0.000000,1.486610,14.544857,0.918055
1650625307.206920,2523.000000,1650625307.206739,0.000000,0.000000,1.000000,0.000000,0.000000,0.000000,0.000000,1.484497,14.541472,0.931807
1650625307.306699,2524.000000,1650625307.306550,0.000000,0.000000,1.000000,0.000000,0.000000,0.000000,0.000000,1.485921,14.540439,0.937864
1650625307.406901,2525.000000,1650625307.406712,0.000000,0.000000,1.000000,0.000000,0.000000,0.000000,0.000000,1.484132,14.539452,0.924424
1650625307.506980,2526.000000,1650625307.506814,0.000000,0.000000,1.000000,0.000000,0.000000,0.000000,0.000000,1.482575,14.539604,0.918098
1650625307.606849,2527.000000,1650625307.606692,0.000000,0.000000,1.000000,0.000000,0.000000,0.000000,0.000000,1.480145,14.539742,0.912959
1650625307.707261,2528.000000,1650625307.706991,0.000000,0.000000,1.000000,0.000000,0.000000,0.000000,0.000000,1.477978,14.540957,0.913802
1650625307.806654,2529.000000,1650625307.806468,0.000000,0.000000,1.000000,0.000000,0.000000,0.000000,0.000000,1.472790,14.542096,0.919573
1650625307.906522,2530.000000,1650625307.906307,0.000000,0.000000,1.000000,0.000000,0.000000,0.000000,0.000000,1.469114,14.543161,0.928444
1650625308.006649,2531.000000,1650625308.006476,0.000000,0.000000,1.000000,0.000000,0.000000,0.000000,0.000000,1.467962,14.544153,0.942691
1650625308.106534,2532.000000,1650625308.106354,0.000000,0.000000,1.000000,0.000000,0.000000,0.000000,0.000000,1.476825,14.542892,0.901585
1650625308.206612,2533.000000,1650625308.206398,0.000000,0.000000,1.000000,0.000000,0.000000,0.000000,0.000000,1.480947,14.542779,0.866295
1650625308.306899,2534.000000,1650625308.306741,0.000000,0.000000,1.000000,0.000000,0.000000,0.000000,0.000000,1.477295,14.542660,0.851158
1650625308.406657,2535.000000,1650625308.406511,0.000000,0.000000,1.000000,0.000000,0.000000,0.000000,0.000000,1.477203,14.541447,0.852961
1650625308.506796,2536.000000,1650625308.506588,0.000000,0.000000,1.000000,0.000000,0.000000,0.000000,0.000000,1.492468,14.538114,0.804072
1650625308.606663,2537.000000,1650625308.606492,0.000000,0.000000,1.000000,0.000000,0.000000,0.000000,0.000000,1.499301,14.536057,0.776772
1650625308.706701,2538.000000,1650625308.706524,0.000000,0.000000,1.000000,0.000000,0.000000,0.000000,0.000000,1.503590,14.535214,0.755710
1650625308.806604,2539.000000,1650625308.806445,0.000000,0.000000,1.000000,0.000000,0.000000,0.000000,0.000000,1.513092,14.533340,0.750335
1650625308.906545,2540.000000,1650625308.906375,0.000000,0.000000,1.000000,0.000000,0.000000,0.000000,0.000000,1.518771,14.532676,0.755978
1650625309.006743,2541.000000,1650625309.006540,0.000000,0.000000,1.000000,0.000000,0.000000,0.000000,0.000000,1.525181,14.532068,0.768945
1650625309.106622,2542.000000,1650625309.106460,0.000000,0.000000,1.000000,0.000000,0.000000,0.000000,0.000000,1.531173,14.529333,0.788909
1650625309.206721,2543.000000,1650625309.206551,0.000000,0.000000,1.000000,0.000000,0.000000,0.000000,0.000000,1.523672,14.530045,0.793767
1650625309.307168,2544.000000,1650625309.307000,0.000000,0.000000,1.000000,0.000000,0.000000,0.000000,0.000000,1.517616,14.530743,0.807498
1650625309.406995,2545.000000,1650625309.406785,0.000000,0.000000,1.000000,0.000000,0.000000,0.000000,0.000000,1.533665,14.528151,0.770036
1650625309.506965,2546.000000,1650625309.506769,0.000000,0.000000,1.000000,0.000000,0.000000,0.000000,0.000000,1.550940,14.525728,0.752048
1650625309.606984,2547.000000,1650625309.606771,0.000000,0.000000,1.000000,0.000000,0.000000,0.000000,0.000000,1.564963,14.523470,0.731804
1650625309.706967,2548.000000,1650625309.706759,0.000000,0.000000,1.000000,0.000000,0.000000,0.000000,0.000000,1.575874,14.521373,0.729579
1650625309.806756,2549.000000,1650625309.806567,0.000000,0.000000,1.000000,0.000000,0.000000,0.000000,0.000000,1.578366,14.519434,0.734963
1650625309.906712,2550.000000,1650625309.906520,0.000000,0.000000,1.000000,0.000000,0.000000,0.000000,0.000000,1.575082,14.519827,0.744403
1650625310.006578,2551.000000,1650625310.006438,0.000000,0.000000,1.000000,0.000000,0.000000,0.000000,0.000000,1.573990,14.516970,0.769805
1650625310.106761,2552.000000,1650625310.106559,0.000000,0.000000,1.000000,0.000000,0.000000,0.000000,0.000000,1.569532,14.515409,0.787089
1650625310.206540,2553.000000,1650625310.206369,0.000000,0.000000,1.000000,0.000000,0.000000,0.000000,0.000000,1.564095,14.515074,0.808640
1650625310.306687,2554.000000,1650625310.306541,0.000000,0.000000,1.000000,0.000000,0.000000,0.000000,0.000000,1.557757,14.515897,0.828601
1650625310.406636,2555.000000,1650625310.406488,0.000000,0.000000,1.000000,0.000000,0.000000,0.000000,0.000000,1.554955,14.518900,0.832482
1650625310.506603,2556.000000,1650625310.506455,0.000000,0.000000,1.000000,0.000000,0.000000,0.000000,0.000000,1.551149,14.520680,0.843503
1650625310.606594,2557.000000,1650625310.606446,0.000000,0.000000,1.000000,0.000000,0.000000,0.000000,0.000000,1.546408,14.523479,0.853291
1650625310.706769,2558.000000,1650625310.706547,0.000000,0.000000,1.000000,0.000000,0.000000,0.000000,0.000000,1.540801,14.525048,0.867524
1650625310.806587,2559.000000,1650625310.806448,0.000000,0.000000,1.000000,0.000000,0.000000,0.000000,0.000000,1.536577,14.526541,0.881967
1650625310.906748,2560.000000,1650625310.906555,0.000000,0.000000,1.000000,0.000000,0.000000,0.000000,0.000000,1.529312,14.527956,0.899007
1650625311.006877,2561.000000,1650625311.006703,0.000000,0.000000,1.000000,0.000000,0.000000,0.000000,0.000000,1.522466,14.528202,0.925769
1650625311.107229,2562.000000,1650625311.106829,0.000000,0.000000,1.000000,0.000000,0.000000,0.000000,0.000000,1.513855,14.529522,0.952144
1650625311.206975,2563.000000,1650625311.206804,0.000000,0.000000,1.000000,0.000000,0.000000,0.000000,0.000000,1.519956,14.528584,0.918428
1650625311.306995,2564.000000,1650625311.306823,0.000000,0.000000,1.000000,0.000000,0.000000,0.000000,0.000000,1.527951,14.527694,0.902108
1650625311.406968,2565.000000,1650625311.406793,0.000000,0.000000,1.000000,0.000000,0.000000,0.000000,0.000000,1.531166,14.527943,0.898482
1650625311.506959,2566.000000,1650625311.506786,0.000000,0.000000,1.000000,0.000000,0.000000,0.000000,0.000000,1.529850,14.529269,0.895757
1650625311.606982,2567.000000,1650625311.606778,0.000000,0.000000,1.000000,0.000000,0.000000,0.000000,0.000000,1.527526,14.530517,0.905193
1650625311.707372,2568.000000,1650625311.707099,0.000000,0.000000,1.000000,0.000000,0.000000,0.000000,0.000000,1.525344,14.531689,0.916609
1650625311.807023,2569.000000,1650625311.806772,0.000000,0.000000,1.000000,0.000000,0.000000,0.000000,0.000000,1.518943,14.532785,0.934747
1650625311.906954,2570.000000,1650625311.906775,0.000000,0.000000,1.000000,0.000000,0.000000,0.000000,0.000000,1.514021,14.534898,0.953663
1650625312.006659,2571.000000,1650625312.006507,0.000000,0.000000,1.000000,0.000000,0.000000,0.000000,0.000000,1.524688,14.533604,0.919265
1650625312.106681,2572.000000,1650625312.106509,0.000000,0.000000,1.000000,0.000000,0.000000,0.000000,0.000000,1.530430,14.533456,0.904735
1650625312.206649,2573.000000,1650625312.206499,0.000000,0.000000,1.000000,0.000000,0.000000,0.000000,0.000000,1.535857,14.534393,0.893170
1650625312.306661,2574.000000,1650625312.306513,0.000000,0.000000,1.000000,0.000000,0.000000,0.000000,0.000000,1.537700,14.536353,0.881246
1650625312.406623,2575.000000,1650625312.406403,0.000000,0.000000,1.000000,0.000000,0.000000,0.000000,0.000000,1.541600,14.538186,0.881094
1650625312.506817,2576.000000,1650625312.506588,0.000000,0.000000,1.000000,0.000000,0.000000,0.000000,0.000000,1.538710,14.540983,0.879339
1650625312.606644,2577.000000,1650625312.606475,0.000000,0.000000,1.000000,0.000000,0.000000,0.000000,0.000000,1.538137,14.543595,0.881691
1650625312.706656,2578.000000,1650625312.706480,0.000000,0.000000,1.000000,0.000000,0.000000,0.000000,0.000000,1.537574,14.546025,0.887983
1650625312.806649,2579.000000,1650625312.806476,0.000000,0.000000,1.000000,0.000000,0.000000,0.000000,0.000000,1.538115,14.547188,0.889978
1650625312.906636,2580.000000,1650625312.906476,0.000000,0.000000,1.000000,0.000000,0.000000,0.000000,0.000000,1.551694,14.544971,0.845913
1650625313.006582,2581.000000,1650625313.006387,0.000000,0.000000,1.000000,0.000000,0.000000,0.000000,0.000000,1.556841,14.543929,0.827074
1650625313.106648,2582.000000,1650625313.106467,0.000000,0.000000,1.000000,0.000000,0.000000,0.000000,0.000000,1.560546,14.542913,0.823602
1650625313.206620,2583.000000,1650625313.206470,0.000000,0.000000,1.000000,0.000000,0.000000,0.000000,0.000000,1.567240,14.543016,0.817944
1650625313.307159,2584.000000,1650625313.306917,0.000000,0.000000,1.000000,0.000000,0.000000,0.000000,0.000000,1.570201,14.544180,0.806969
1650625313.406696,2585.000000,1650625313.406518,0.000000,0.000000,1.000000,0.000000,0.000000,0.000000,0.000000,1.572902,14.546344,0.794131
1650625313.506638,2586.000000,1650625313.506469,0.000000,0.000000,1.000000,0.000000,0.000000,0.000000,0.000000,1.574262,14.548358,0.791619
1650625313.606619,2587.000000,1650625313.606454,0.000000,0.000000,1.000000,0.000000,0.000000,0.000000,0.000000,1.573267,14.548044,0.802241
1650625313.706628,2588.000000,1650625313.706455,0.000000,0.000000,1.000000,0.000000,0.000000,0.000000,0.000000,1.567872,14.547715,0.808509
1650625313.806669,2589.000000,1650625313.806490,0.000000,0.000000,1.000000,0.000000,0.000000,0.000000,0.000000,1.558340,14.548463,0.804938
1650625313.906583,2590.000000,1650625313.906445,0.000000,0.000000,1.000000,0.000000,0.000000,0.000000,0.000000,1.552562,14.549139,0.816121
1650625314.006668,2591.000000,1650625314.006506,0.000000,0.000000,1.000000,0.000000,0.000000,0.000000,0.000000,1.553626,14.546476,0.832568
1650625314.106850,2592.000000,1650625314.106598,0.000000,0.000000,1.000000,0.000000,0.000000,0.000000,0.000000,1.552433,14.545027,0.843554
1650625314.206694,2593.000000,1650625314.206461,0.000000,0.000000,1.000000,0.000000,0.000000,0.000000,0.000000,1.545840,14.544731,0.845245
1650625314.306667,2594.000000,1650625314.306470,0.000000,0.000000,1.000000,0.000000,0.000000,0.000000,0.000000,1.534163,14.545529,0.844465
1650625314.406656,2595.000000,1650625314.406458,0.000000,0.000000,1.000000,0.000000,0.000000,0.000000,0.000000,1.519895,14.548448,0.829216
1650625314.506638,2596.000000,1650625314.506448,0.000000,0.000000,1.000000,0.000000,0.000000,0.000000,0.000000,1.510853,14.550095,0.831558
1650625314.606596,2597.000000,1650625314.606373,0.000000,0.000000,1.000000,0.000000,0.000000,0.000000,0.000000,1.504594,14.550534,0.843520
1650625314.706662,2598.000000,1650625314.706472,0.000000,0.000000,1.000000,0.000000,0.000000,0.000000,0.000000,1.515157,14.546560,0.805820
1650625314.806662,2599.000000,1650625314.806468,0.000000,0.000000,1.000000,0.000000,0.000000,0.000000,0.000000,1.524137,14.543879,0.768103
1650625314.906857,2600.000000,1650625314.906571,0.000000,0.000000,1.000000,0.000000,0.000000,0.000000,0.000000,1.527226,14.542431,0.751400
1650625315.006699,2601.000000,1650625315.006468,0.000000,0.000000,1.000000,0.000000,0.000000,0.000000,0.000000,1.525823,14.542154,0.757305
1650625315.106660,2602.000000,1650625315.106472,0.000000,0.000000,1.000000,0.000000,0.000000,0.000000,0.000000,1.526717,14.541892,0.775213
1650625315.206666,2603.000000,1650625315.206472,0.000000,0.000000,1.000000,0.000000,0.000000,0.000000,0.000000,1.523235,14.542738,0.804603
1650625315.306667,2604.000000,1650625315.306463,0.000000,0.000000,1.000000,0.000000,0.000000,0.000000,0.000000,1.521078,14.543538,0.838506
1650625315.406615,2605.000000,1650625315.406445,0.000000,0.000000,1.000000,0.000000,0.000000,0.000000,0.000000,1.521267,14.543200,0.870230
1650625315.506621,2606.000000,1650625315.506447,0.000000,0.000000,1.000000,0.000000,0.000000,0.000000,0.000000,1.525851,14.542879,0.899809
1650625315.606671,2607.000000,1650625315.606484,0.000000,0.000000,1.000000,0.000000,0.000000,0.000000,0.000000,1.526943,14.542575,0.932120
1650625315.706738,2608.000000,1650625315.706544,0.000000,0.000000,1.000000,0.000000,0.000000,0.000000,0.000000,1.527997,14.542288,0.967004
1650625315.806692,2609.000000,1650625315.806511,0.000000,0.000000,1.000000,0.000000,0.000000,0.000000,0.000000,1.527922,14.537656,1.009141
1650625315.906659,2610.000000,1650625315.906482,0.000000,0.000000,1.000000,0.000000,0.000000,0.000000,0.000000,1.527868,14.534383,1.041243
1650625316.006760,2611.000000,1650625316.006518,0.000000,0.000000,1.000000,0.000000,0.000000,0.000000,0.000000,1.524562,14.532404,1.070928
1650625316.106735,2612.000000,1650625316.106494,0.000000,0.000000,1.000000,0.000000,0.000000,0.000000,0.000000,1.528005,14.530562,1.099870
1650625316.206678,2613.000000,1650625316.206488,0.000000,0.000000,1.000000,0.000000,0.000000,0.000000,0.000000,1.532363,14.528855,1.132903
1650625316.306711,2614.000000,1650625316.306519,0.000000,0.000000,1.000000,0.000000,0.000000,0.000000,0.000000,1.534303,14.526187,1.166597
1650625316.406741,2615.000000,1650625316.406554,0.000000,0.000000,1.000000,0.000000,0.000000,0.000000,0.000000,1.535039,14.524800,1.199273
1650625316.507015,2616.000000,1650625316.506616,0.000000,0.000000,1.000000,0.000000,0.000000,0.000000,0.000000,1.537907,14.521352,1.229324
1650625316.606743,2617.000000,1650625316.606519,0.000000,0.000000,1.000000,0.000000,0.000000,0.000000,0.000000,1.553686,14.515965,1.193921
1650625316.706736,2618.000000,1650625316.706546,0.000000,0.000000,1.000000,0.000000,0.000000,0.000000,0.000000,1.567449,14.510940,1.182077
1650625316.806756,2619.000000,1650625316.806561,0.000000,0.000000,1.000000,0.000000,0.000000,0.000000,0.000000,1.572724,14.508448,1.179977
1650625316.906776,2620.000000,1650625316.906512,0.000000,0.000000,1.000000,0.000000,0.000000,0.000000,0.000000,1.585228,14.506175,1.188862
1650625317.006757,2621.000000,1650625317.006529,0.000000,0.000000,1.000000,0.000000,0.000000,0.000000,0.000000,1.601264,14.503020,1.147806
1650625317.106715,2622.000000,1650625317.106524,0.000000,0.000000,1.000000,0.000000,0.000000,0.000000,0.000000,1.611874,14.501218,1.114555
1650625317.206708,2623.000000,1650625317.206523,0.000000,0.000000,1.000000,0.000000,0.000000,0.000000,0.000000,1.615150,14.500695,1.093700
1650625317.306748,2624.000000,1650625317.306539,0.000000,0.000000,1.000000,0.000000,0.000000,0.000000,0.000000,1.613676,14.501379,1.086401
1650625317.406633,2625.000000,1650625317.406447,0.000000,0.000000,1.000000,0.000000,0.000000,0.000000,0.000000,1.629533,14.501014,1.025196
1650625317.506724,2626.000000,1650625317.506537,0.000000,0.000000,1.000000,0.000000,0.000000,0.000000,0.000000,1.638841,14.500746,0.993820
1650625317.606638,2627.000000,1650625317.606460,0.000000,0.000000,1.000000,0.000000,0.000000,0.000000,0.000000,1.646304,14.500565,0.981450
1650625317.706636,2628.000000,1650625317.706463,0.000000,0.000000,1.000000,0.000000,0.000000,0.000000,0.000000,1.646559,14.501553,0.975242
1650625317.806730,2629.000000,1650625317.806556,0.000000,0.000000,1.000000,0.000000,0.000000,0.000000,0.000000,1.646556,14.502550,0.983024
1650625317.906718,2630.000000,1650625317.906541,0.000000,0.000000,1.000000,0.000000,0.000000,0.000000,0.000000,1.645234,14.504639,0.983249
1650625318.006657,2631.000000,1650625318.006479,0.000000,0.000000,1.000000,0.000000,0.000000,0.000000,0.000000,1.640499,14.506659,0.991543
1650625318.106917,2632.000000,1650625318.106687,0.000000,0.000000,1.000000,0.000000,0.000000,0.000000,0.000000,1.631476,14.509696,0.998695
1650625318.206711,2633.000000,1650625318.206540,0.000000,0.000000,1.000000,0.000000,0.000000,0.000000,0.000000,1.624979,14.511503,1.016030
1650625318.306948,2634.000000,1650625318.306733,0.000000,0.000000,1.000000,0.000000,0.000000,0.000000,0.000000,1.619809,14.513229,1.031819
1650625318.406757,2635.000000,1650625318.406543,0.000000,0.000000,1.000000,0.000000,0.000000,0.000000,0.000000,1.612645,14.515962,1.052549
1650625318.506635,2636.000000,1650625318.506479,0.000000,0.000000,1.000000,0.000000,0.000000,0.000000,0.000000,1.603625,14.519639,1.063474
1650625318.606629,2637.000000,1650625318.606465,0.000000,0.000000,1.000000,0.000000,0.000000,0.000000,0.000000,1.596152,14.522016,1.077877
1650625318.706619,2638.000000,1650625318.706460,0.000000,0.000000,1.000000,0.000000,0.000000,0.000000,0.000000,1.590169,14.525337,1.077050
1650625318.806741,2639.000000,1650625318.806572,0.000000,0.000000,1.000000,0.000000,0.000000,0.000000,0.000000,1.582341,14.529542,1.074518
1650625318.906959,2640.000000,1650625318.906699,0.000000,0.000000,1.000000,0.000000,0.000000,0.000000,0.000000,1.573884,14.532390,1.079229
1650625319.006746,2641.000000,1650625319.006531,0.000000,0.000000,1.000000,0.000000,0.000000,0.000000,0.000000,1.563767,14.535037,1.077179
1650625319.106630,2642.000000,1650625319.106469,0.000000,0.000000,1.000000,0.000000,0.000000,0.000000,0.000000,1.554288,14.537491,1.067842
1650625319.206707,2643.000000,1650625319.206505,0.000000,0.000000,1.000000,0.000000,0.000000,0.000000,0.000000,1.546529,14.540846,1.052340
1650625319.306653,2644.000000,1650625319.306460,0.000000,0.000000,1.000000,0.000000,0.000000,0.000000,0.000000,1.540413,14.542865,1.047886
1650625319.406677,2645.000000,1650625319.406514,0.000000,0.000000,1.000000,0.000000,0.000000,0.000000,0.000000,1.534773,14.544709,1.053238
1650625319.506652,2646.000000,1650625319.506495,0.000000,0.000000,1.000000,0.000000,0.000000,0.000000,0.000000,1.529592,14.546385,1.057510
1650625319.606660,2647.000000,1650625319.606503,0.000000,0.000000,1.000000,0.000000,0.000000,0.000000,0.000000,1.542299,14.543540,1.007516
1650625319.706888,2648.000000,1650625319.706643,0.000000,0.000000,1.000000,0.000000,0.000000,0.000000,0.000000,1.546791,14.544064,0.985369
1650625319.806758,2649.000000,1650625319.806547,0.000000,0.000000,1.000000,0.000000,0.000000,0.000000,0.000000,1.544586,14.545597,0.964982
1650625319.906700,2650.000000,1650625319.906517,0.000000,0.000000,1.000000,0.000000,0.000000,0.000000,0.000000,1.541502,14.545900,0.959220
1650625320.006681,2651.000000,1650625320.006490,0.000000,0.000000,1.000000,0.000000,0.000000,0.000000,0.000000,1.531050,14.547223,0.940080
1650625320.106656,2652.000000,1650625320.106480,0.000000,0.000000,1.000000,0.000000,0.000000,0.000000,0.000000,1.520199,14.548419,0.924259
1650625320.206648,2653.000000,1650625320.206479,0.000000,0.000000,1.000000,0.000000,0.000000,0.000000,0.000000,1.511180,14.549495,0.914063
1650625320.306681,2654.000000,1650625320.306514,0.000000,0.000000,1.000000,0.000000,0.000000,0.000000,0.000000,1.501733,14.552637,0.922987
1650625320.406694,2655.000000,1650625320.406521,0.000000,0.000000,1.000000,0.000000,0.000000,0.000000,0.000000,1.492989,14.554456,0.938948
1650625320.506802,2656.000000,1650625320.506564,0.000000,0.000000,1.000000,0.000000,0.000000,0.000000,0.000000,1.488200,14.555021,0.960016
1650625320.606636,2657.000000,1650625320.606463,0.000000,0.000000,1.000000,0.000000,0.000000,0.000000,0.000000,1.487153,14.554402,0.985139
1650625320.706982,2658.000000,1650625320.706801,0.000000,0.000000,1.000000,0.000000,0.000000,0.000000,0.000000,1.486363,14.553760,1.010076
1650625320.806993,2659.000000,1650625320.806782,0.000000,0.000000,1.000000,0.000000,0.000000,0.000000,0.000000,1.497803,14.549830,0.972694
1650625320.907021,2660.000000,1650625320.906784,0.000000,0.000000,1.000000,0.000000,0.000000,0.000000,0.000000,1.512035,14.547169,0.952990
1650625321.007001,2661.000000,1650625321.006767,0.000000,0.000000,1.000000,0.000000,0.000000,0.000000,0.000000,1.522313,14.543536,0.951894
1650625321.107072,2662.000000,1650625321.106820,0.000000,0.000000,1.000000,0.000000,0.000000,0.000000,0.000000,1.542988,14.537908,0.897688
1650625321.207002,2663.000000,1650625321.206764,0.000000,0.000000,1.000000,0.000000,0.000000,0.000000,0.000000,1.555981,14.534773,0.857924
1650625321.307302,2664.000000,1650625321.307044,0.000000,0.000000,1.000000,0.000000,0.000000,0.000000,0.000000,1.560579,14.532914,0.844984
1650625321.406981,2665.000000,1650625321.406767,0.000000,0.000000,1.000000,0.000000,0.000000,0.000000,0.000000,1.561589,14.531176,0.844897
1650625321.506975,2666.000000,1650625321.506769,0.000000,0.000000,1.000000,0.000000,0.000000,0.000000,0.000000,1.559208,14.530648,0.841004
1650625321.606980,2667.000000,1650625321.606764,0.000000,0.000000,1.000000,0.000000,0.000000,0.000000,0.000000,1.552542,14.531264,0.831039
1650625321.706971,2668.000000,1650625321.706792,0.000000,0.000000,1.000000,0.000000,0.000000,0.000000,0.000000,1.546208,14.532958,0.826543
1650625321.806978,2669.000000,1650625321.806774,0.000000,0.000000,1.000000,0.000000,0.000000,0.000000,0.000000,1.538031,14.535665,0.818423
1650625321.906994,2670.000000,1650625321.906779,0.000000,0.000000,1.000000,0.000000,0.000000,0.000000,0.000000,1.533589,14.537140,0.823765
1650625322.006979,2671.000000,1650625322.006777,0.000000,0.000000,1.000000,0.000000,0.000000,0.000000,0.000000,1.544685,14.535263,0.775877
1650625322.107296,2672.000000,1650625322.106937,0.000000,0.000000,1.000000,0.000000,0.000000,0.000000,0.000000,1.552990,14.533495,0.751979
1650625322.207014,2673.000000,1650625322.206790,0.000000,0.000000,1.000000,0.000000,0.000000,0.000000,0.000000,1.559720,14.531835,0.751132
1650625322.306978,2674.000000,1650625322.306776,0.000000,0.000000,1.000000,0.000000,0.000000,0.000000,0.000000,1.563853,14.530282,0.762717
1650625322.406963,2675.000000,1650625322.406761,0.000000,0.000000,1.000000,0.000000,0.000000,0.000000,0.000000,1.566609,14.529924,0.778137
1650625322.506961,2676.000000,1650625322.506760,0.000000,0.000000,1.000000,0.000000,0.000000,0.000000,0.000000,1.565878,14.530695,0.797199
1650625322.606951,2677.000000,1650625322.606751,0.000000,0.000000,1.000000,0.000000,0.000000,0.000000,0.000000,1.560765,14.532531,0.824553
1650625322.706961,2678.000000,1650625322.706767,0.000000,0.000000,1.000000,0.000000,0.000000,0.000000,0.000000,1.551528,14.534277,0.846909
1650625322.806954,2679.000000,1650625322.806756,0.000000,0.000000,1.000000,0.000000,0.000000,0.000000,0.000000,1.547147,14.533751,0.869261
1650625322.907296,2680.000000,1650625322.907074,0.000000,0.000000,1.000000,0.000000,0.000000,0.000000,0.000000,1.561547,14.531078,0.833504
1650625323.007003,2681.000000,1650625323.006825,0.000000,0.000000,1.000000,0.000000,0.000000,0.000000,0.000000,1.588206,14.526383,0.755748
1650625323.106961,2682.000000,1650625323.106771,0.000000,0.000000,1.000000,0.000000,0.000000,0.000000,0.000000,1.605659,14.523061,0.714427
1650625323.206950,2683.000000,1650625323.206779,0.000000,0.000000,1.000000,0.000000,0.000000,0.000000,0.000000,1.617629,14.519957,0.703293
1650625323.307292,2684.000000,1650625323.307076,0.000000,0.000000,1.000000,0.000000,0.000000,0.000000,0.000000,1.623298,14.518155,0.700975
1650625323.407055,2685.000000,1650625323.406830,0.000000,0.000000,1.000000,0.000000,0.000000,0.000000,0.000000,1.626273,14.517589,0.708721
1650625323.507018,2686.000000,1650625323.506750,0.000000,0.000000,1.000000,0.000000,0.000000,0.000000,0.000000,1.643059,14.513829,0.666423
1650625323.607132,2687.000000,1650625323.606907,0.000000,0.000000,1.000000,0.000000,0.000000,0.000000,0.000000,1.654326,14.511420,0.640674
1650625323.707314,2688.000000,1650625323.707100,0.000000,0.000000,1.000000,0.000000,0.000000,0.000000,0.000000,1.660354,14.511381,0.621160
1650625323.806979,2689.000000,1650625323.806773,0.000000,0.000000,1.000000,0.000000,0.000000,0.000000,0.000000,1.665785,14.512492,0.614907
1650625323.907064,2690.000000,1650625323.906798,0.000000,0.000000,1.000000,0.000000,0.000000,0.000000,0.000000,1.661927,14.514682,0.610083
1650625324.006953,2691.000000,1650625324.006770,0.000000,0.000000,1.000000,0.000000,0.000000,0.000000,0.000000,1.656947,14.515703,0.624365
1650625324.106961,2692.000000,1650625324.106762,0.000000,0.000000,1.000000,0.000000,0.000000,0.000000,0.000000,1.652026,14.516702,0.652106
1650625324.206988,2693.000000,1650625324.206739,0.000000,0.000000,1.000000,0.000000,0.000000,0.000000,0.000000,1.641736,14.518766,0.683832
1650625324.306942,2694.000000,1650625324.306717,0.000000,0.000000,1.000000,0.000000,0.000000,0.000000,0.000000,1.630774,14.520739,0.716090
1650625324.406951,2695.000000,1650625324.406715,0.000000,0.000000,1.000000,0.000000,0.000000,0.000000,0.000000,1.622492,14.522617,0.757668
1650625324.507184,2696.000000,1650625324.506950,0.000000,0.000000,1.000000,0.000000,0.000000,0.000000,0.000000,1.614593,14.524401,0.791178
1650625324.607062,2697.000000,1650625324.606787,0.000000,0.000000,1.000000,0.000000,0.000000,0.000000,0.000000,1.602725,14.526088,0.824144
1650625324.707027,2698.000000,1650625324.706752,0.000000,0.000000,1.000000,0.000000,0.000000,0.000000,0.000000,1.604589,14.525498,0.798467
1650625324.807050,2699.000000,1650625324.806814,0.000000,0.000000,1.000000,0.000000,0.000000,0.000000,0.000000,1.605257,14.526028,0.785105
1650625324.906974,2700.000000,1650625324.906763,0.000000,0.000000,1.000000,0.000000,0.000000,0.000000,0.000000,1.601520,14.526525,0.779554
1650625325.006993,2701.000000,1650625325.006772,0.000000,0.000000,1.000000,0.000000,0.000000,0.000000,0.000000,1.593630,14.526990,0.787958
1650625325.106985,2702.000000,1650625325.106788,0.000000,0.000000,1.000000,0.000000,0.000000,0.000000,0.000000,1.585110,14.528513,0.796837
1650625325.207027,2703.000000,1650625325.206795,0.000000,0.000000,1.000000,0.000000,0.000000,0.000000,0.000000,1.570567,14.529943,0.816639
1650625325.307397,2704.000000,1650625325.307081,0.000000,0.000000,1.000000,0.000000,0.000000,0.000000,0.000000,1.561276,14.532370,0.838828
1650625325.407075,2705.000000,1650625325.406823,0.000000,0.000000,1.000000,0.000000,0.000000,0.000000,0.000000,1.554793,14.534644,0.864883
1650625325.507024,2706.000000,1650625325.506774,0.000000,0.000000,1.000000,0.000000,0.000000,0.000000,0.000000,1.548797,14.536766,0.886545
1650625325.606960,2707.000000,1650625325.606725,0.000000,0.000000,1.000000,0.000000,0.000000,0.000000,0.000000,1.541094,14.538741,0.913634
1650625325.706966,2708.000000,1650625325.706787,0.000000,0.000000,1.000000,0.000000,0.000000,0.000000,0.000000,1.536153,14.539480,0.946700
1650625325.806982,2709.000000,1650625325.806780,0.000000,0.000000,1.000000,0.000000,0.000000,0.000000,0.000000,1.525106,14.542323,0.962873
1650625325.906993,2710.000000,1650625325.906765,0.000000,0.000000,1.000000,0.000000,0.000000,0.000000,0.000000,1.518126,14.543877,0.987816
1650625326.006958,2711.000000,1650625326.006760,0.000000,0.000000,1.000000,0.000000,0.000000,0.000000,0.000000,1.511729,14.545300,1.012273
1650625326.107428,2712.000000,1650625326.107183,0.000000,0.000000,1.000000,0.000000,0.000000,0.000000,0.000000,1.500442,14.546597,1.031396
1650625326.207002,2713.000000,1650625326.206767,0.000000,0.000000,1.000000,0.000000,0.000000,0.000000,0.000000,1.493276,14.547774,1.042961
1650625326.307088,2714.000000,1650625326.306779,0.000000,0.000000,1.000000,0.000000,0.000000,0.000000,0.000000,1.483473,14.549927,1.052912
1650625326.407003,2715.000000,1650625326.406757,0.000000,0.000000,1.000000,0.000000,0.000000,0.000000,0.000000,1.471195,14.551909,1.072603
1650625326.506967,2716.000000,1650625326.506749,0.000000,0.000000,1.000000,0.000000,0.000000,0.000000,0.000000,1.468594,14.552636,1.100815
1650625326.606980,2717.000000,1650625326.606759,0.000000,0.000000,1.000000,0.000000,0.000000,0.000000,0.000000,1.482767,14.548905,1.069430
1650625326.706969,2718.000000,1650625326.706762,0.000000,0.000000,1.000000,0.000000,0.000000,0.000000,0.000000,1.489841,14.547516,1.043017
1650625326.806931,2719.000000,1650625326.806766,0.000000,0.000000,1.000000,0.000000,0.000000,0.000000,0.000000,1.497802,14.546169,1.030305
1650625326.907308,2720.000000,1650625326.906982,0.000000,0.000000,1.000000,0.000000,0.000000,0.000000,0.000000,1.504385,14.544867,1.021098
1650625327.007064,2721.000000,1650625327.006843,0.000000,0.000000,1.000000,0.000000,0.000000,0.000000,0.000000,1.504183,14.544704,1.012052
1650625327.107008,2722.000000,1650625327.106799,0.000000,0.000000,1.000000,0.000000,0.000000,0.000000,0.000000,1.501922,14.544529,1.005607
1650625327.206990,2723.000000,1650625327.206784,0.000000,0.000000,1.000000,0.000000,0.000000,0.000000,0.000000,1.499896,14.544345,1.008933
1650625327.307015,2724.000000,1650625327.306791,0.000000,0.000000,1.000000,0.000000,0.000000,0.000000,0.000000,1.492639,14.545243,1.011960
1650625327.406964,2725.000000,1650625327.406789,0.000000,0.000000,1.000000,0.000000,0.000000,0.000000,0.000000,1.485905,14.544984,1.025186
1650625327.506993,2726.000000,1650625327.506786,0.000000,0.000000,1.000000,0.000000,0.000000,0.000000,0.000000,1.481860,14.544721,1.037702
1650625327.607023,2727.000000,1650625327.606789,0.000000,0.000000,1.000000,0.000000,0.000000,0.000000,0.000000,1.477092,14.544457,1.041456
1650625327.707382,2728.000000,1650625327.706973,0.000000,0.000000,1.000000,0.000000,0.000000,0.000000,0.000000,1.473826,14.545285,1.049707
1650625327.807007,2729.000000,1650625327.806795,0.000000,0.000000,1.000000,0.000000,0.000000,0.000000,0.000000,1.466530,14.546051,1.052591
1650625327.906959,2730.000000,1650625327.906785,0.000000,0.000000,1.000000,0.000000,0.000000,0.000000,0.000000,1.458710,14.546759,1.061617
1650625328.007009,2731.000000,1650625328.006791,0.000000,0.000000,1.000000,0.000000,0.000000,0.000000,0.000000,1.454770,14.547410,1.078144
1650625328.106982,2732.000000,1650625328.106775,0.000000,0.000000,1.000000,0.000000,0.000000,0.000000,0.000000,1.454501,14.546917,1.101850
1650625328.206956,2733.000000,1650625328.206763,0.000000,0.000000,1.000000,0.000000,0.000000,0.000000,0.000000,1.453331,14.548614,1.129188
1650625328.307282,2734.000000,1650625328.307088,0.000000,0.000000,1.000000,0.000000,0.000000,0.000000,0.000000,1.453484,14.551288,1.162396
1650625328.406992,2735.000000,1650625328.406790,0.000000,0.000000,1.000000,0.000000,0.000000,0.000000,0.000000,1.452697,14.552698,1.188290
1650625328.507255,2736.000000,1650625328.507085,0.000000,0.000000,1.000000,0.000000,0.000000,0.000000,0.000000,1.458647,14.551819,1.216005
1650625328.607019,2737.000000,1650625328.606810,0.000000,0.000000,1.000000,0.000000,0.000000,0.000000,0.000000,1.465487,14.552053,1.240597
1650625328.707020,2738.000000,1650625328.706793,0.000000,0.000000,1.000000,0.000000,0.000000,0.000000,0.000000,1.464418,14.553338,1.248458
1650625328.807036,2739.000000,1650625328.806823,0.000000,0.000000,1.000000,0.000000,0.000000,0.000000,0.000000,1.471133,14.554525,1.261233
1650625328.906970,2740.000000,1650625328.906786,0.000000,0.000000,1.000000,0.000000,0.000000,0.000000,0.000000,1.478640,14.551255,1.280334
1650625329.006933,2741.000000,1650625329.006729,0.000000,0.000000,1.000000,0.000000,0.000000,0.000000,0.000000,1.481416,14.549236,1.282910
1650625329.107012,2742.000000,1650625329.106769,0.000000,0.000000,1.000000,0.000000,0.000000,0.000000,0.000000,1.478617,14.548406,1.280931
1650625329.206969,2743.000000,1650625329.206730,0.000000,0.000000,1.000000,0.000000,0.000000,0.000000,0.000000,1.478187,14.547614,1.281053
1650625329.307324,2744.000000,1650625329.307105,0.000000,0.000000,1.000000,0.000000,0.000000,0.000000,0.000000,1.479996,14.546860,1.284821
1650625329.406967,2745.000000,1650625329.406771,0.000000,0.000000,1.000000,0.000000,0.000000,0.000000,0.000000,1.482824,14.546146,1.292097
1650625329.506922,2746.000000,1650625329.506756,0.000000,0.000000,1.000000,0.000000,0.000000,0.000000,0.000000,1.478972,14.545470,1.293873
1650625329.606923,2747.000000,1650625329.606754,0.000000,0.000000,1.000000,0.000000,0.000000,0.000000,0.000000,1.480810,14.544834,1.296835
1650625329.706921,2748.000000,1650625329.706762,0.000000,0.000000,1.000000,0.000000,0.000000,0.000000,0.000000,1.474935,14.544237,1.296912
1650625329.806912,2749.000000,1650625329.806755,0.000000,0.000000,1.000000,0.000000,0.000000,0.000000,0.000000,1.470509,14.543678,1.296654
1650625329.906945,2750.000000,1650625329.906788,0.000000,0.000000,1.000000,0.000000,0.000000,0.000000,0.000000,1.470735,14.543157,1.299315
1650625330.006906,2751.000000,1650625330.006750,0.000000,0.000000,1.000000,0.000000,0.000000,0.000000,0.000000,1.470994,14.542673,1.291883
1650625330.107278,2752.000000,1650625330.106976,0.000000,0.000000,1.000000,0.000000,0.000000,0.000000,0.000000,1.469102,14.543315,1.282854
1650625330.206955,2753.000000,1650625330.206765,0.000000,0.000000,1.000000,0.000000,0.000000,0.000000,0.000000,1.469539,14.543929,1.278773
1650625330.307034,2754.000000,1650625330.306793,0.000000,0.000000,1.000000,0.000000,0.000000,0.000000,0.000000,1.472175,14.543425,1.281070
1650625330.407005,2755.000000,1650625330.406786,0.000000,0.000000,1.000000,0.000000,0.000000,0.000000,0.000000,1.469246,14.545134,1.272558
1650625330.506953,2756.000000,1650625330.506774,0.000000,0.000000,1.000000,0.000000,0.000000,0.000000,0.000000,1.468697,14.545660,1.267408
1650625330.607068,2757.000000,1650625330.606810,0.000000,0.000000,1.000000,0.000000,0.000000,0.000000,0.000000,1.468216,14.546156,1.266307
1650625330.706981,2758.000000,1650625330.706770,0.000000,0.000000,1.000000,0.000000,0.000000,0.000000,0.000000,1.467798,14.546622,1.249747
1650625330.806980,2759.000000,1650625330.806729,0.000000,0.000000,1.000000,0.000000,0.000000,0.000000,0.000000,1.466350,14.545969,1.245001
1650625330.907274,2760.000000,1650625330.907037,0.000000,0.000000,1.000000,0.000000,0.000000,0.000000,0.000000,1.462839,14.546439,1.240315
1650625331.007042,2761.000000,1650625331.006810,0.000000,0.000000,1.000000,0.000000,0.000000,0.000000,0.000000,1.461747,14.545790,1.238927
1650625331.107012,2762.000000,1650625331.106750,0.000000,0.000000,1.000000,0.000000,0.000000,0.000000,0.000000,1.461854,14.545176,1.238291
1650625331.207039,2763.000000,1650625331.206754,0.000000,0.000000,1.000000,0.000000,0.000000,0.000000,0.000000,1.460910,14.544595,1.234352
1650625331.307036,2764.000000,1650625331.306802,0.000000,0.000000,1.000000,0.000000,0.000000,0.000000,0.000000,1.465516,14.542959,1.236929
1650625331.406932,2765.000000,1650625331.406754,0.000000,0.000000,1.000000,0.000000,0.000000,0.000000,0.000000,1.467718,14.543601,1.230438
1650625331.507169,2766.000000,1650625331.506943,0.000000,0.000000,1.000000,0.000000,0.000000,0.000000,0.000000,1.475272,14.543122,1.233001
1650625331.606959,2767.000000,1650625331.606777,0.000000,0.000000,1.000000,0.000000,0.000000,0.000000,0.000000,1.484591,14.543766,1.226510
1650625331.707268,2768.000000,1650625331.707059,0.000000,0.000000,1.000000,0.000000,0.000000,0.000000,0.000000,1.496639,14.543289,1.231505
1650625331.806947,2769.000000,1650625331.806771,0.000000,0.000000,1.000000,0.000000,0.000000,0.000000,0.000000,1.500329,14.542843,1.228970
1650625331.906975,2770.000000,1650625331.906716,0.000000,0.000000,1.000000,0.000000,0.000000,0.000000,0.000000,1.501559,14.544609,1.213571
1650625332.007032,2771.000000,1650625332.006776,0.000000,0.000000,1.000000,0.000000,0.000000,0.000000,0.000000,1.504826,14.546279,1.203596
1650625332.106964,2772.000000,1650625332.106778,0.000000,0.000000,1.000000,0.000000,0.000000,0.000000,0.000000,1.504561,14.547853,1.206909
1650625332.207036,2773.000000,1650625332.206808,0.000000,0.000000,1.000000,0.000000,0.000000,0.000000,0.000000,1.502052,14.549333,1.204422
1650625332.307034,2774.000000,1650625332.306777,0.000000,0.000000,1.000000,0.000000,0.000000,0.000000,0.000000,1.506158,14.548537,1.208471
1650625332.407034,2775.000000,1650625332.406784,0.000000,0.000000,1.000000,0.000000,0.000000,0.000000,0.000000,1.512147,14.547774,1.217173
1650625332.507354,2776.000000,1650625332.507136,0.000000,0.000000,1.000000,0.000000,0.000000,0.000000,0.000000,1.511178,14.548136,1.218229
1650625332.606994,2777.000000,1650625332.606764,0.000000,0.000000,1.000000,0.000000,0.000000,0.000000,0.000000,1.508002,14.548470,1.220820
1650625332.707015,2778.000000,1650625332.706796,0.000000,0.000000,1.000000,0.000000,0.000000,0.000000,0.000000,1.504932,14.548777,1.222460
1650625332.806962,2779.000000,1650625332.806792,0.000000,0.000000,1.000000,0.000000,0.000000,0.000000,0.000000,1.499797,14.549059,1.208670
1650625332.907023,2780.000000,1650625332.906816,0.000000,0.000000,1.000000,0.000000,0.000000,0.000000,0.000000,1.513444,14.546044,1.142195
1650625333.007103,2781.000000,1650625333.006777,0.000000,0.000000,1.000000,0.000000,0.000000,0.000000,0.000000,1.526275,14.543195,1.101884
1650625333.107030,2782.000000,1650625333.106766,0.000000,0.000000,1.000000,0.000000,0.000000,0.000000,0.000000,1.540476,14.539419,1.017392
1650625333.207017,2783.000000,1650625333.206747,0.000000,0.000000,1.000000,0.000000,0.000000,0.000000,0.000000,1.553756,14.536961,0.961604
1650625333.307622,2784.000000,1650625333.307392,0.000000,0.000000,1.000000,0.000000,0.000000,0.000000,0.000000,1.559588,14.535754,0.911672
1650625333.406974,2785.000000,1650625333.406787,0.000000,0.000000,1.000000,0.000000,0.000000,0.000000,0.000000,1.562731,14.535733,0.873071
1650625333.507034,2786.000000,1650625333.506776,0.000000,0.000000,1.000000,0.000000,0.000000,0.000000,0.000000,1.564425,14.535742,0.854265
1650625333.606958,2787.000000,1650625333.606781,0.000000,0.000000,1.000000,0.000000,0.000000,0.000000,0.000000,1.562571,14.535776,0.851239
1650625333.706940,2788.000000,1650625333.706761,0.000000,0.000000,1.000000,0.000000,0.000000,0.000000,0.000000,1.557381,14.535833,0.848020
1650625333.806991,2789.000000,1650625333.806764,0.000000,0.000000,1.000000,0.000000,0.000000,0.000000,0.000000,1.549062,14.537000,0.827664
1650625333.906976,2790.000000,1650625333.906764,0.000000,0.000000,1.000000,0.000000,0.000000,0.000000,0.000000,1.537818,14.539212,0.828780
1650625334.006939,2791.000000,1650625334.006763,0.000000,0.000000,1.000000,0.000000,0.000000,0.000000,0.000000,1.532573,14.541314,0.831125
1650625334.107137,2792.000000,1650625334.106793,0.000000,0.000000,1.000000,0.000000,0.000000,0.000000,0.000000,1.528660,14.542214,0.833014
1650625334.207015,2793.000000,1650625334.206755,0.000000,0.000000,1.000000,0.000000,0.000000,0.000000,0.000000,1.523840,14.544155,0.832828
1650625334.306944,2794.000000,1650625334.306755,0.000000,0.000000,1.000000,0.000000,0.000000,0.000000,0.000000,1.519270,14.544894,0.838700
1650625334.406967,2795.000000,1650625334.406737,0.000000,0.000000,1.000000,0.000000,0.000000,0.000000,0.000000,1.517132,14.544494,0.850359
1650625334.506993,2796.000000,1650625334.506810,0.000000,0.000000,1.000000,0.000000,0.000000,0.000000,0.000000,1.509667,14.545200,0.865115
1650625334.606990,2797.000000,1650625334.606776,0.000000,0.000000,1.000000,0.000000,0.000000,0.000000,0.000000,1.501550,14.545859,0.882805
1650625334.706971,2798.000000,1650625334.706721,0.000000,0.000000,1.000000,0.000000,0.000000,0.000000,0.000000,1.493931,14.546472,0.904074
1650625334.806931,2799.000000,1650625334.806719,0.000000,0.000000,1.000000,0.000000,0.000000,0.000000,0.000000,1.491165,14.545950,0.929538
1650625334.907322,2800.000000,1650625334.906914,0.000000,0.000000,1.000000,0.000000,0.000000,0.000000,0.000000,1.484268,14.546538,0.936394
1650625335.006998,2801.000000,1650625335.006728,0.000000,0.000000,1.000000,0.000000,0.000000,0.000000,0.000000,1.482207,14.545993,0.951988
1650625335.106956,2802.000000,1650625335.106763,0.000000,0.000000,1.000000,0.000000,0.000000,0.000000,0.000000,1.481447,14.545470,0.973514
1650625335.206959,2803.000000,1650625335.206756,0.000000,0.000000,1.000000,0.000000,0.000000,0.000000,0.000000,1.481914,14.544970,0.996661
1650625335.306965,2804.000000,1650625335.306768,0.000000,0.000000,1.000000,0.000000,0.000000,0.000000,0.000000,1.486805,14.545583,1.020515
1650625335.406654,2805.000000,1650625335.406465,0.000000,0.000000,1.000000,0.000000,0.000000,0.000000,0.000000,1.483865,14.547248,1.050651
1650625335.506669,2806.000000,1650625335.506513,0.000000,0.000000,1.000000,0.000000,0.000000,0.000000,0.000000,1.485520,14.547721,1.077894
1650625335.606673,2807.000000,1650625335.606515,0.000000,0.000000,1.000000,0.000000,0.000000,0.000000,0.000000,1.490420,14.548156,1.103123
1650625335.707015,2808.000000,1650625335.706719,0.000000,0.000000,1.000000,0.000000,0.000000,0.000000,0.000000,1.496188,14.548556,1.115092
1650625335.806669,2809.000000,1650625335.806495,0.000000,0.000000,1.000000,0.000000,0.000000,0.000000,0.000000,1.500575,14.550012,1.119160
1650625335.906693,2810.000000,1650625335.906522,0.000000,0.000000,1.000000,0.000000,0.000000,0.000000,0.000000,1.503642,14.547010,1.125321
1650625336.006697,2811.000000,1650625336.006527,0.000000,0.000000,1.000000,0.000000,0.000000,0.000000,0.000000,1.502178,14.545256,1.136715
1650625336.106731,2812.000000,1650625336.106563,0.000000,0.000000,1.000000,0.000000,0.000000,0.000000,0.000000,1.501888,14.544688,1.141826
1650625336.206604,2813.000000,1650625336.206440,0.000000,0.000000,1.000000,0.000000,0.000000,0.000000,0.000000,1.491804,14.545242,1.154618
1650625336.306762,2814.000000,1650625336.306565,0.000000,0.000000,1.000000,0.000000,0.000000,0.000000,0.000000,1.485576,14.545766,1.170734
1650625336.406709,2815.000000,1650625336.406530,0.000000,0.000000,1.000000,0.000000,0.000000,0.000000,0.000000,1.481921,14.545169,1.185182
1650625336.506778,2816.000000,1650625336.506597,0.000000,0.000000,1.000000,0.000000,0.000000,0.000000,0.000000,1.478527,14.540243,1.208498
1650625336.606741,2817.000000,1650625336.606555,0.000000,0.000000,1.000000,0.000000,0.000000,0.000000,0.000000,1.477567,14.536692,1.229003
1650625336.706683,2818.000000,1650625336.706502,0.000000,0.000000,1.000000,0.000000,0.000000,0.000000,0.000000,1.474546,14.534450,1.249207
1650625336.806678,2819.000000,1650625336.806520,0.000000,0.000000,1.000000,0.000000,0.000000,0.000000,0.000000,1.464130,14.533452,1.262648
1650625336.906643,2820.000000,1650625336.906467,0.000000,0.000000,1.000000,0.000000,0.000000,0.000000,0.000000,1.455474,14.533631,1.261523
1650625337.006675,2821.000000,1650625337.006526,0.000000,0.000000,1.000000,0.000000,0.000000,0.000000,0.000000,1.456136,14.533831,1.261758
1650625337.106592,2822.000000,1650625337.106430,0.000000,0.000000,1.000000,0.000000,0.000000,0.000000,0.000000,1.454695,14.534048,1.263309
1650625337.206685,2823.000000,1650625337.206534,0.000000,0.000000,1.000000,0.000000,0.000000,0.000000,0.000000,1.449083,14.535369,1.262102
1650625337.306798,2824.000000,1650625337.306578,0.000000,0.000000,1.000000,0.000000,0.000000,0.000000,0.000000,1.443900,14.535548,1.270357
1650625337.406676,2825.000000,1650625337.406488,0.000000,0.000000,1.000000,0.000000,0.000000,0.000000,0.000000,1.440222,14.535735,1.278819
1650625337.506727,2826.000000,1650625337.506532,0.000000,0.000000,1.000000,0.000000,0.000000,0.000000,0.000000,1.435790,14.534839,1.289897
1650625337.606719,2827.000000,1650625337.606534,0.000000,0.000000,1.000000,0.000000,0.000000,0.000000,0.000000,1.426291,14.535100,1.292186
1650625337.706582,2828.000000,1650625337.706398,0.000000,0.000000,1.000000,0.000000,0.000000,0.000000,0.000000,1.422924,14.532092,1.300566
1650625337.806616,2829.000000,1650625337.806426,0.000000,0.000000,1.000000,0.000000,0.000000,0.000000,0.000000,1.422088,14.530363,1.304303
1650625337.906677,2830.000000,1650625337.906483,0.000000,0.000000,1.000000,0.000000,0.000000,0.000000,0.000000,1.418184,14.528758,1.312462
1650625338.006630,2831.000000,1650625338.006476,0.000000,0.000000,1.000000,0.000000,0.000000,0.000000,0.000000,1.437552,14.524002,1.267602
