__time,/dwm1001/id_458E/pose_kf/header/seq,/dwm1001/id_458E/pose_kf/header/stamp,/dwm1001/id_458E/pose_kf/pose/orientation/pitch_deg,/dwm1001/id_458E/pose_kf/pose/orientation/roll_deg,/dwm1001/id_458E/pose_kf/pose/orientation/w,/dwm1001/id_458E/pose_kf/pose/orientation/x,/dwm1001/id_458E/pose_kf/pose/orientation/y,/dwm1001/id_458E/pose_kf/pose/orientation/yaw_deg,/dwm1001/id_458E/pose_kf/pose/orientation/z,/dwm1001/id_458E/pose_kf/pose/position/x,/dwm1001/id_458E/pose_kf/pose/position/y,/dwm1001/id_458E/pose_kf/pose/position/z
1649933281.712875,633.000000,1649933281.712746,0.000000,0.000000,1.000000,0.000000,0.000000,0.000000,0.000000,3.398648,2.352958,-0.612670
1649933281.813078,634.000000,1649933281.812804,0.000000,0.000000,1.000000,0.000000,0.000000,0.000000,0.000000,3.399326,2.352625,-0.616362
1649933281.913089,635.000000,1649933281.912902,0.000000,0.000000,1.000000,0.000000,0.000000,0.000000,0.000000,3.399934,2.352312,-0.620677
1649933282.013303,636.000000,1649933282.013092,0.000000,0.000000,1.000000,0.000000,0.000000,0.000000,0.000000,3.399385,2.354199,-0.619939
1649933282.113477,637.000000,1649933282.113299,0.000000,0.000000,1.000000,0.000000,0.000000,0.000000,0.000000,3.399928,2.354889,-0.623224
1649933282.213332,638.000000,1649933282.213137,0.000000,0.000000,1.000000,0.000000,0.000000,0.000000,0.000000,3.399322,2.354446,-0.621497
1649933282.313202,639.000000,1649933282.313039,0.000000,0.000000,1.000000,0.000000,0.000000,0.000000,0.000000,3.398723,2.354024,-0.621416
1649933282.413200,640.000000,1649933282.413058,0.000000,0.000000,1.000000,0.000000,0.000000,0.000000,0.000000,3.397044,2.353622,-0.624528
1649933282.513312,641.000000,1649933282.513161,0.000000,0.000000,1.000000,0.000000,0.000000,0.000000,0.000000,3.395441,2.355422,-0.616991
1649933282.613358,642.000000,1649933282.613219,0.000000,0.000000,1.000000,0.000000,0.000000,0.000000,0.000000,3.393916,2.358207,-0.609734
1649933282.713243,643.000000,1649933282.713085,0.000000,0.000000,1.000000,0.000000,0.000000,0.000000,0.000000,3.393559,2.359736,-0.605176
1649933282.813308,644.000000,1649933282.813177,0.000000,0.000000,1.000000,0.000000,0.000000,0.000000,0.000000,3.392129,2.362253,-0.601606
1649933282.913161,645.000000,1649933282.913030,0.000000,0.000000,1.000000,0.000000,0.000000,0.000000,0.000000,3.391869,2.362427,-0.600602
1649933283.013287,646.000000,1649933283.013144,0.000000,0.000000,1.000000,0.000000,0.000000,0.000000,0.000000,3.391625,2.362566,-0.603676
1649933283.113195,647.000000,1649933283.113008,0.000000,0.000000,1.000000,0.000000,0.000000,0.000000,0.000000,3.391398,2.362674,-0.607431
1649933283.213161,648.000000,1649933283.212989,0.000000,0.000000,1.000000,0.000000,0.000000,0.000000,0.000000,3.391187,2.361663,-0.614253
1649933283.313166,649.000000,1649933283.313028,0.000000,0.000000,1.000000,0.000000,0.000000,0.000000,0.000000,3.389901,2.361779,-0.618363
1649933283.412876,650.000000,1649933283.412758,0.000000,0.000000,1.000000,0.000000,0.000000,0.000000,0.000000,3.389783,2.360781,-0.623089
1649933283.513158,651.000000,1649933283.513018,0.000000,0.000000,1.000000,0.000000,0.000000,0.000000,0.000000,3.389679,2.360914,-0.626786
1649933283.612978,652.000000,1649933283.612846,0.000000,0.000000,1.000000,0.000000,0.000000,0.000000,0.000000,3.388499,2.361027,-0.629491
1649933283.712864,653.000000,1649933283.712731,0.000000,0.000000,1.000000,0.000000,0.000000,0.000000,0.000000,3.387393,2.358941,-0.638499
1649933283.812841,654.000000,1649933283.812681,0.000000,0.000000,1.000000,0.000000,0.000000,0.000000,0.000000,3.386362,2.356963,-0.651124
1649933283.912979,655.000000,1649933283.912786,0.000000,0.000000,1.000000,0.000000,0.000000,0.000000,0.000000,3.384313,2.356184,-0.667199
1649933284.013128,656.000000,1649933284.012993,0.000000,0.000000,1.000000,0.000000,0.000000,0.000000,0.000000,3.382397,2.356541,-0.673659
1649933284.113190,657.000000,1649933284.113019,0.000000,0.000000,1.000000,0.000000,0.000000,0.000000,0.000000,3.381702,2.354701,-0.681367
1649933284.213255,658.000000,1649933284.213071,0.000000,0.000000,1.000000,0.000000,0.000000,0.000000,0.000000,3.382163,2.355149,-0.682202
1649933284.313214,659.000000,1649933284.313043,0.000000,0.000000,1.000000,0.000000,0.000000,0.000000,0.000000,3.382623,2.355580,-0.680474
1649933284.413210,660.000000,1649933284.413065,0.000000,0.000000,1.000000,0.000000,0.000000,0.000000,0.000000,3.384169,2.357081,-0.673876
1649933284.513129,661.000000,1649933284.513008,0.000000,0.000000,1.000000,0.000000,0.000000,0.000000,0.000000,3.385647,2.358500,-0.667458
1649933284.613210,662.000000,1649933284.613020,0.000000,0.000000,1.000000,0.000000,0.000000,0.000000,0.000000,3.387053,2.358746,-0.660420
1649933284.712945,663.000000,1649933284.712765,0.000000,0.000000,1.000000,0.000000,0.000000,0.000000,0.000000,3.387298,2.358974,-0.651997
1649933284.812978,664.000000,1649933284.812844,0.000000,0.000000,1.000000,0.000000,0.000000,0.000000,0.000000,3.387533,2.359182,-0.651938
1649933284.912904,665.000000,1649933284.912776,0.000000,0.000000,1.000000,0.000000,0.000000,0.000000,0.000000,3.387757,2.359374,-0.649424
1649933285.013031,666.000000,1649933285.012861,0.000000,0.000000,1.000000,0.000000,0.000000,0.000000,0.000000,3.389062,2.359548,-0.647786
1649933285.112849,667.000000,1649933285.112680,0.000000,0.000000,1.000000,0.000000,0.000000,0.000000,0.000000,3.390293,2.359706,-0.642959
1649933285.212878,668.000000,1649933285.212757,0.000000,0.000000,1.000000,0.000000,0.000000,0.000000,0.000000,3.390361,2.358759,-0.639115
1649933285.312907,669.000000,1649933285.312761,0.000000,0.000000,1.000000,0.000000,0.000000,0.000000,0.000000,3.390419,2.357860,-0.638640
1649933285.413057,670.000000,1649933285.412843,0.000000,0.000000,1.000000,0.000000,0.000000,0.000000,0.000000,3.390468,2.357009,-0.637368
1649933285.512944,671.000000,1649933285.512820,0.000000,0.000000,1.000000,0.000000,0.000000,0.000000,0.000000,3.390509,2.356207,-0.630494
1649933285.612808,672.000000,1649933285.612649,0.000000,0.000000,1.000000,0.000000,0.000000,0.000000,0.000000,3.391632,2.355453,-0.626321
1649933285.713040,673.000000,1649933285.712913,0.000000,0.000000,1.000000,0.000000,0.000000,0.000000,0.000000,3.391596,2.355838,-0.619908
1649933285.812926,674.000000,1649933285.812782,0.000000,0.000000,1.000000,0.000000,0.000000,0.000000,0.000000,3.390462,2.354026,-0.619421
1649933285.913268,675.000000,1649933285.913088,0.000000,0.000000,1.000000,0.000000,0.000000,0.000000,0.000000,3.389387,2.353413,-0.617362
1649933286.013208,676.000000,1649933286.013077,0.000000,0.000000,1.000000,0.000000,0.000000,0.000000,0.000000,3.390551,2.352846,-0.617829
1649933286.113271,677.000000,1649933286.113080,0.000000,0.000000,1.000000,0.000000,0.000000,0.000000,0.000000,3.389466,2.353414,-0.610236
1649933286.213918,678.000000,1649933286.213708,0.000000,0.000000,1.000000,0.000000,0.000000,0.000000,0.000000,3.389530,2.353961,-0.603789
1649933286.313202,679.000000,1649933286.313055,0.000000,0.000000,1.000000,0.000000,0.000000,0.000000,0.000000,3.389591,2.354486,-0.600066
1649933286.413096,680.000000,1649933286.412991,0.000000,0.000000,1.000000,0.000000,0.000000,0.000000,0.000000,3.389647,2.353898,-0.598153
1649933286.513475,681.000000,1649933286.513315,0.000000,0.000000,1.000000,0.000000,0.000000,0.000000,0.000000,3.390790,2.354440,-0.592335
1649933286.613240,682.000000,1649933286.613046,0.000000,0.000000,1.000000,0.000000,0.000000,0.000000,0.000000,3.391866,2.354959,-0.590841
1649933286.713175,683.000000,1649933286.713037,0.000000,0.000000,1.000000,0.000000,0.000000,0.000000,0.000000,3.392876,2.354362,-0.595110
1649933286.813213,684.000000,1649933286.813055,0.000000,0.000000,1.000000,0.000000,0.000000,0.000000,0.000000,3.392730,2.353802,-0.598448
1649933286.913231,685.000000,1649933286.913105,0.000000,0.000000,1.000000,0.000000,0.000000,0.000000,0.000000,3.392584,2.354370,-0.599272
1649933287.014135,686.000000,1649933287.013831,0.000000,0.000000,1.000000,0.000000,0.000000,0.000000,0.000000,3.391346,2.356002,-0.594455
1649933287.113038,687.000000,1649933287.112729,0.000000,0.000000,1.000000,0.000000,0.000000,0.000000,0.000000,3.390172,2.357544,-0.582618
1649933287.212857,688.000000,1649933287.212703,0.000000,0.000000,1.000000,0.000000,0.000000,0.000000,0.000000,3.389062,2.357906,-0.575352
1649933287.312821,689.000000,1649933287.312707,0.000000,0.000000,1.000000,0.000000,0.000000,0.000000,0.000000,3.388016,2.359332,-0.558773
1649933287.412916,690.000000,1649933287.412777,0.000000,0.000000,1.000000,0.000000,0.000000,0.000000,0.000000,3.385943,2.359579,-0.550216
1649933287.512826,691.000000,1649933287.512694,0.000000,0.000000,1.000000,0.000000,0.000000,0.000000,0.000000,3.385086,2.359802,-0.544531
1649933287.612964,692.000000,1649933287.612812,0.000000,0.000000,1.000000,0.000000,0.000000,0.000000,0.000000,3.384291,2.360002,-0.538382
1649933287.712842,693.000000,1649933287.712702,0.000000,0.000000,1.000000,0.000000,0.000000,0.000000,0.000000,3.384646,2.360180,-0.535823
1649933287.813203,694.000000,1649933287.812803,0.000000,0.000000,1.000000,0.000000,0.000000,0.000000,0.000000,3.384996,2.359248,-0.540744
1649933287.912912,695.000000,1649933287.912742,0.000000,0.000000,1.000000,0.000000,0.000000,0.000000,0.000000,3.384248,2.359449,-0.537505
1649933288.012900,696.000000,1649933288.012766,0.000000,0.000000,1.000000,0.000000,0.000000,0.000000,0.000000,3.382465,2.358541,-0.536922
1649933288.112883,697.000000,1649933288.112766,0.000000,0.000000,1.000000,0.000000,0.000000,0.000000,0.000000,3.380799,2.356588,-0.538077
1649933288.213084,698.000000,1649933288.212889,0.000000,0.000000,1.000000,0.000000,0.000000,0.000000,0.000000,3.379245,2.355834,-0.537668
1649933288.312990,699.000000,1649933288.312854,0.000000,0.000000,1.000000,0.000000,0.000000,0.000000,0.000000,3.377804,2.354035,-0.534948
1649933288.412906,700.000000,1649933288.412773,0.000000,0.000000,1.000000,0.000000,0.000000,0.000000,0.000000,3.376470,2.353434,-0.533237
1649933288.513143,701.000000,1649933288.512944,0.000000,0.000000,1.000000,0.000000,0.000000,0.000000,0.000000,3.375241,2.352878,-0.536526
1649933288.613305,702.000000,1649933288.613096,0.000000,0.000000,1.000000,0.000000,0.000000,0.000000,0.000000,3.374113,2.351273,-0.544603
1649933288.713388,703.000000,1649933288.713265,0.000000,0.000000,1.000000,0.000000,0.000000,0.000000,0.000000,3.373082,2.349773,-0.550808
1649933288.812810,704.000000,1649933288.812682,0.000000,0.000000,1.000000,0.000000,0.000000,0.000000,0.000000,3.372144,2.350555,-0.556814
1649933288.912857,705.000000,1649933288.912747,0.000000,0.000000,1.000000,0.000000,0.000000,0.000000,0.000000,3.371295,2.351311,-0.561812
1649933289.012837,706.000000,1649933289.012704,0.000000,0.000000,1.000000,0.000000,0.000000,0.000000,0.000000,3.370530,2.353130,-0.564218
1649933289.113088,707.000000,1649933289.112960,0.000000,0.000000,1.000000,0.000000,0.000000,0.000000,0.000000,3.370936,2.354857,-0.564132
1649933289.213246,708.000000,1649933289.213100,0.000000,0.000000,1.000000,0.000000,0.000000,0.000000,0.000000,3.371354,2.356491,-0.560041
1649933289.313243,709.000000,1649933289.313068,0.000000,0.000000,1.000000,0.000000,0.000000,0.000000,0.000000,3.372872,2.356941,-0.558563
1649933289.413327,710.000000,1649933289.413088,0.000000,0.000000,1.000000,0.000000,0.000000,0.000000,0.000000,3.374332,2.357362,-0.550724
1649933289.513216,711.000000,1649933289.513045,0.000000,0.000000,1.000000,0.000000,0.000000,0.000000,0.000000,3.374641,2.356663,-0.552921
1649933289.613370,712.000000,1649933289.613225,0.000000,0.000000,1.000000,0.000000,0.000000,0.000000,0.000000,3.376040,2.355998,-0.552647
1649933289.713032,713.000000,1649933289.712891,0.000000,0.000000,1.000000,0.000000,0.000000,0.000000,0.000000,3.376285,2.356458,-0.552420
1649933289.812889,714.000000,1649933289.812740,0.000000,0.000000,1.000000,0.000000,0.000000,0.000000,0.000000,3.375435,2.357981,-0.552237
1649933289.912917,715.000000,1649933289.912745,0.000000,0.000000,1.000000,0.000000,0.000000,0.000000,0.000000,3.374644,2.359413,-0.553708
1649933290.012920,716.000000,1649933290.012773,0.000000,0.000000,1.000000,0.000000,0.000000,0.000000,0.000000,3.372820,2.359666,-0.557569
1649933290.113055,717.000000,1649933290.112904,0.000000,0.000000,1.000000,0.000000,0.000000,0.000000,0.000000,3.372204,2.359893,-0.562103
1649933290.212899,718.000000,1649933290.212752,0.000000,0.000000,1.000000,0.000000,0.000000,0.000000,0.000000,3.371642,2.357915,-0.568886
1649933290.312942,719.000000,1649933290.312765,0.000000,0.000000,1.000000,0.000000,0.000000,0.000000,0.000000,3.371130,2.357130,-0.572978
1649933290.413108,720.000000,1649933290.412952,0.000000,0.000000,1.000000,0.000000,0.000000,0.000000,0.000000,3.370668,2.356386,-0.577707
1649933290.512968,721.000000,1649933290.512824,0.000000,0.000000,1.000000,0.000000,0.000000,0.000000,0.000000,3.370251,2.355684,-0.582231
1649933290.612893,722.000000,1649933290.612761,0.000000,0.000000,1.000000,0.000000,0.000000,0.000000,0.000000,3.368788,2.355021,-0.588971
1649933290.713112,723.000000,1649933290.712891,0.000000,0.000000,1.000000,0.000000,0.000000,0.000000,0.000000,3.367429,2.355490,-0.594602
1649933290.813243,724.000000,1649933290.813051,0.000000,0.000000,1.000000,0.000000,0.000000,0.000000,0.000000,3.366172,2.354846,-0.600774
1649933290.913150,725.000000,1649933290.912996,0.000000,0.000000,1.000000,0.000000,0.000000,0.000000,0.000000,3.366103,2.354242,-0.605035
1649933291.012961,726.000000,1649933291.012790,0.000000,0.000000,1.000000,0.000000,0.000000,0.000000,0.000000,3.367157,2.352586,-0.609072
1649933291.112994,727.000000,1649933291.112801,0.000000,0.000000,1.000000,0.000000,0.000000,0.000000,0.000000,3.367086,2.353213,-0.604823
1649933291.212929,728.000000,1649933291.212778,0.000000,0.000000,1.000000,0.000000,0.000000,0.000000,0.000000,3.367041,2.353813,-0.606342
1649933291.312886,729.000000,1649933291.312768,0.000000,0.000000,1.000000,0.000000,0.000000,0.000000,0.000000,3.368110,2.353297,-0.609364
1649933291.412856,730.000000,1649933291.412747,0.000000,0.000000,1.000000,0.000000,0.000000,0.000000,0.000000,3.368047,2.353907,-0.604954
1649933291.513306,731.000000,1649933291.513160,0.000000,0.000000,1.000000,0.000000,0.000000,0.000000,0.000000,3.366913,2.355579,-0.601486
1649933291.612931,732.000000,1649933291.612741,0.000000,0.000000,1.000000,0.000000,0.000000,0.000000,0.000000,3.366949,2.357160,-0.598930
1649933291.713051,733.000000,1649933291.712880,0.000000,0.000000,1.000000,0.000000,0.000000,0.000000,0.000000,3.367001,2.357558,-0.602900
1649933291.813346,734.000000,1649933291.813215,0.000000,0.000000,1.000000,0.000000,0.000000,0.000000,0.000000,3.368156,2.357929,-0.602642
1649933291.912922,735.000000,1649933291.912781,0.000000,0.000000,1.000000,0.000000,0.000000,0.000000,0.000000,3.369260,2.358272,-0.602363
1649933292.013047,736.000000,1649933292.012918,0.000000,0.000000,1.000000,0.000000,0.000000,0.000000,0.000000,3.369220,2.357498,-0.605290
1649933292.113217,737.000000,1649933292.113044,0.000000,0.000000,1.000000,0.000000,0.000000,0.000000,0.000000,3.369190,2.356761,-0.609678
1649933292.213273,738.000000,1649933292.213093,0.000000,0.000000,1.000000,0.000000,0.000000,0.000000,0.000000,3.369168,2.356062,-0.612236
1649933292.313070,739.000000,1649933292.312916,0.000000,0.000000,1.000000,0.000000,0.000000,0.000000,0.000000,3.369154,2.355402,-0.608196
1649933292.413268,740.000000,1649933292.413107,0.000000,0.000000,1.000000,0.000000,0.000000,0.000000,0.000000,3.369147,2.354779,-0.609123
1649933292.512972,741.000000,1649933292.512800,0.000000,0.000000,1.000000,0.000000,0.000000,0.000000,0.000000,3.369146,2.354194,-0.610785
1649933292.612942,742.000000,1649933292.612764,0.000000,0.000000,1.000000,0.000000,0.000000,0.000000,0.000000,3.369150,2.355827,-0.605893
1649933292.713158,743.000000,1649933292.712971,0.000000,0.000000,1.000000,0.000000,0.000000,0.000000,0.000000,3.370250,2.358462,-0.601171
1649933292.813182,744.000000,1649933292.813047,0.000000,0.000000,1.000000,0.000000,0.000000,0.000000,0.000000,3.372381,2.358764,-0.598236
1649933292.913334,745.000000,1649933292.913210,0.000000,0.000000,1.000000,0.000000,0.000000,0.000000,0.000000,3.373301,2.360132,-0.592989
1649933293.013124,746.000000,1649933293.012975,0.000000,0.000000,1.000000,0.000000,0.000000,0.000000,0.000000,3.374162,2.360322,-0.596822
1649933293.112918,747.000000,1649933293.112762,0.000000,0.000000,1.000000,0.000000,0.000000,0.000000,0.000000,3.374966,2.360489,-0.601299
1649933293.212834,748.000000,1649933293.212723,0.000000,0.000000,1.000000,0.000000,0.000000,0.000000,0.000000,3.373534,2.361725,-0.602355
1649933293.312876,749.000000,1649933293.312753,0.000000,0.000000,1.000000,0.000000,0.000000,0.000000,0.000000,3.373263,2.362879,-0.602544
1649933293.412934,750.000000,1649933293.412818,0.000000,0.000000,1.000000,0.000000,0.000000,0.000000,0.000000,3.374091,2.362861,-0.605129
1649933293.512983,751.000000,1649933293.512849,0.000000,0.000000,1.000000,0.000000,0.000000,0.000000,0.000000,3.374866,2.361737,-0.606784
1649933293.612832,752.000000,1649933293.612708,0.000000,0.000000,1.000000,0.000000,0.000000,0.000000,0.000000,3.391945,2.361752,-0.567220
1649933293.712853,753.000000,1649933293.712724,0.000000,0.000000,1.000000,0.000000,0.000000,0.000000,0.000000,3.402578,2.361754,-0.543007
1649933293.812849,754.000000,1649933293.812717,0.000000,0.000000,1.000000,0.000000,0.000000,0.000000,0.000000,3.410358,2.362835,-0.526307
1649933293.912953,755.000000,1649933293.912820,0.000000,0.000000,1.000000,0.000000,0.000000,0.000000,0.000000,3.415422,2.362754,-0.514422
1649933294.013067,756.000000,1649933294.012911,0.000000,0.000000,1.000000,0.000000,0.000000,0.000000,0.000000,3.417907,2.363754,-0.508787
1649933294.113270,757.000000,1649933294.113090,0.000000,0.000000,1.000000,0.000000,0.000000,0.000000,0.000000,3.420135,2.364684,-0.503508
1649933294.213351,758.000000,1649933294.213168,0.000000,0.000000,1.000000,0.000000,0.000000,0.000000,0.000000,3.419938,2.364456,-0.502608
1649933294.312979,759.000000,1649933294.312834,0.000000,0.000000,1.000000,0.000000,0.000000,0.000000,0.000000,3.419637,2.365315,-0.502680
1649933294.412839,760.000000,1649933294.412701,0.000000,0.000000,1.000000,0.000000,0.000000,0.000000,0.000000,3.419245,2.366110,-0.501259
1649933294.512843,761.000000,1649933294.512705,0.000000,0.000000,1.000000,0.000000,0.000000,0.000000,0.000000,3.418775,2.366843,-0.500017
1649933294.613001,762.000000,1649933294.612832,0.000000,0.000000,1.000000,0.000000,0.000000,0.000000,0.000000,3.418238,2.367516,-0.496523
1649933294.713075,763.000000,1649933294.712900,0.000000,0.000000,1.000000,0.000000,0.000000,0.000000,0.000000,3.416554,2.368131,-0.495708
1649933294.813039,764.000000,1649933294.812895,0.000000,0.000000,1.000000,0.000000,0.000000,0.000000,0.000000,3.413797,2.367600,-0.499074
1649933294.913131,765.000000,1649933294.912998,0.000000,0.000000,1.000000,0.000000,0.000000,0.000000,0.000000,3.412218,2.364899,-0.506441
1649933295.013398,766.000000,1649933295.013105,0.000000,0.000000,1.000000,0.000000,0.000000,0.000000,0.000000,3.409580,2.364516,-0.511179
1649933295.112934,767.000000,1649933295.112795,0.000000,0.000000,1.000000,0.000000,0.000000,0.000000,0.000000,3.408135,2.364147,-0.512577
1649933295.212878,768.000000,1649933295.212778,0.000000,0.000000,1.000000,0.000000,0.000000,0.000000,0.000000,3.407824,2.363791,-0.513988
1649933295.313037,769.000000,1649933295.312885,0.000000,0.000000,1.000000,0.000000,0.000000,0.000000,0.000000,3.407497,2.361270,-0.521860
1649933295.412945,770.000000,1649933295.412775,0.000000,0.000000,1.000000,0.000000,0.000000,0.000000,0.000000,3.406068,2.358890,-0.530270
1649933295.512974,771.000000,1649933295.512839,0.000000,0.000000,1.000000,0.000000,0.000000,0.000000,0.000000,3.405785,2.356651,-0.538374
1649933295.613041,772.000000,1649933295.612920,0.000000,0.000000,1.000000,0.000000,0.000000,0.000000,0.000000,3.405495,2.354551,-0.548587
1649933295.713152,773.000000,1649933295.713006,0.000000,0.000000,1.000000,0.000000,0.000000,0.000000,0.000000,3.404113,2.352588,-0.560809
1649933295.813177,774.000000,1649933295.812921,0.000000,0.000000,1.000000,0.000000,0.000000,0.000000,0.000000,3.402792,2.350760,-0.570097
1649933295.912908,775.000000,1649933295.912739,0.000000,0.000000,1.000000,0.000000,0.000000,0.000000,0.000000,3.401535,2.347974,-0.582200
1649933296.012947,776.000000,1649933296.012806,0.000000,0.000000,1.000000,0.000000,0.000000,0.000000,0.000000,3.400343,2.347559,-0.586503
1649933296.112990,777.000000,1649933296.112875,0.000000,0.000000,1.000000,0.000000,0.000000,0.000000,0.000000,3.398125,2.347204,-0.592992
1649933296.212903,778.000000,1649933296.212805,0.000000,0.000000,1.000000,0.000000,0.000000,0.000000,0.000000,3.397125,2.346906,-0.599956
1649933296.312884,779.000000,1649933296.312709,0.000000,0.000000,1.000000,0.000000,0.000000,0.000000,0.000000,3.396189,2.346660,-0.611402
1649933296.412997,780.000000,1649933296.412838,0.000000,0.000000,1.000000,0.000000,0.000000,0.000000,0.000000,3.394226,2.346461,-0.622293
1649933296.513309,781.000000,1649933296.513126,0.000000,0.000000,1.000000,0.000000,0.000000,0.000000,0.000000,3.393478,2.347397,-0.626991
1649933296.613271,782.000000,1649933296.613054,0.000000,0.000000,1.000000,0.000000,0.000000,0.000000,0.000000,3.391699,2.348310,-0.631389
1649933296.712979,783.000000,1649933296.712831,0.000000,0.000000,1.000000,0.000000,0.000000,0.000000,0.000000,3.388950,2.349198,-0.629043
1649933296.812837,784.000000,1649933296.812723,0.000000,0.000000,1.000000,0.000000,0.000000,0.000000,0.000000,3.386382,2.348966,-0.628299
1649933296.912911,785.000000,1649933296.912777,0.000000,0.000000,1.000000,0.000000,0.000000,0.000000,0.000000,3.383991,2.347675,-0.631518
1649933297.012925,786.000000,1649933297.012776,0.000000,0.000000,1.000000,0.000000,0.000000,0.000000,0.000000,3.381772,2.346477,-0.636925
1649933297.112937,787.000000,1649933297.112791,0.000000,0.000000,1.000000,0.000000,0.000000,0.000000,0.000000,3.381902,2.345369,-0.646847
1649933297.213181,788.000000,1649933297.213043,0.000000,0.000000,1.000000,0.000000,0.000000,0.000000,0.000000,3.382069,2.345438,-0.655444
1649933297.313342,789.000000,1649933297.313118,0.000000,0.000000,1.000000,0.000000,0.000000,0.000000,0.000000,3.382267,2.346619,-0.657116
1649933297.413575,790.000000,1649933297.413301,0.000000,0.000000,1.000000,0.000000,0.000000,0.000000,0.000000,3.383583,2.347755,-0.657787
1649933297.513324,791.000000,1649933297.513128,0.000000,0.000000,1.000000,0.000000,0.000000,0.000000,0.000000,3.384859,2.348844,-0.652666
1649933297.613162,792.000000,1649933297.613030,0.000000,0.000000,1.000000,0.000000,0.000000,0.000000,0.000000,3.385000,2.350975,-0.647643
1649933297.712806,793.000000,1649933297.712712,0.000000,0.000000,1.000000,0.000000,0.000000,0.000000,0.000000,3.386248,2.351903,-0.645148
1649933297.812911,794.000000,1649933297.812795,0.000000,0.000000,1.000000,0.000000,0.000000,0.000000,0.000000,3.386356,2.353872,-0.640247
1649933297.912888,795.000000,1649933297.912769,0.000000,0.000000,1.000000,0.000000,0.000000,0.000000,0.000000,3.386475,2.355727,-0.637083
1649933298.013003,796.000000,1649933298.012876,0.000000,0.000000,1.000000,0.000000,0.000000,0.000000,0.000000,3.386604,2.357469,-0.634786
1649933298.112893,797.000000,1649933298.112748,0.000000,0.000000,1.000000,0.000000,0.000000,0.000000,0.000000,3.386739,2.359101,-0.634136
1649933298.213207,798.000000,1649933298.212991,0.000000,0.000000,1.000000,0.000000,0.000000,0.000000,0.000000,3.386881,2.360623,-0.628618
1649933298.313039,799.000000,1649933298.312916,0.000000,0.000000,1.000000,0.000000,0.000000,0.000000,0.000000,3.385936,2.362038,-0.624085
1649933298.412945,800.000000,1649933298.412815,0.000000,0.000000,1.000000,0.000000,0.000000,0.000000,0.000000,3.383966,2.364440,-0.615668
1649933298.512837,801.000000,1649933298.512704,0.000000,0.000000,1.000000,0.000000,0.000000,0.000000,0.000000,3.382124,2.365587,-0.610797
1649933298.612901,802.000000,1649933298.612740,0.000000,0.000000,1.000000,0.000000,0.000000,0.000000,0.000000,3.380406,2.365546,-0.611758
1649933298.712945,803.000000,1649933298.712817,0.000000,0.000000,1.000000,0.000000,0.000000,0.000000,0.000000,3.379900,2.366565,-0.611863
1649933298.813185,804.000000,1649933298.812993,0.000000,0.000000,1.000000,0.000000,0.000000,0.000000,0.000000,3.378360,2.366405,-0.614373
1649933298.913199,805.000000,1649933298.913081,0.000000,0.000000,1.000000,0.000000,0.000000,0.000000,0.000000,3.378025,2.366221,-0.616767
1649933299.013431,806.000000,1649933299.013236,0.000000,0.000000,1.000000,0.000000,0.000000,0.000000,0.000000,3.377739,2.366019,-0.619854
1649933299.113236,807.000000,1649933299.113073,0.000000,0.000000,1.000000,0.000000,0.000000,0.000000,0.000000,3.377499,2.365801,-0.619567
1649933299.213192,808.000000,1649933299.213034,0.000000,0.000000,1.000000,0.000000,0.000000,0.000000,0.000000,3.377301,2.366660,-0.616853
1649933299.313259,809.000000,1649933299.313074,0.000000,0.000000,1.000000,0.000000,0.000000,0.000000,0.000000,3.377141,2.367447,-0.611812
1649933299.412834,810.000000,1649933299.412728,0.000000,0.000000,1.000000,0.000000,0.000000,0.000000,0.000000,3.377017,2.368164,-0.608582
1649933299.512857,811.000000,1649933299.512739,0.000000,0.000000,1.000000,0.000000,0.000000,0.000000,0.000000,3.376925,2.368814,-0.606288
1649933299.612953,812.000000,1649933299.612757,0.000000,0.000000,1.000000,0.000000,0.000000,0.000000,0.000000,3.376862,2.368310,-0.603283
1649933299.713173,813.000000,1649933299.713027,0.000000,0.000000,1.000000,0.000000,0.000000,0.000000,0.000000,3.375735,2.367809,-0.604440
1649933299.813132,814.000000,1649933299.812938,0.000000,0.000000,1.000000,0.000000,0.000000,0.000000,0.000000,3.374696,2.366224,-0.606363
1649933299.913059,815.000000,1649933299.912895,0.000000,0.000000,1.000000,0.000000,0.000000,0.000000,0.000000,3.374830,2.365799,-0.605791
1649933300.012855,816.000000,1649933300.012744,0.000000,0.000000,1.000000,0.000000,0.000000,0.000000,0.000000,3.374983,2.363204,-0.611698
1649933300.113177,817.000000,1649933300.112936,0.000000,0.000000,1.000000,0.000000,0.000000,0.000000,0.000000,3.374060,2.361835,-0.611715
1649933300.213019,818.000000,1649933300.212888,0.000000,0.000000,1.000000,0.000000,0.000000,0.000000,0.000000,3.372121,2.361632,-0.613337
1649933300.312918,819.000000,1649933300.312792,0.000000,0.000000,1.000000,0.000000,0.000000,0.000000,0.000000,3.370318,2.361441,-0.617304
1649933300.412942,820.000000,1649933300.412785,0.000000,0.000000,1.000000,0.000000,0.000000,0.000000,0.000000,3.367556,2.360171,-0.623516
1649933300.513009,821.000000,1649933300.512847,0.000000,0.000000,1.000000,0.000000,0.000000,0.000000,0.000000,3.367165,2.358976,-0.627033
1649933300.612996,822.000000,1649933300.612862,0.000000,0.000000,1.000000,0.000000,0.000000,0.000000,0.000000,3.366835,2.357854,-0.630377
1649933300.713057,823.000000,1649933300.712891,0.000000,0.000000,1.000000,0.000000,0.000000,0.000000,0.000000,3.367652,2.357896,-0.626295
1649933300.813020,824.000000,1649933300.812878,0.000000,0.000000,1.000000,0.000000,0.000000,0.000000,0.000000,3.369547,2.355766,-0.630415
1649933300.912884,825.000000,1649933300.912730,0.000000,0.000000,1.000000,0.000000,0.000000,0.000000,0.000000,3.370274,2.355949,-0.629499
1649933301.013021,826.000000,1649933301.012901,0.000000,0.000000,1.000000,0.000000,0.000000,0.000000,0.000000,3.369892,2.356138,-0.626977
1649933301.113008,827.000000,1649933301.112834,0.000000,0.000000,1.000000,0.000000,0.000000,0.000000,0.000000,3.370644,2.356331,-0.626953
1649933301.212991,828.000000,1649933301.212851,0.000000,0.000000,1.000000,0.000000,0.000000,0.000000,0.000000,3.371372,2.356526,-0.627714
1649933301.313033,829.000000,1649933301.312903,0.000000,0.000000,1.000000,0.000000,0.000000,0.000000,0.000000,3.372075,2.356721,-0.627614
1649933301.413039,830.000000,1649933301.412904,0.000000,0.000000,1.000000,0.000000,0.000000,0.000000,0.000000,3.373841,2.355825,-0.632336
1649933301.513601,831.000000,1649933301.513426,0.000000,0.000000,1.000000,0.000000,0.000000,0.000000,0.000000,3.373336,2.354991,-0.636838
1649933301.613049,832.000000,1649933301.612880,0.000000,0.000000,1.000000,0.000000,0.000000,0.000000,0.000000,3.372865,2.355306,-0.639511
1649933301.712940,833.000000,1649933301.712787,0.000000,0.000000,1.000000,0.000000,0.000000,0.000000,0.000000,3.373518,2.354526,-0.643650
1649933301.813093,834.000000,1649933301.812931,0.000000,0.000000,1.000000,0.000000,0.000000,0.000000,0.000000,3.373050,2.354893,-0.648385
1649933301.913153,835.000000,1649933301.913029,0.000000,0.000000,1.000000,0.000000,0.000000,0.000000,0.000000,3.373704,2.355252,-0.647235
1649933302.012933,836.000000,1649933302.012819,0.000000,0.000000,1.000000,0.000000,0.000000,0.000000,0.000000,3.375417,2.356693,-0.638826
1649933302.113047,837.000000,1649933302.112875,0.000000,0.000000,1.000000,0.000000,0.000000,0.000000,0.000000,3.374854,2.356969,-0.634760
1649933302.213192,838.000000,1649933302.212973,0.000000,0.000000,1.000000,0.000000,0.000000,0.000000,0.000000,3.375412,2.356144,-0.634867
1649933302.313002,839.000000,1649933302.312836,0.000000,0.000000,1.000000,0.000000,0.000000,0.000000,0.000000,3.374848,2.354280,-0.638982
1649933302.412828,840.000000,1649933302.412712,0.000000,0.000000,1.000000,0.000000,0.000000,0.000000,0.000000,3.375406,2.353620,-0.648550
1649933302.513077,841.000000,1649933302.512884,0.000000,0.000000,1.000000,0.000000,0.000000,0.000000,0.000000,3.375931,2.354099,-0.653657
1649933302.613072,842.000000,1649933302.612911,0.000000,0.000000,1.000000,0.000000,0.000000,0.000000,0.000000,3.376425,2.355654,-0.648832
1649933302.713025,843.000000,1649933302.712873,0.000000,0.000000,1.000000,0.000000,0.000000,0.000000,0.000000,3.376887,2.356039,-0.644163
1649933302.813004,844.000000,1649933302.812872,0.000000,0.000000,1.000000,0.000000,0.000000,0.000000,0.000000,3.377319,2.356407,-0.638846
1649933302.913073,845.000000,1649933302.912944,0.000000,0.000000,1.000000,0.000000,0.000000,0.000000,0.000000,3.378810,2.356757,-0.636144
1649933303.013141,846.000000,1649933303.012943,0.000000,0.000000,1.000000,0.000000,0.000000,0.000000,0.000000,3.380210,2.354909,-0.634344
1649933303.112901,847.000000,1649933303.112785,0.000000,0.000000,1.000000,0.000000,0.000000,0.000000,0.000000,3.380428,2.354259,-0.633413
1649933303.212948,848.000000,1649933303.212834,0.000000,0.000000,1.000000,0.000000,0.000000,0.000000,0.000000,3.381710,2.352563,-0.631706
1649933303.312914,849.000000,1649933303.312777,0.000000,0.000000,1.000000,0.000000,0.000000,0.000000,0.000000,3.382905,2.352063,-0.631675
1649933303.413218,850.000000,1649933303.413017,0.000000,0.000000,1.000000,0.000000,0.000000,0.000000,0.000000,3.382923,2.351604,-0.630835
1649933303.513358,851.000000,1649933303.513195,0.000000,0.000000,1.000000,0.000000,0.000000,0.000000,0.000000,3.384011,2.351186,-0.630832
1649933303.613338,852.000000,1649933303.613065,0.000000,0.000000,1.000000,0.000000,0.000000,0.000000,0.000000,3.385019,2.351896,-0.629213
1649933303.713099,853.000000,1649933303.712955,0.000000,0.000000,1.000000,0.000000,0.000000,0.000000,0.000000,3.385948,2.352579,-0.634918
1649933303.813309,854.000000,1649933303.813140,0.000000,0.000000,1.000000,0.000000,0.000000,0.000000,0.000000,3.386801,2.352144,-0.637158
1649933303.913001,855.000000,1649933303.912808,0.000000,0.000000,1.000000,0.000000,0.000000,0.000000,0.000000,3.387581,2.352834,-0.635263
1649933304.012944,856.000000,1649933304.012808,0.000000,0.000000,1.000000,0.000000,0.000000,0.000000,0.000000,3.388292,2.352403,-0.633434
1649933304.112871,857.000000,1649933304.112738,0.000000,0.000000,1.000000,0.000000,0.000000,0.000000,0.000000,3.388935,2.350914,-0.637319
1649933304.212959,858.000000,1649933304.212756,0.000000,0.000000,1.000000,0.000000,0.000000,0.000000,0.000000,3.389515,2.350608,-0.640229
1649933304.312995,859.000000,1649933304.312861,0.000000,0.000000,1.000000,0.000000,0.000000,0.000000,0.000000,3.390035,2.351423,-0.639779
1649933304.413084,860.000000,1649933304.412956,0.000000,0.000000,1.000000,0.000000,0.000000,0.000000,0.000000,3.390499,2.352203,-0.640139
1649933304.512971,861.000000,1649933304.512808,0.000000,0.000000,1.000000,0.000000,0.000000,0.000000,0.000000,3.390908,2.352946,-0.637243
1649933304.612994,862.000000,1649933304.612808,0.000000,0.000000,1.000000,0.000000,0.000000,0.000000,0.000000,3.391267,2.354744,-0.629616
1649933304.712870,863.000000,1649933304.712764,0.000000,0.000000,1.000000,0.000000,0.000000,0.000000,0.000000,3.392669,2.355351,-0.623913
1649933304.812959,864.000000,1649933304.812823,0.000000,0.000000,1.000000,0.000000,0.000000,0.000000,0.000000,3.392875,2.354831,-0.622486
1649933304.912943,865.000000,1649933304.912793,0.000000,0.000000,1.000000,0.000000,0.000000,0.000000,0.000000,3.393039,2.354337,-0.625164
1649933305.013024,866.000000,1649933305.012881,0.000000,0.000000,1.000000,0.000000,0.000000,0.000000,0.000000,3.393167,2.353869,-0.628550
1649933305.112962,867.000000,1649933305.112808,0.000000,0.000000,1.000000,0.000000,0.000000,0.000000,0.000000,3.393261,2.353429,-0.630191
1649933305.213010,868.000000,1649933305.212861,0.000000,0.000000,1.000000,0.000000,0.000000,0.000000,0.000000,3.393324,2.351924,-0.629347
1649933305.312995,869.000000,1649933305.312882,0.000000,0.000000,1.000000,0.000000,0.000000,0.000000,0.000000,3.392269,2.351599,-0.630959
1649933305.413149,870.000000,1649933305.413007,0.000000,0.000000,1.000000,0.000000,0.000000,0.000000,0.000000,3.392342,2.350208,-0.633312
1649933305.512958,871.000000,1649933305.512832,0.000000,0.000000,1.000000,0.000000,0.000000,0.000000,0.000000,3.393482,2.349996,-0.634760
1649933305.613016,872.000000,1649933305.612861,0.000000,0.000000,1.000000,0.000000,0.000000,0.000000,0.000000,3.395630,2.350897,-0.633722
1649933305.712942,873.000000,1649933305.712791,0.000000,0.000000,1.000000,0.000000,0.000000,0.000000,0.000000,3.397634,2.351757,-0.632722
1649933305.812946,874.000000,1649933305.812802,0.000000,0.000000,1.000000,0.000000,0.000000,0.000000,0.000000,3.398407,2.352575,-0.630147
1649933305.912948,875.000000,1649933305.912763,0.000000,0.000000,1.000000,0.000000,0.000000,0.000000,0.000000,3.399106,2.352261,-0.626871
1649933306.012933,876.000000,1649933306.012806,0.000000,0.000000,1.000000,0.000000,0.000000,0.000000,0.000000,3.398644,2.353057,-0.620508
1649933306.112973,877.000000,1649933306.112789,0.000000,0.000000,1.000000,0.000000,0.000000,0.000000,0.000000,3.399268,2.352719,-0.616838
1649933306.213265,878.000000,1649933306.213063,0.000000,0.000000,1.000000,0.000000,0.000000,0.000000,0.000000,3.398738,2.353491,-0.609308
1649933306.313102,879.000000,1649933306.312968,0.000000,0.000000,1.000000,0.000000,0.000000,0.000000,0.000000,3.398211,2.354220,-0.602922
1649933306.412875,880.000000,1649933306.412745,0.000000,0.000000,1.000000,0.000000,0.000000,0.000000,0.000000,3.397690,2.354906,-0.598451
1649933306.513348,881.000000,1649933306.513196,0.000000,0.000000,1.000000,0.000000,0.000000,0.000000,0.000000,3.397177,2.355550,-0.596629
1649933306.613021,882.000000,1649933306.612868,0.000000,0.000000,1.000000,0.000000,0.000000,0.000000,0.000000,3.397766,2.357241,-0.590900
1649933306.713074,883.000000,1649933306.712897,0.000000,0.000000,1.000000,0.000000,0.000000,0.000000,0.000000,3.398304,2.358829,-0.588686
1649933306.813094,884.000000,1649933306.812915,0.000000,0.000000,1.000000,0.000000,0.000000,0.000000,0.000000,3.399885,2.359223,-0.589040
1649933306.913091,885.000000,1649933306.912946,0.000000,0.000000,1.000000,0.000000,0.000000,0.000000,0.000000,3.400266,2.359579,-0.581372
1649933307.013204,886.000000,1649933307.012952,0.000000,0.000000,1.000000,0.000000,0.000000,0.000000,0.000000,3.400605,2.358808,-0.576500
1649933307.112893,887.000000,1649933307.112774,0.000000,0.000000,1.000000,0.000000,0.000000,0.000000,0.000000,3.401993,2.358067,-0.575123
1649933307.212872,888.000000,1649933307.212729,0.000000,0.000000,1.000000,0.000000,0.000000,0.000000,0.000000,3.400008,2.358445,-0.576293
1649933307.312912,889.000000,1649933307.312795,0.000000,0.000000,1.000000,0.000000,0.000000,0.000000,0.000000,3.399205,2.358792,-0.576677
1649933307.413082,890.000000,1649933307.412915,0.000000,0.000000,1.000000,0.000000,0.000000,0.000000,0.000000,3.398432,2.359109,-0.580334
1649933307.512975,891.000000,1649933307.512847,0.000000,0.000000,1.000000,0.000000,0.000000,0.000000,0.000000,3.396599,2.359397,-0.582286
1649933307.612952,892.000000,1649933307.612810,0.000000,0.000000,1.000000,0.000000,0.000000,0.000000,0.000000,3.393771,2.358567,-0.588241
1649933307.713029,893.000000,1649933307.712898,0.000000,0.000000,1.000000,0.000000,0.000000,0.000000,0.000000,3.391102,2.358864,-0.586734
1649933307.813166,894.000000,1649933307.812986,0.000000,0.000000,1.000000,0.000000,0.000000,0.000000,0.000000,3.388591,2.355865,-0.591778
1649933307.913016,895.000000,1649933307.912817,0.000000,0.000000,1.000000,0.000000,0.000000,0.000000,0.000000,3.385147,2.353029,-0.599065
1649933308.013016,896.000000,1649933308.012892,0.000000,0.000000,1.000000,0.000000,0.000000,0.000000,0.000000,3.383010,2.350359,-0.606880
1649933308.113056,897.000000,1649933308.112824,0.000000,0.000000,1.000000,0.000000,0.000000,0.000000,0.000000,3.382115,2.347851,-0.615186
1649933308.213114,898.000000,1649933308.212936,0.000000,0.000000,1.000000,0.000000,0.000000,0.000000,0.000000,3.382395,2.345504,-0.621532
1649933308.313076,899.000000,1649933308.312949,0.000000,0.000000,1.000000,0.000000,0.000000,0.000000,0.000000,3.381601,2.342225,-0.629210
1649933308.413031,900.000000,1649933308.412907,0.000000,0.000000,1.000000,0.000000,0.000000,0.000000,0.000000,3.380884,2.342435,-0.631704
1649933308.512945,901.000000,1649933308.512810,0.000000,0.000000,1.000000,0.000000,0.000000,0.000000,0.000000,3.380240,2.342670,-0.636479
1649933308.612882,902.000000,1649933308.612743,0.000000,0.000000,1.000000,0.000000,0.000000,0.000000,0.000000,3.379664,2.342925,-0.638597
1649933308.712983,903.000000,1649933308.712883,0.000000,0.000000,1.000000,0.000000,0.000000,0.000000,0.000000,3.380244,2.343197,-0.636550
1649933308.812962,904.000000,1649933308.812798,0.000000,0.000000,1.000000,0.000000,0.000000,0.000000,0.000000,3.381912,2.342392,-0.639383
1649933308.912924,905.000000,1649933308.912794,0.000000,0.000000,1.000000,0.000000,0.000000,0.000000,0.000000,3.382422,2.340569,-0.642864
1649933309.012955,906.000000,1649933309.012833,0.000000,0.000000,1.000000,0.000000,0.000000,0.000000,0.000000,3.384014,2.339969,-0.642931
1649933309.112912,907.000000,1649933309.112796,0.000000,0.000000,1.000000,0.000000,0.000000,0.000000,0.000000,3.385533,2.340525,-0.639722
1649933309.212996,908.000000,1649933309.212832,0.000000,0.000000,1.000000,0.000000,0.000000,0.000000,0.000000,3.385887,2.341079,-0.637410
1649933309.313038,909.000000,1649933309.312906,0.000000,0.000000,1.000000,0.000000,0.000000,0.000000,0.000000,3.385138,2.341630,-0.633545
1649933309.413193,910.000000,1649933309.413006,0.000000,0.000000,1.000000,0.000000,0.000000,0.000000,0.000000,3.385529,2.342173,-0.633036
1649933309.513031,911.000000,1649933309.512863,0.000000,0.000000,1.000000,0.000000,0.000000,0.000000,0.000000,3.384815,2.342706,-0.633330
1649933309.612966,912.000000,1649933309.612800,0.000000,0.000000,1.000000,0.000000,0.000000,0.000000,0.000000,3.385239,2.343227,-0.631170
1649933309.712980,913.000000,1649933309.712830,0.000000,0.000000,1.000000,0.000000,0.000000,0.000000,0.000000,3.384556,2.343734,-0.628272
1649933309.813073,914.000000,1649933309.812913,0.000000,0.000000,1.000000,0.000000,0.000000,0.000000,0.000000,3.382829,2.344225,-0.623058
1649933309.913085,915.000000,1649933309.912903,0.000000,0.000000,1.000000,0.000000,0.000000,0.000000,0.000000,3.381209,2.344698,-0.618052
1649933310.012950,916.000000,1649933310.012792,0.000000,0.000000,1.000000,0.000000,0.000000,0.000000,0.000000,3.380786,2.344063,-0.616478
1649933310.113179,917.000000,1649933310.113041,0.000000,0.000000,1.000000,0.000000,0.000000,0.000000,0.000000,3.381494,2.344562,-0.614975
1649933310.213027,918.000000,1649933310.212876,0.000000,0.000000,1.000000,0.000000,0.000000,0.000000,0.000000,3.382179,2.346132,-0.611929
1649933310.312974,919.000000,1649933310.312829,0.000000,0.000000,1.000000,0.000000,0.000000,0.000000,0.000000,3.382838,2.347617,-0.612247
1649933310.412966,920.000000,1649933310.412843,0.000000,0.000000,1.000000,0.000000,0.000000,0.000000,0.000000,3.383470,2.349019,-0.607727
1649933310.512984,921.000000,1649933310.512829,0.000000,0.000000,1.000000,0.000000,0.000000,0.000000,0.000000,3.384075,2.349246,-0.605829
1649933310.613038,922.000000,1649933310.612783,0.000000,0.000000,1.000000,0.000000,0.000000,0.000000,0.000000,3.385741,2.347272,-0.607256
1649933310.712898,923.000000,1649933310.712762,0.000000,0.000000,1.000000,0.000000,0.000000,0.000000,0.000000,3.386225,2.346496,-0.611064
1649933310.813000,924.000000,1649933310.812823,0.000000,0.000000,1.000000,0.000000,0.000000,0.000000,0.000000,3.387770,2.345763,-0.617151
1649933310.913045,925.000000,1649933310.912856,0.000000,0.000000,1.000000,0.000000,0.000000,0.000000,0.000000,3.388134,2.346164,-0.620574
1649933311.013154,926.000000,1649933311.012949,0.000000,0.000000,1.000000,0.000000,0.000000,0.000000,0.000000,3.388469,2.346546,-0.625468
1649933311.112949,927.000000,1649933311.112825,0.000000,0.000000,1.000000,0.000000,0.000000,0.000000,0.000000,3.388778,2.345817,-0.627732
1649933311.213273,928.000000,1649933311.213117,0.000000,0.000000,1.000000,0.000000,0.000000,0.000000,0.000000,3.389060,2.346222,-0.629083
1649933311.313269,929.000000,1649933311.313138,0.000000,0.000000,1.000000,0.000000,0.000000,0.000000,0.000000,3.388227,2.346606,-0.631975
1649933311.413021,930.000000,1649933311.412887,0.000000,0.000000,1.000000,0.000000,0.000000,0.000000,0.000000,3.387434,2.346969,-0.636342
1649933311.513633,931.000000,1649933311.513389,0.000000,0.000000,1.000000,0.000000,0.000000,0.000000,0.000000,3.386680,2.347313,-0.636472
1649933311.613065,932.000000,1649933311.612915,0.000000,0.000000,1.000000,0.000000,0.000000,0.000000,0.000000,3.385966,2.347635,-0.637376
1649933311.713020,933.000000,1649933311.712869,0.000000,0.000000,1.000000,0.000000,0.000000,0.000000,0.000000,3.386383,2.347938,-0.635797
1649933311.813819,934.000000,1649933311.813500,0.000000,0.000000,1.000000,0.000000,0.000000,0.000000,0.000000,3.384597,2.349310,-0.631839
1649933311.913314,935.000000,1649933311.913158,0.000000,0.000000,1.000000,0.000000,0.000000,0.000000,0.000000,3.382913,2.351691,-0.625604
1649933312.013004,936.000000,1649933312.012865,0.000000,0.000000,1.000000,0.000000,0.000000,0.000000,0.000000,3.381332,2.353927,-0.620423
1649933312.113092,937.000000,1649933312.112945,0.000000,0.000000,1.000000,0.000000,0.000000,0.000000,0.000000,3.382032,2.356021,-0.616261
1649933312.212994,938.000000,1649933312.212858,0.000000,0.000000,1.000000,0.000000,0.000000,0.000000,0.000000,3.381616,2.357974,-0.612278
1649933312.313040,939.000000,1649933312.312875,0.000000,0.000000,1.000000,0.000000,0.000000,0.000000,0.000000,3.382326,2.357609,-0.614117
1649933312.412967,940.000000,1649933312.412827,0.000000,0.000000,1.000000,0.000000,0.000000,0.000000,0.000000,3.383006,2.357236,-0.612671
1649933312.513350,941.000000,1649933312.513215,0.000000,0.000000,1.000000,0.000000,0.000000,0.000000,0.000000,3.382566,2.356859,-0.611298
1649933312.613043,942.000000,1649933312.612893,0.000000,0.000000,1.000000,0.000000,0.000000,0.000000,0.000000,3.383248,2.355389,-0.607578
1649933312.712955,943.000000,1649933312.712792,0.000000,0.000000,1.000000,0.000000,0.000000,0.000000,0.000000,3.382808,2.355072,-0.604031
1649933312.813021,944.000000,1649933312.812882,0.000000,0.000000,1.000000,0.000000,0.000000,0.000000,0.000000,3.382398,2.354759,-0.602267
1649933312.913267,945.000000,1649933312.913075,0.000000,0.000000,1.000000,0.000000,0.000000,0.000000,0.000000,3.382018,2.354449,-0.599798
1649933313.013128,946.000000,1649933313.012974,0.000000,0.000000,1.000000,0.000000,0.000000,0.000000,0.000000,3.381667,2.354145,-0.594235
1649933313.113154,947.000000,1649933313.112973,0.000000,0.000000,1.000000,0.000000,0.000000,0.000000,0.000000,3.380253,2.356030,-0.584904
1649933313.212953,948.000000,1649933313.212820,0.000000,0.000000,1.000000,0.000000,0.000000,0.000000,0.000000,3.378928,2.357796,-0.577617
1649933313.312996,949.000000,1649933313.312878,0.000000,0.000000,1.000000,0.000000,0.000000,0.000000,0.000000,3.385325,2.353995,-0.556172
1649933313.412942,950.000000,1649933313.412783,0.000000,0.000000,1.000000,0.000000,0.000000,0.000000,0.000000,3.389187,2.352575,-0.539723
1649933313.513080,951.000000,1649933313.512920,0.000000,0.000000,1.000000,0.000000,0.000000,0.000000,0.000000,3.391732,2.351231,-0.530510
1649933313.613288,952.000000,1649933313.613138,0.000000,0.000000,1.000000,0.000000,0.000000,0.000000,0.000000,3.393024,2.351053,-0.526639
1649933313.712862,953.000000,1649933313.712743,0.000000,0.000000,1.000000,0.000000,0.000000,0.000000,0.000000,3.393128,2.350888,-0.525478
1649933313.813076,954.000000,1649933313.812923,0.000000,0.000000,1.000000,0.000000,0.000000,0.000000,0.000000,3.393202,2.350735,-0.526106
1649933313.913043,955.000000,1649933313.912906,0.000000,0.000000,1.000000,0.000000,0.000000,0.000000,0.000000,3.393247,2.350595,-0.524413
1649933314.013004,956.000000,1649933314.012878,0.000000,0.000000,1.000000,0.000000,0.000000,0.000000,0.000000,3.393267,2.351556,-0.522910
1649933314.113036,957.000000,1649933314.112874,0.000000,0.000000,1.000000,0.000000,0.000000,0.000000,0.000000,3.392174,2.351375,-0.526424
1649933314.213098,958.000000,1649933314.212950,0.000000,0.000000,1.000000,0.000000,0.000000,0.000000,0.000000,3.391123,2.351205,-0.530711
1649933314.313128,959.000000,1649933314.312986,0.000000,0.000000,1.000000,0.000000,0.000000,0.000000,0.000000,3.391207,2.351047,-0.537340
1649933314.412935,960.000000,1649933314.412783,0.000000,0.000000,1.000000,0.000000,0.000000,0.000000,0.000000,3.391275,2.349808,-0.547009
1649933314.512986,961.000000,1649933314.512830,0.000000,0.000000,1.000000,0.000000,0.000000,0.000000,0.000000,3.390237,2.350824,-0.553929
1649933314.613097,962.000000,1649933314.612947,0.000000,0.000000,1.000000,0.000000,0.000000,0.000000,0.000000,3.389247,2.351786,-0.555778
1649933314.713224,963.000000,1649933314.713037,0.000000,0.000000,1.000000,0.000000,0.000000,0.000000,0.000000,3.386127,2.352696,-0.559207
1649933314.813355,964.000000,1649933314.813172,0.000000,0.000000,1.000000,0.000000,0.000000,0.000000,0.000000,3.382092,2.353552,-0.560919
1649933314.913331,965.000000,1649933314.913139,0.000000,0.000000,1.000000,0.000000,0.000000,0.000000,0.000000,3.379385,2.354355,-0.560978
1649933315.013411,966.000000,1649933315.013233,0.000000,0.000000,1.000000,0.000000,0.000000,0.000000,0.000000,3.377942,2.357287,-0.556225
1649933315.113336,967.000000,1649933315.113122,0.000000,0.000000,1.000000,0.000000,0.000000,0.000000,0.000000,3.377697,2.358952,-0.550891
1649933315.213392,968.000000,1649933315.213272,0.000000,0.000000,1.000000,0.000000,0.000000,0.000000,0.000000,3.377492,2.360505,-0.549848
1649933315.313259,969.000000,1649933315.313119,0.000000,0.000000,1.000000,0.000000,0.000000,0.000000,0.000000,3.377326,2.361949,-0.547276
1649933315.413375,970.000000,1649933315.413178,0.000000,0.000000,1.000000,0.000000,0.000000,0.000000,0.000000,3.377195,2.362195,-0.546466
1649933315.513342,971.000000,1649933315.513154,0.000000,0.000000,1.000000,0.000000,0.000000,0.000000,0.000000,3.376006,2.362400,-0.548959
1649933315.613353,972.000000,1649933315.613189,0.000000,0.000000,1.000000,0.000000,0.000000,0.000000,0.000000,3.374908,2.362568,-0.546551
1649933315.713344,973.000000,1649933315.713156,0.000000,0.000000,1.000000,0.000000,0.000000,0.000000,0.000000,3.374990,2.362702,-0.545088
1649933315.813540,974.000000,1649933315.813313,0.000000,0.000000,1.000000,0.000000,0.000000,0.000000,0.000000,3.375094,2.362804,-0.544532
1649933315.913022,975.000000,1649933315.912842,0.000000,0.000000,1.000000,0.000000,0.000000,0.000000,0.000000,3.374127,2.363968,-0.545653
1649933316.012927,976.000000,1649933316.012757,0.000000,0.000000,1.000000,0.000000,0.000000,0.000000,0.000000,3.374330,2.363952,-0.549991
1649933316.112959,977.000000,1649933316.112852,0.000000,0.000000,1.000000,0.000000,0.000000,0.000000,0.000000,3.372366,2.365003,-0.551764
1649933316.212960,978.000000,1649933316.212751,0.000000,0.000000,1.000000,0.000000,0.000000,0.000000,0.000000,3.372719,2.365972,-0.553489
1649933316.312950,979.000000,1649933316.312815,0.000000,0.000000,1.000000,0.000000,0.000000,0.000000,0.000000,3.374170,2.365769,-0.563230
1649933316.412938,980.000000,1649933316.412802,0.000000,0.000000,1.000000,0.000000,0.000000,0.000000,0.000000,3.374472,2.366643,-0.567742
1649933316.513350,981.000000,1649933316.513174,0.000000,0.000000,1.000000,0.000000,0.000000,0.000000,0.000000,3.374775,2.366353,-0.576906
1649933316.614129,982.000000,1649933316.613733,0.000000,0.000000,1.000000,0.000000,0.000000,0.000000,0.000000,3.375079,2.367144,-0.582455
1649933316.713080,983.000000,1649933316.712955,0.000000,0.000000,1.000000,0.000000,0.000000,0.000000,0.000000,3.376470,2.365686,-0.588558
1649933316.813091,984.000000,1649933316.812912,0.000000,0.000000,1.000000,0.000000,0.000000,0.000000,0.000000,3.378886,2.364289,-0.591957
1649933316.913111,985.000000,1649933316.912935,0.000000,0.000000,1.000000,0.000000,0.000000,0.000000,0.000000,3.380080,2.361863,-0.599210
1649933317.013357,986.000000,1649933317.013194,0.000000,0.000000,1.000000,0.000000,0.000000,0.000000,0.000000,3.380117,2.360655,-0.604505
1649933317.113338,987.000000,1649933317.113187,0.000000,0.000000,1.000000,0.000000,0.000000,0.000000,0.000000,3.381239,2.360602,-0.614366
1649933317.213391,988.000000,1649933317.213209,0.000000,0.000000,1.000000,0.000000,0.000000,0.000000,0.000000,3.381203,2.361642,-0.618917
1649933317.313413,989.000000,1649933317.313153,0.000000,0.000000,1.000000,0.000000,0.000000,0.000000,0.000000,3.381164,2.362620,-0.617562
1649933317.413453,990.000000,1649933317.413245,0.000000,0.000000,1.000000,0.000000,0.000000,0.000000,0.000000,3.381122,2.363539,-0.616994
1649933317.513296,991.000000,1649933317.513132,0.000000,0.000000,1.000000,0.000000,0.000000,0.000000,0.000000,3.381077,2.365488,-0.611543
1649933317.612956,992.000000,1649933317.612792,0.000000,0.000000,1.000000,0.000000,0.000000,0.000000,0.000000,3.379940,2.366225,-0.599802
1649933317.713471,993.000000,1649933317.713287,0.000000,0.000000,1.000000,0.000000,0.000000,0.000000,0.000000,3.378864,2.366906,-0.593340
1649933317.813020,994.000000,1649933317.812889,0.000000,0.000000,1.000000,0.000000,0.000000,0.000000,0.000000,3.380031,2.367533,-0.585503
1649933317.913190,995.000000,1649933317.913052,0.000000,0.000000,1.000000,0.000000,0.000000,0.000000,0.000000,3.380043,2.367016,-0.581201
1649933318.013188,996.000000,1649933318.013048,0.000000,0.000000,1.000000,0.000000,0.000000,0.000000,0.000000,3.378963,2.367601,-0.574652
1649933318.113005,997.000000,1649933318.112833,0.000000,0.000000,1.000000,0.000000,0.000000,0.000000,0.000000,3.380125,2.367048,-0.571604
1649933318.213119,998.000000,1649933318.212926,0.000000,0.000000,1.000000,0.000000,0.000000,0.000000,0.000000,3.380132,2.367601,-0.569502
1649933318.313190,999.000000,1649933318.313035,0.000000,0.000000,1.000000,0.000000,0.000000,0.000000,0.000000,3.379047,2.368108,-0.568309
1649933318.413056,1000.000000,1649933318.412912,0.000000,0.000000,1.000000,0.000000,0.000000,0.000000,0.000000,3.379114,2.368573,-0.567991
1649933318.513032,1001.000000,1649933318.512810,0.000000,0.000000,1.000000,0.000000,0.000000,0.000000,0.000000,3.378088,2.367905,-0.570124
1649933318.613123,1002.000000,1649933318.612986,0.000000,0.000000,1.000000,0.000000,0.000000,0.000000,0.000000,3.378214,2.367260,-0.571381
1649933318.713531,1003.000000,1649933318.713393,0.000000,0.000000,1.000000,0.000000,0.000000,0.000000,0.000000,3.379428,2.366640,-0.572599
1649933318.813082,1004.000000,1649933318.812953,0.000000,0.000000,1.000000,0.000000,0.000000,0.000000,0.000000,3.380576,2.367136,-0.572971
1649933318.913143,1005.000000,1649933318.912960,0.000000,0.000000,1.000000,0.000000,0.000000,0.000000,0.000000,3.381659,2.367596,-0.571724
1649933319.012981,1006.000000,1649933319.012814,0.000000,0.000000,1.000000,0.000000,0.000000,0.000000,0.000000,3.382675,2.368021,-0.567313
1649933319.113158,1007.000000,1649933319.112989,0.000000,0.000000,1.000000,0.000000,0.000000,0.000000,0.000000,3.382537,2.368412,-0.565516
1649933319.213007,1008.000000,1649933319.212857,0.000000,0.000000,1.000000,0.000000,0.000000,0.000000,0.000000,3.381307,2.368771,-0.565424
1649933319.313085,1009.000000,1649933319.312927,0.000000,0.000000,1.000000,0.000000,0.000000,0.000000,0.000000,3.380140,2.366917,-0.567775
1649933319.413098,1010.000000,1649933319.412940,0.000000,0.000000,1.000000,0.000000,0.000000,0.000000,0.000000,3.380127,2.366249,-0.568432
1649933319.512984,1011.000000,1649933319.512849,0.000000,0.000000,1.000000,0.000000,0.000000,0.000000,0.000000,3.380115,2.365615,-0.565043
1649933319.612942,1012.000000,1649933319.612813,0.000000,0.000000,1.000000,0.000000,0.000000,0.000000,0.000000,3.380103,2.366105,-0.562616
1649933319.713024,1013.000000,1649933319.712862,0.000000,0.000000,1.000000,0.000000,0.000000,0.000000,0.000000,3.380092,2.365476,-0.565146
1649933319.813182,1014.000000,1649933319.812975,0.000000,0.000000,1.000000,0.000000,0.000000,0.000000,0.000000,3.381172,2.363791,-0.570009
1649933319.913345,1015.000000,1649933319.913126,0.000000,0.000000,1.000000,0.000000,0.000000,0.000000,0.000000,3.382190,2.362202,-0.575490
1649933320.013170,1016.000000,1649933320.012969,0.000000,0.000000,1.000000,0.000000,0.000000,0.000000,0.000000,3.383145,2.362891,-0.576716
1649933320.112952,1017.000000,1649933320.112782,0.000000,0.000000,1.000000,0.000000,0.000000,0.000000,0.000000,3.382950,2.363549,-0.573049
1649933320.213016,1018.000000,1649933320.212857,0.000000,0.000000,1.000000,0.000000,0.000000,0.000000,0.000000,3.383847,2.364176,-0.570338
1649933320.312928,1019.000000,1649933320.312824,0.000000,0.000000,1.000000,0.000000,0.000000,0.000000,0.000000,3.389047,2.361501,-0.540324
1649933320.413027,1020.000000,1649933320.412884,0.000000,0.000000,1.000000,0.000000,0.000000,0.000000,0.000000,3.392848,2.358981,-0.524479
1649933320.513386,1021.000000,1649933320.513212,0.000000,0.000000,1.000000,0.000000,0.000000,0.000000,0.000000,3.396404,2.356617,-0.517420
1649933320.613107,1022.000000,1649933320.612951,0.000000,0.000000,1.000000,0.000000,0.000000,0.000000,0.000000,3.398631,2.355497,-0.508315
1649933320.712982,1023.000000,1649933320.712856,0.000000,0.000000,1.000000,0.000000,0.000000,0.000000,0.000000,3.400687,2.354464,-0.506131
1649933320.813194,1024.000000,1649933320.813035,0.000000,0.000000,1.000000,0.000000,0.000000,0.000000,0.000000,3.401487,2.352425,-0.506556
1649933320.913108,1025.000000,1649933320.912972,0.000000,0.000000,1.000000,0.000000,0.000000,0.000000,0.000000,3.401100,2.350531,-0.513512
1649933321.013073,1026.000000,1649933321.012947,0.000000,0.000000,1.000000,0.000000,0.000000,0.000000,0.000000,3.399595,2.348776,-0.521880
1649933321.113098,1027.000000,1649933321.112945,0.000000,0.000000,1.000000,0.000000,0.000000,0.000000,0.000000,3.398130,2.347158,-0.528361
1649933321.213039,1028.000000,1649933321.212903,0.000000,0.000000,1.000000,0.000000,0.000000,0.000000,0.000000,3.397802,2.346762,-0.529791
1649933321.313148,1029.000000,1649933321.312901,0.000000,0.000000,1.000000,0.000000,0.000000,0.000000,0.000000,3.396370,2.346429,-0.534435
1649933321.412995,1030.000000,1649933321.412839,0.000000,0.000000,1.000000,0.000000,0.000000,0.000000,0.000000,3.394991,2.347245,-0.538119
1649933321.513363,1031.000000,1649933321.513200,0.000000,0.000000,1.000000,0.000000,0.000000,0.000000,0.000000,3.394758,2.348053,-0.544908
1649933321.612993,1032.000000,1649933321.612855,0.000000,0.000000,1.000000,0.000000,0.000000,0.000000,0.000000,3.394521,2.348848,-0.549825
1649933321.713204,1033.000000,1649933321.713003,0.000000,0.000000,1.000000,0.000000,0.000000,0.000000,0.000000,3.393191,2.349626,-0.559389
1649933321.813363,1034.000000,1649933321.813239,0.000000,0.000000,1.000000,0.000000,0.000000,0.000000,0.000000,3.393014,2.350384,-0.564523
1649933321.913088,1035.000000,1649933321.912917,0.000000,0.000000,1.000000,0.000000,0.000000,0.000000,0.000000,3.391746,2.348940,-0.573465
1649933322.013014,1036.000000,1649933322.012878,0.000000,0.000000,1.000000,0.000000,0.000000,0.000000,0.000000,3.391633,2.348687,-0.588463
1649933322.113163,1037.000000,1649933322.113006,0.000000,0.000000,1.000000,0.000000,0.000000,0.000000,0.000000,3.391522,2.349561,-0.598768
1649933322.213130,1038.000000,1649933322.212935,0.000000,0.000000,1.000000,0.000000,0.000000,0.000000,0.000000,3.391414,2.350405,-0.602940
1649933322.313038,1039.000000,1649933322.312893,0.000000,0.000000,1.000000,0.000000,0.000000,0.000000,0.000000,3.392399,2.352307,-0.600415
1649933322.413018,1040.000000,1649933322.412882,0.000000,0.000000,1.000000,0.000000,0.000000,0.000000,0.000000,3.393324,2.354114,-0.599536
1649933322.513012,1041.000000,1649933322.512869,0.000000,0.000000,1.000000,0.000000,0.000000,0.000000,0.000000,3.394190,2.354733,-0.598627
1649933322.613120,1042.000000,1649933322.612940,0.000000,0.000000,1.000000,0.000000,0.000000,0.000000,0.000000,3.392818,2.354227,-0.599308
1649933322.713187,1043.000000,1649933322.713010,0.000000,0.000000,1.000000,0.000000,0.000000,0.000000,0.000000,3.391515,2.354841,-0.598289
1649933322.813385,1044.000000,1649933322.813234,0.000000,0.000000,1.000000,0.000000,0.000000,0.000000,0.000000,3.389191,2.353239,-0.599676
1649933322.913065,1045.000000,1649933322.912943,0.000000,0.000000,1.000000,0.000000,0.000000,0.000000,0.000000,3.386999,2.351728,-0.600146
1649933323.013369,1046.000000,1649933323.013083,0.000000,0.000000,1.000000,0.000000,0.000000,0.000000,0.000000,3.384940,2.351399,-0.596511
1649933323.112982,1047.000000,1649933323.112865,0.000000,0.000000,1.000000,0.000000,0.000000,0.000000,0.000000,3.384102,2.352187,-0.592978
1649933323.213105,1048.000000,1649933323.212960,0.000000,0.000000,1.000000,0.000000,0.000000,0.000000,0.000000,3.383329,2.352939,-0.594389
1649933323.313080,1049.000000,1649933323.312952,0.000000,0.000000,1.000000,0.000000,0.000000,0.000000,0.000000,3.381529,2.353653,-0.594899
1649933323.413245,1050.000000,1649933323.413034,0.000000,0.000000,1.000000,0.000000,0.000000,0.000000,0.000000,3.380943,2.354329,-0.596964
1649933323.512923,1051.000000,1649933323.512805,0.000000,0.000000,1.000000,0.000000,0.000000,0.000000,0.000000,3.379325,2.354967,-0.601325
1649933323.613121,1052.000000,1649933323.612956,0.000000,0.000000,1.000000,0.000000,0.000000,0.000000,0.000000,3.378915,2.355567,-0.605467
1649933323.712980,1053.000000,1649933323.712820,0.000000,0.000000,1.000000,0.000000,0.000000,0.000000,0.000000,3.378556,2.356130,-0.606165
1649933323.812984,1054.000000,1649933323.812823,0.000000,0.000000,1.000000,0.000000,0.000000,0.000000,0.000000,3.378246,2.356655,-0.608399
1649933323.912892,1055.000000,1649933323.912748,0.000000,0.000000,1.000000,0.000000,0.000000,0.000000,0.000000,3.379071,2.356054,-0.611299
1649933324.013148,1056.000000,1649933324.013027,0.000000,0.000000,1.000000,0.000000,0.000000,0.000000,0.000000,3.379874,2.355481,-0.611609
1649933324.112904,1057.000000,1649933324.112784,0.000000,0.000000,1.000000,0.000000,0.000000,0.000000,0.000000,3.379564,2.354935,-0.616693
1649933324.212870,1058.000000,1649933324.212752,0.000000,0.000000,1.000000,0.000000,0.000000,0.000000,0.000000,3.380380,2.354418,-0.619902
1649933324.313084,1059.000000,1649933324.312873,0.000000,0.000000,1.000000,0.000000,0.000000,0.000000,0.000000,3.380078,2.353929,-0.625339
1649933324.412987,1060.000000,1649933324.412851,0.000000,0.000000,1.000000,0.000000,0.000000,0.000000,0.000000,3.379808,2.353469,-0.628876
1649933324.513097,1061.000000,1649933324.512939,0.000000,0.000000,1.000000,0.000000,0.000000,0.000000,0.000000,3.377388,2.353038,-0.628973
1649933324.613062,1062.000000,1649933324.612896,0.000000,0.000000,1.000000,0.000000,0.000000,0.000000,0.000000,3.376212,2.352634,-0.629805
