__time,/dwm1001/id_458E/pose_kf/header/seq,/dwm1001/id_458E/pose_kf/header/stamp,/dwm1001/id_458E/pose_kf/pose/orientation/pitch_deg,/dwm1001/id_458E/pose_kf/pose/orientation/roll_deg,/dwm1001/id_458E/pose_kf/pose/orientation/w,/dwm1001/id_458E/pose_kf/pose/orientation/x,/dwm1001/id_458E/pose_kf/pose/orientation/y,/dwm1001/id_458E/pose_kf/pose/orientation/yaw_deg,/dwm1001/id_458E/pose_kf/pose/orientation/z,/dwm1001/id_458E/pose_kf/pose/position/x,/dwm1001/id_458E/pose_kf/pose/position/y,/dwm1001/id_458E/pose_kf/pose/position/z
1650625549.307719,3607.000000,1650625549.307364,0.000000,0.000000,1.000000,0.000000,0.000000,0.000000,0.000000,0.629963,24.007587,-0.979380
1650625549.407238,3608.000000,1650625549.407069,0.000000,0.000000,1.000000,0.000000,0.000000,0.000000,0.000000,0.628322,24.007961,-0.973751
1650625549.507277,3609.000000,1650625549.507117,0.000000,0.000000,1.000000,0.000000,0.000000,0.000000,0.000000,0.627897,24.007216,-0.975652
1650625549.607363,3610.000000,1650625549.607214,0.000000,0.000000,1.000000,0.000000,0.000000,0.000000,0.000000,0.627532,24.006507,-0.978322
1650625549.707293,3611.000000,1650625549.707130,0.000000,0.000000,1.000000,0.000000,0.000000,0.000000,0.000000,0.622861,24.009106,-0.932531
1650625549.807373,3612.000000,1650625549.807211,0.000000,0.000000,1.000000,0.000000,0.000000,0.000000,0.000000,0.618492,24.011553,-0.900792
1650625549.907432,3613.000000,1650625549.907245,0.000000,0.000000,1.000000,0.000000,0.000000,0.000000,0.000000,0.618782,24.012758,-0.884201
1650625550.007417,3614.000000,1650625550.007219,0.000000,0.000000,1.000000,0.000000,0.000000,0.000000,0.000000,0.620201,24.011698,-0.871685
1650625550.107522,3615.000000,1650625550.107233,0.000000,0.000000,1.000000,0.000000,0.000000,0.000000,0.000000,0.622680,24.010679,-0.868738
1650625550.207271,3616.000000,1650625550.207073,0.000000,0.000000,1.000000,0.000000,0.000000,0.000000,0.000000,0.626152,24.008613,-0.866908
1650625550.307257,3617.000000,1650625550.307104,0.000000,0.000000,1.000000,0.000000,0.000000,0.000000,0.000000,0.630548,24.006656,-0.868563
1650625550.407203,3618.000000,1650625550.407036,0.000000,0.000000,1.000000,0.000000,0.000000,0.000000,0.000000,0.635804,24.004807,-0.875166
1650625550.507277,3619.000000,1650625550.507099,0.000000,0.000000,1.000000,0.000000,0.000000,0.000000,0.000000,0.640764,24.001977,-0.875208
1650625550.607270,3620.000000,1650625550.607096,0.000000,0.000000,1.000000,0.000000,0.000000,0.000000,0.000000,0.646521,23.999316,-0.878624
1650625550.707298,3621.000000,1650625550.707106,0.000000,0.000000,1.000000,0.000000,0.000000,0.000000,0.000000,0.648653,23.996824,-0.878008
1650625550.807759,3622.000000,1650625550.807503,0.000000,0.000000,1.000000,0.000000,0.000000,0.000000,0.000000,0.651714,23.995589,-0.886421
1650625550.908010,3623.000000,1650625550.907729,0.000000,0.000000,1.000000,0.000000,0.000000,0.000000,0.000000,0.653466,23.993362,-0.889770
1650625551.007531,3624.000000,1650625551.007364,0.000000,0.000000,1.000000,0.000000,0.000000,0.000000,0.000000,0.657249,23.991295,-0.902765
1650625551.107541,3625.000000,1650625551.107323,0.000000,0.000000,1.000000,0.000000,0.000000,0.000000,0.000000,0.661853,23.990472,-0.922570
1650625551.207544,3626.000000,1650625551.207358,0.000000,0.000000,1.000000,0.000000,0.000000,0.000000,0.000000,0.667222,23.989736,-0.941617
1650625551.307647,3627.000000,1650625551.307439,0.000000,0.000000,1.000000,0.000000,0.000000,0.000000,0.000000,0.668941,23.989081,-0.961515
1650625551.407696,3628.000000,1650625551.407411,0.000000,0.000000,1.000000,0.000000,0.000000,0.000000,0.000000,0.667208,23.988504,-0.979776
1650625551.507635,3629.000000,1650625551.507437,0.000000,0.000000,1.000000,0.000000,0.000000,0.000000,0.000000,0.667674,23.987999,-0.999663
1650625551.607665,3630.000000,1650625551.607438,0.000000,0.000000,1.000000,0.000000,0.000000,0.000000,0.000000,0.669131,23.988653,-1.025111
1650625551.708075,3631.000000,1650625551.707670,0.000000,0.000000,1.000000,0.000000,0.000000,0.000000,0.000000,0.672615,23.988216,-1.046178
1650625551.807225,3632.000000,1650625551.807068,0.000000,0.000000,1.000000,0.000000,0.000000,0.000000,0.000000,0.675829,23.987838,-1.067044
1650625551.907213,3633.000000,1650625551.907060,0.000000,0.000000,1.000000,0.000000,0.000000,0.000000,0.000000,0.676601,23.987514,-1.086882
1650625552.007218,3634.000000,1650625552.007064,0.000000,0.000000,1.000000,0.000000,0.000000,0.000000,0.000000,0.677247,23.987242,-1.108932
1650625552.107310,3635.000000,1650625552.107148,0.000000,0.000000,1.000000,0.000000,0.000000,0.000000,0.000000,0.677777,23.987017,-1.122594
1650625552.207359,3636.000000,1650625552.207179,0.000000,0.000000,1.000000,0.000000,0.000000,0.000000,0.000000,0.674929,23.986835,-1.132224
1650625552.307528,3637.000000,1650625552.307366,0.000000,0.000000,1.000000,0.000000,0.000000,0.000000,0.000000,0.667810,23.988873,-1.092012
1650625552.407534,3638.000000,1650625552.407358,0.000000,0.000000,1.000000,0.000000,0.000000,0.000000,0.000000,0.664312,23.990822,-1.066143
1650625552.507779,3639.000000,1650625552.507554,0.000000,0.000000,1.000000,0.000000,0.000000,0.000000,0.000000,0.660980,23.991589,-1.047638
1650625552.607276,3640.000000,1650625552.607112,0.000000,0.000000,1.000000,0.000000,0.000000,0.000000,0.000000,0.661087,23.991235,-1.033818
1650625552.707267,3641.000000,1650625552.707045,0.000000,0.000000,1.000000,0.000000,0.000000,0.000000,0.000000,0.660085,23.990912,-1.023716
1650625552.807203,3642.000000,1650625552.807031,0.000000,0.000000,1.000000,0.000000,0.000000,0.000000,0.000000,0.660219,23.989528,-1.016394
1650625552.907752,3643.000000,1650625552.907486,0.000000,0.000000,1.000000,0.000000,0.000000,0.000000,0.000000,0.658157,23.988235,-1.007723
1650625553.007673,3644.000000,1650625553.007488,0.000000,0.000000,1.000000,0.000000,0.000000,0.000000,0.000000,0.657295,23.988121,-1.007451
1650625553.107698,3645.000000,1650625553.107479,0.000000,0.000000,1.000000,0.000000,0.000000,0.000000,0.000000,0.649940,23.991303,-0.961207
1650625553.207645,3646.000000,1650625553.207437,0.000000,0.000000,1.000000,0.000000,0.000000,0.000000,0.000000,0.644099,23.993228,-0.928183
1650625553.308303,3647.000000,1650625553.308142,0.000000,0.000000,1.000000,0.000000,0.000000,0.000000,0.000000,0.633166,23.998320,-0.858704
1650625553.407666,3648.000000,1650625553.407492,0.000000,0.000000,1.000000,0.000000,0.000000,0.000000,0.000000,0.626173,24.002028,-0.813224
1650625553.507561,3649.000000,1650625553.507328,0.000000,0.000000,1.000000,0.000000,0.000000,0.000000,0.000000,0.622923,24.004418,-0.790037
1650625553.607568,3650.000000,1650625553.607354,0.000000,0.000000,1.000000,0.000000,0.000000,0.000000,0.000000,0.621036,24.007736,-0.785045
1650625553.707640,3651.000000,1650625553.707437,0.000000,0.000000,1.000000,0.000000,0.000000,0.000000,0.000000,0.622620,24.010832,-0.793477
1650625553.807727,3652.000000,1650625553.807436,0.000000,0.000000,1.000000,0.000000,0.000000,0.000000,0.000000,0.623113,24.012620,-0.804281
1650625553.907757,3653.000000,1650625553.907465,0.000000,0.000000,1.000000,0.000000,0.000000,0.000000,0.000000,0.623659,24.013170,-0.816524
1650625554.007847,3654.000000,1650625554.007590,0.000000,0.000000,1.000000,0.000000,0.000000,0.000000,0.000000,0.626428,24.012549,-0.831729
1650625554.108162,3655.000000,1650625554.107708,0.000000,0.000000,1.000000,0.000000,0.000000,0.000000,0.000000,0.629107,24.010827,-0.845709
1650625554.207494,3656.000000,1650625554.207285,0.000000,0.000000,1.000000,0.000000,0.000000,0.000000,0.000000,0.631688,24.009161,-0.856062
1650625554.307552,3657.000000,1650625554.307367,0.000000,0.000000,1.000000,0.000000,0.000000,0.000000,0.000000,0.638528,24.008647,-0.875814
1650625554.407517,3658.000000,1650625554.407338,0.000000,0.000000,1.000000,0.000000,0.000000,0.000000,0.000000,0.643918,24.007044,-0.895675
1650625554.507623,3659.000000,1650625554.507449,0.000000,0.000000,1.000000,0.000000,0.000000,0.000000,0.000000,0.650101,24.004419,-0.910764
1650625554.607685,3660.000000,1650625554.607431,0.000000,0.000000,1.000000,0.000000,0.000000,0.000000,0.000000,0.655923,24.001926,-0.922858
1650625554.707447,3661.000000,1650625554.707235,0.000000,0.000000,1.000000,0.000000,0.000000,0.000000,0.000000,0.647213,24.002838,-0.890927
1650625554.807472,3662.000000,1650625554.807244,0.000000,0.000000,1.000000,0.000000,0.000000,0.000000,0.000000,0.642238,24.003695,-0.871638
1650625554.907630,3663.000000,1650625554.907308,0.000000,0.000000,1.000000,0.000000,0.000000,0.000000,0.000000,0.637540,24.004499,-0.863705
1650625555.007326,3664.000000,1650625555.007121,0.000000,0.000000,1.000000,0.000000,0.000000,0.000000,0.000000,0.634208,24.006340,-0.865874
1650625555.107548,3665.000000,1650625555.107309,0.000000,0.000000,1.000000,0.000000,0.000000,0.000000,0.000000,0.629997,24.005885,-0.868857
1650625555.207708,3666.000000,1650625555.207507,0.000000,0.000000,1.000000,0.000000,0.000000,0.000000,0.000000,0.628237,24.006534,-0.879065
1650625555.307330,3667.000000,1650625555.307144,0.000000,0.000000,1.000000,0.000000,0.000000,0.000000,0.000000,0.626617,24.006043,-0.884089
1650625555.407315,3668.000000,1650625555.407131,0.000000,0.000000,1.000000,0.000000,0.000000,0.000000,0.000000,0.625132,24.005568,-0.892997
1650625555.507307,3669.000000,1650625555.507122,0.000000,0.000000,1.000000,0.000000,0.000000,0.000000,0.000000,0.624867,24.004019,-0.904003
1650625555.607252,3670.000000,1650625555.607122,0.000000,0.000000,1.000000,0.000000,0.000000,0.000000,0.000000,0.622482,24.003641,-0.917808
1650625555.708203,3671.000000,1650625555.707935,0.000000,0.000000,1.000000,0.000000,0.000000,0.000000,0.000000,0.621370,24.003281,-0.932663
1650625555.807571,3672.000000,1650625555.807351,0.000000,0.000000,1.000000,0.000000,0.000000,0.000000,0.000000,0.622551,24.002940,-0.952532
1650625555.907491,3673.000000,1650625555.907336,0.000000,0.000000,1.000000,0.000000,0.000000,0.000000,0.000000,0.622622,24.002618,-0.968310
1650625556.007292,3674.000000,1650625556.007135,0.000000,0.000000,1.000000,0.000000,0.000000,0.000000,0.000000,0.627094,24.002314,-0.985783
1650625556.107306,3675.000000,1650625556.107146,0.000000,0.000000,1.000000,0.000000,0.000000,0.000000,0.000000,0.631348,24.002029,-1.002438
1650625556.207370,3676.000000,1650625556.207206,0.000000,0.000000,1.000000,0.000000,0.000000,0.000000,0.000000,0.634291,23.999582,-1.014252
1650625556.307337,3677.000000,1650625556.307160,0.000000,0.000000,1.000000,0.000000,0.000000,0.000000,0.000000,0.638165,23.997278,-1.027050
1650625556.407369,3678.000000,1650625556.407191,0.000000,0.000000,1.000000,0.000000,0.000000,0.000000,0.000000,0.640727,23.996207,-1.040778
1650625556.507883,3679.000000,1650625556.507442,0.000000,0.000000,1.000000,0.000000,0.000000,0.000000,0.000000,0.639859,23.995213,-1.054575
1650625556.607287,3680.000000,1650625556.607104,0.000000,0.000000,1.000000,0.000000,0.000000,0.000000,0.000000,0.633573,23.995386,-1.017617
1650625556.707644,3681.000000,1650625556.707408,0.000000,0.000000,1.000000,0.000000,0.000000,0.000000,0.000000,0.625453,23.995569,-0.990892
1650625556.807568,3682.000000,1650625556.807388,0.000000,0.000000,1.000000,0.000000,0.000000,0.000000,0.000000,0.610175,23.999031,-0.927263
1650625556.907631,3683.000000,1650625556.907434,0.000000,0.000000,1.000000,0.000000,0.000000,0.000000,0.000000,0.601258,24.002310,-0.886393
1650625557.007614,3684.000000,1650625557.007433,0.000000,0.000000,1.000000,0.000000,0.000000,0.000000,0.000000,0.594018,24.005406,-0.865014
1650625557.107635,3685.000000,1650625557.107458,0.000000,0.000000,1.000000,0.000000,0.000000,0.000000,0.000000,0.590562,24.008319,-0.856727
1650625557.207659,3686.000000,1650625557.207490,0.000000,0.000000,1.000000,0.000000,0.000000,0.000000,0.000000,0.590688,24.009961,-0.856175
1650625557.308189,3687.000000,1650625557.307968,0.000000,0.000000,1.000000,0.000000,0.000000,0.000000,0.000000,0.593102,24.012577,-0.865458
1650625557.407568,3688.000000,1650625557.407331,0.000000,0.000000,1.000000,0.000000,0.000000,0.000000,0.000000,0.597666,24.012837,-0.878516
1650625557.507621,3689.000000,1650625557.507352,0.000000,0.000000,1.000000,0.000000,0.000000,0.000000,0.000000,0.603152,24.011960,-0.895168
1650625557.607546,3690.000000,1650625557.607382,0.000000,0.000000,1.000000,0.000000,0.000000,0.000000,0.000000,0.611668,24.011103,-0.917657
1650625557.707633,3691.000000,1650625557.707404,0.000000,0.000000,1.000000,0.000000,0.000000,0.000000,0.000000,0.617568,24.009180,-0.931997
1650625557.807699,3692.000000,1650625557.807428,0.000000,0.000000,1.000000,0.000000,0.000000,0.000000,0.000000,0.623155,24.006255,-0.944138
1650625557.907768,3693.000000,1650625557.907551,0.000000,0.000000,1.000000,0.000000,0.000000,0.000000,0.000000,0.630608,24.004575,-0.958180
1650625558.007656,3694.000000,1650625558.007485,0.000000,0.000000,1.000000,0.000000,0.000000,0.000000,0.000000,0.634351,24.002986,-0.969990
1650625558.108081,3695.000000,1650625558.107883,0.000000,0.000000,1.000000,0.000000,0.000000,0.000000,0.000000,0.637847,24.001488,-0.983675
1650625558.207608,3696.000000,1650625558.207402,0.000000,0.000000,1.000000,0.000000,0.000000,0.000000,0.000000,0.642192,24.001172,-1.004783
1650625558.307813,3697.000000,1650625558.307622,0.000000,0.000000,1.000000,0.000000,0.000000,0.000000,0.000000,0.647329,24.000883,-1.026530
1650625558.407230,3698.000000,1650625558.407037,0.000000,0.000000,1.000000,0.000000,0.000000,0.000000,0.000000,0.653201,24.000620,-1.048861
1650625558.507409,3699.000000,1650625558.507226,0.000000,0.000000,1.000000,0.000000,0.000000,0.000000,0.000000,0.658665,23.999291,-1.065268
1650625558.607306,3700.000000,1650625558.607139,0.000000,0.000000,1.000000,0.000000,0.000000,0.000000,0.000000,0.662639,23.995868,-1.070324
1650625558.707269,3701.000000,1650625558.707091,0.000000,0.000000,1.000000,0.000000,0.000000,0.000000,0.000000,0.668471,23.993746,-1.078198
1650625558.807273,3702.000000,1650625558.807094,0.000000,0.000000,1.000000,0.000000,0.000000,0.000000,0.000000,0.672774,23.991768,-1.087157
1650625558.908158,3703.000000,1650625558.908001,0.000000,0.000000,1.000000,0.000000,0.000000,0.000000,0.000000,0.675626,23.991023,-1.092313
1650625559.007572,3704.000000,1650625559.007377,0.000000,0.000000,1.000000,0.000000,0.000000,0.000000,0.000000,0.676014,23.991443,-1.102690
1650625559.107524,3705.000000,1650625559.107349,0.000000,0.000000,1.000000,0.000000,0.000000,0.000000,0.000000,0.676259,23.991871,-1.112425
1650625559.207534,3706.000000,1650625559.207356,0.000000,0.000000,1.000000,0.000000,0.000000,0.000000,0.000000,0.677465,23.991213,-1.120730
1650625559.307602,3707.000000,1650625559.307411,0.000000,0.000000,1.000000,0.000000,0.000000,0.000000,0.000000,0.670861,23.992800,-1.080883
1650625559.407621,3708.000000,1650625559.407429,0.000000,0.000000,1.000000,0.000000,0.000000,0.000000,0.000000,0.667801,23.995412,-1.061033
1650625559.507756,3709.000000,1650625559.507569,0.000000,0.000000,1.000000,0.000000,0.000000,0.000000,0.000000,0.668108,23.996804,-1.048316
1650625559.607806,3710.000000,1650625559.607542,0.000000,0.000000,1.000000,0.000000,0.000000,0.000000,0.000000,0.669422,23.998128,-1.039246
1650625559.708125,3711.000000,1650625559.707890,0.000000,0.000000,1.000000,0.000000,0.000000,0.000000,0.000000,0.670595,23.998291,-1.033695
1650625559.807589,3712.000000,1650625559.807385,0.000000,0.000000,1.000000,0.000000,0.000000,0.000000,0.000000,0.671637,23.997357,-1.027502
1650625559.907640,3713.000000,1650625559.907454,0.000000,0.000000,1.000000,0.000000,0.000000,0.000000,0.000000,0.672555,23.997568,-1.027963
1650625560.007638,3714.000000,1650625560.007478,0.000000,0.000000,1.000000,0.000000,0.000000,0.000000,0.000000,0.672267,23.996682,-1.018683
1650625560.107590,3715.000000,1650625560.107429,0.000000,0.000000,1.000000,0.000000,0.000000,0.000000,0.000000,0.671933,23.996941,-1.025071
1650625560.207598,3716.000000,1650625560.207440,0.000000,0.000000,1.000000,0.000000,0.000000,0.000000,0.000000,0.670469,24.000462,-1.040842
1650625560.307661,3717.000000,1650625560.307462,0.000000,0.000000,1.000000,0.000000,0.000000,0.000000,0.000000,0.666856,24.004875,-1.063172
1650625560.407736,3718.000000,1650625560.407501,0.000000,0.000000,1.000000,0.000000,0.000000,0.000000,0.000000,0.664495,24.007937,-1.081278
1650625560.507853,3719.000000,1650625560.507682,0.000000,0.000000,1.000000,0.000000,0.000000,0.000000,0.000000,0.664418,24.009714,-1.093692
1650625560.607369,3720.000000,1650625560.607116,0.000000,0.000000,1.000000,0.000000,0.000000,0.000000,0.000000,0.666503,24.010272,-1.108690
1650625560.707302,3721.000000,1650625560.707128,0.000000,0.000000,1.000000,0.000000,0.000000,0.000000,0.000000,0.667355,24.009677,-1.118892
1650625560.807318,3722.000000,1650625560.807139,0.000000,0.000000,1.000000,0.000000,0.000000,0.000000,0.000000,0.668130,24.009086,-1.128512
1650625560.907367,3723.000000,1650625560.907155,0.000000,0.000000,1.000000,0.000000,0.000000,0.000000,0.000000,0.666652,24.008502,-1.138372
1650625561.007401,3724.000000,1650625561.007191,0.000000,0.000000,1.000000,0.000000,0.000000,0.000000,0.000000,0.664140,24.007928,-1.145225
1650625561.107364,3725.000000,1650625561.107161,0.000000,0.000000,1.000000,0.000000,0.000000,0.000000,0.000000,0.660660,24.009548,-1.157255
1650625561.207322,3726.000000,1650625561.207145,0.000000,0.000000,1.000000,0.000000,0.000000,0.000000,0.000000,0.659547,24.011057,-1.173435
1650625561.307770,3727.000000,1650625561.307578,0.000000,0.000000,1.000000,0.000000,0.000000,0.000000,0.000000,0.659585,24.012457,-1.185512
1650625561.407604,3728.000000,1650625561.407426,0.000000,0.000000,1.000000,0.000000,0.000000,0.000000,0.000000,0.659622,24.011572,-1.191223
1650625561.507585,3729.000000,1650625561.507395,0.000000,0.000000,1.000000,0.000000,0.000000,0.000000,0.000000,0.659658,24.011800,-1.194857
1650625561.607549,3730.000000,1650625561.607369,0.000000,0.000000,1.000000,0.000000,0.000000,0.000000,0.000000,0.659691,24.010902,-1.197306
1650625561.707672,3731.000000,1650625561.707468,0.000000,0.000000,1.000000,0.000000,0.000000,0.000000,0.000000,0.659723,24.008943,-1.199432
1650625561.807670,3732.000000,1650625561.807472,0.000000,0.000000,1.000000,0.000000,0.000000,0.000000,0.000000,0.657573,24.009260,-1.202865
1650625561.907305,3733.000000,1650625561.907143,0.000000,0.000000,1.000000,0.000000,0.000000,0.000000,0.000000,0.657727,24.010636,-1.211589
1650625562.007309,3734.000000,1650625562.007123,0.000000,0.000000,1.000000,0.000000,0.000000,0.000000,0.000000,0.657878,24.010831,-1.217321
1650625562.107785,3735.000000,1650625562.107435,0.000000,0.000000,1.000000,0.000000,0.000000,0.000000,0.000000,0.651484,24.013181,-1.173406
1650625562.207242,3736.000000,1650625562.207089,0.000000,0.000000,1.000000,0.000000,0.000000,0.000000,0.000000,0.646554,24.015380,-1.144025
1650625562.307251,3737.000000,1650625562.307105,0.000000,0.000000,1.000000,0.000000,0.000000,0.000000,0.000000,0.640841,24.016341,-1.123004
1650625562.407214,3738.000000,1650625562.407066,0.000000,0.000000,1.000000,0.000000,0.000000,0.000000,0.000000,0.637675,24.018310,-1.115690
1650625562.507296,3739.000000,1650625562.507138,0.000000,0.000000,1.000000,0.000000,0.000000,0.000000,0.000000,0.635833,24.019048,-1.107029
1650625562.607298,3740.000000,1650625562.607144,0.000000,0.000000,1.000000,0.000000,0.000000,0.000000,0.000000,0.635245,24.019712,-1.102735
1650625562.707795,3741.000000,1650625562.707592,0.000000,0.000000,1.000000,0.000000,0.000000,0.000000,0.000000,0.636933,24.020305,-1.105061
1650625562.807642,3742.000000,1650625562.807475,0.000000,0.000000,1.000000,0.000000,0.000000,0.000000,0.000000,0.638581,24.019741,-1.103251
1650625562.908090,3743.000000,1650625562.907914,0.000000,0.000000,1.000000,0.000000,0.000000,0.000000,0.000000,0.641275,24.016996,-1.095057
1650625563.007357,3744.000000,1650625563.007152,0.000000,0.000000,1.000000,0.000000,0.000000,0.000000,0.000000,0.644946,24.013291,-1.082363
1650625563.107344,3745.000000,1650625563.107160,0.000000,0.000000,1.000000,0.000000,0.000000,0.000000,0.000000,0.647347,24.010870,-1.076661
1650625563.207258,3746.000000,1650625563.207076,0.000000,0.000000,1.000000,0.000000,0.000000,0.000000,0.000000,0.650720,24.007491,-1.070421
1650625563.307578,3747.000000,1650625563.307352,0.000000,0.000000,1.000000,0.000000,0.000000,0.000000,0.000000,0.653909,24.005399,-1.067705
1650625563.407346,3748.000000,1650625563.407143,0.000000,0.000000,1.000000,0.000000,0.000000,0.000000,0.000000,0.654733,24.004528,-1.061922
1650625563.507539,3749.000000,1650625563.507331,0.000000,0.000000,1.000000,0.000000,0.000000,0.000000,0.000000,0.658772,24.003723,-1.063688
1650625563.607629,3750.000000,1650625563.607431,0.000000,0.000000,1.000000,0.000000,0.000000,0.000000,0.000000,0.659296,24.002983,-1.067853
1650625563.707716,3751.000000,1650625563.707453,0.000000,0.000000,1.000000,0.000000,0.000000,0.000000,0.000000,0.664129,24.001215,-1.075120
1650625563.807418,3752.000000,1650625563.807195,0.000000,0.000000,1.000000,0.000000,0.000000,0.000000,0.000000,0.665389,24.000659,-1.082121
1650625563.907250,3753.000000,1650625563.907062,0.000000,0.000000,1.000000,0.000000,0.000000,0.000000,0.000000,0.667631,23.997978,-1.086437
1650625564.007246,3754.000000,1650625564.007051,0.000000,0.000000,1.000000,0.000000,0.000000,0.000000,0.000000,0.671888,23.996567,-1.095425
1650625564.107332,3755.000000,1650625564.107132,0.000000,0.000000,1.000000,0.000000,0.000000,0.000000,0.000000,0.674767,23.996360,-1.105656
1650625564.207405,3756.000000,1650625564.207217,0.000000,0.000000,1.000000,0.000000,0.000000,0.000000,0.000000,0.675247,23.997288,-1.120288
1650625564.307364,3757.000000,1650625564.307189,0.000000,0.000000,1.000000,0.000000,0.000000,0.000000,0.000000,0.674551,23.998195,-1.133475
1650625564.407357,3758.000000,1650625564.407113,0.000000,0.000000,1.000000,0.000000,0.000000,0.000000,0.000000,0.673839,23.997986,-1.135577
1650625564.507575,3759.000000,1650625564.507306,0.000000,0.000000,1.000000,0.000000,0.000000,0.000000,0.000000,0.673119,23.996723,-1.139138
1650625564.607654,3760.000000,1650625564.607496,0.000000,0.000000,1.000000,0.000000,0.000000,0.000000,0.000000,0.673484,23.995556,-1.147321
1650625564.707530,3761.000000,1650625564.707347,0.000000,0.000000,1.000000,0.000000,0.000000,0.000000,0.000000,0.666155,23.997751,-1.103477
1650625564.807507,3762.000000,1650625564.807364,0.000000,0.000000,1.000000,0.000000,0.000000,0.000000,0.000000,0.661390,23.998757,-1.070265
1650625564.907632,3763.000000,1650625564.907475,0.000000,0.000000,1.000000,0.000000,0.000000,0.000000,0.000000,0.656884,23.998634,-1.043282
1650625565.007502,3764.000000,1650625565.007324,0.000000,0.000000,1.000000,0.000000,0.000000,0.000000,0.000000,0.654817,23.996352,-1.015061
1650625565.107521,3765.000000,1650625565.107361,0.000000,0.000000,1.000000,0.000000,0.000000,0.000000,0.000000,0.651793,23.995306,-0.999406
1650625565.207625,3766.000000,1650625565.207365,0.000000,0.000000,1.000000,0.000000,0.000000,0.000000,0.000000,0.650051,23.994341,-0.994218
1650625565.307832,3767.000000,1650625565.307461,0.000000,0.000000,1.000000,0.000000,0.000000,0.000000,0.000000,0.640804,23.996725,-0.945046
1650625565.407396,3768.000000,1650625565.407167,0.000000,0.000000,1.000000,0.000000,0.000000,0.000000,0.000000,0.635390,23.998996,-0.912609
1650625565.507351,3769.000000,1650625565.507159,0.000000,0.000000,1.000000,0.000000,0.000000,0.000000,0.000000,0.631435,24.000060,-0.884989
1650625565.607274,3770.000000,1650625565.607099,0.000000,0.000000,1.000000,0.000000,0.000000,0.000000,0.000000,0.619052,24.003252,-0.820089
1650625565.707372,3771.000000,1650625565.707194,0.000000,0.000000,1.000000,0.000000,0.000000,0.000000,0.000000,0.611821,24.005174,-0.777574
1650625565.807341,3772.000000,1650625565.807154,0.000000,0.000000,1.000000,0.000000,0.000000,0.000000,0.000000,0.610568,24.005889,-0.755790
1650625565.907590,3773.000000,1650625565.907418,0.000000,0.000000,1.000000,0.000000,0.000000,0.000000,0.000000,0.610600,24.007643,-0.753113
1650625566.007619,3774.000000,1650625566.007425,0.000000,0.000000,1.000000,0.000000,0.000000,0.000000,0.000000,0.609661,24.007102,-0.753433
1650625566.107698,3775.000000,1650625566.107398,0.000000,0.000000,1.000000,0.000000,0.000000,0.000000,0.000000,0.608889,24.006575,-0.758222
1650625566.207341,3776.000000,1650625566.207165,0.000000,0.000000,1.000000,0.000000,0.000000,0.000000,0.000000,0.609362,24.006065,-0.760016
1650625566.307286,3777.000000,1650625566.307141,0.000000,0.000000,1.000000,0.000000,0.000000,0.000000,0.000000,0.611004,24.005572,-0.770204
1650625566.407277,3778.000000,1650625566.407106,0.000000,0.000000,1.000000,0.000000,0.000000,0.000000,0.000000,0.612649,24.005098,-0.781963
1650625566.507311,3779.000000,1650625566.507147,0.000000,0.000000,1.000000,0.000000,0.000000,0.000000,0.000000,0.614286,24.002462,-0.791160
1650625566.607265,3780.000000,1650625566.607097,0.000000,0.000000,1.000000,0.000000,0.000000,0.000000,0.000000,0.615907,24.002154,-0.807548
1650625566.707263,3781.000000,1650625566.707097,0.000000,0.000000,1.000000,0.000000,0.000000,0.000000,0.000000,0.619684,24.002956,-0.830797
1650625566.807312,3782.000000,1650625566.807165,0.000000,0.000000,1.000000,0.000000,0.000000,0.000000,0.000000,0.624393,24.001534,-0.846062
1650625566.908164,3783.000000,1650625566.907924,0.000000,0.000000,1.000000,0.000000,0.000000,0.000000,0.000000,0.628875,24.000194,-0.862502
1650625567.007250,3784.000000,1650625567.007096,0.000000,0.000000,1.000000,0.000000,0.000000,0.000000,0.000000,0.633127,23.997846,-0.874389
1650625567.107253,3785.000000,1650625567.107112,0.000000,0.000000,1.000000,0.000000,0.000000,0.000000,0.000000,0.638239,23.995642,-0.885912
1650625567.207304,3786.000000,1650625567.207163,0.000000,0.000000,1.000000,0.000000,0.000000,0.000000,0.000000,0.643055,23.994670,-0.899482
1650625567.307690,3787.000000,1650625567.307493,0.000000,0.000000,1.000000,0.000000,0.000000,0.000000,0.000000,0.648670,23.994865,-0.916602
1650625567.407415,3788.000000,1650625567.407208,0.000000,0.000000,1.000000,0.000000,0.000000,0.000000,0.000000,0.653932,23.993980,-0.930646
1650625567.507447,3789.000000,1650625567.507288,0.000000,0.000000,1.000000,0.000000,0.000000,0.000000,0.000000,0.659938,23.994258,-0.948163
1650625567.607463,3790.000000,1650625567.607316,0.000000,0.000000,1.000000,0.000000,0.000000,0.000000,0.000000,0.665541,23.992360,-0.956080
1650625567.707782,3791.000000,1650625567.707467,0.000000,0.000000,1.000000,0.000000,0.000000,0.000000,0.000000,0.668569,23.990592,-0.964451
1650625567.807380,3792.000000,1650625567.807126,0.000000,0.000000,1.000000,0.000000,0.000000,0.000000,0.000000,0.670248,23.990040,-0.979694
1650625567.907299,3793.000000,1650625567.907121,0.000000,0.000000,1.000000,0.000000,0.000000,0.000000,0.000000,0.664110,23.992820,-0.948283
1650625568.007350,3794.000000,1650625568.007093,0.000000,0.000000,1.000000,0.000000,0.000000,0.000000,0.000000,0.660419,23.993286,-0.931027
1650625568.107372,3795.000000,1650625568.107143,0.000000,0.000000,1.000000,0.000000,0.000000,0.000000,0.000000,0.657966,23.993744,-0.924964
1650625568.207354,3796.000000,1650625568.207149,0.000000,0.000000,1.000000,0.000000,0.000000,0.000000,0.000000,0.649063,23.996372,-0.878848
1650625568.307961,3797.000000,1650625568.307695,0.000000,0.000000,1.000000,0.000000,0.000000,0.000000,0.000000,0.643904,23.999953,-0.854853
1650625568.407325,3798.000000,1650625568.407074,0.000000,0.000000,1.000000,0.000000,0.000000,0.000000,0.000000,0.643392,24.001151,-0.843253
1650625568.507867,3799.000000,1650625568.507450,0.000000,0.000000,1.000000,0.000000,0.000000,0.000000,0.000000,0.641825,24.002275,-0.840337
1650625568.607322,3800.000000,1650625568.607126,0.000000,0.000000,1.000000,0.000000,0.000000,0.000000,0.000000,0.634902,24.005505,-0.794141
1650625568.707400,3801.000000,1650625568.707211,0.000000,0.000000,1.000000,0.000000,0.000000,0.000000,0.000000,0.630570,24.006356,-0.766158
1650625568.807297,3802.000000,1650625568.807152,0.000000,0.000000,1.000000,0.000000,0.000000,0.000000,0.000000,0.628698,24.006048,-0.753273
1650625568.907304,3803.000000,1650625568.907139,0.000000,0.000000,1.000000,0.000000,0.000000,0.000000,0.000000,0.629156,24.004644,-0.750050
1650625569.007370,3804.000000,1650625569.007183,0.000000,0.000000,1.000000,0.000000,0.000000,0.000000,0.000000,0.630723,24.003301,-0.757706
1650625569.107366,3805.000000,1650625569.107184,0.000000,0.000000,1.000000,0.000000,0.000000,0.000000,0.000000,0.633331,24.000931,-0.766908
1650625569.207361,3806.000000,1650625569.207183,0.000000,0.000000,1.000000,0.000000,0.000000,0.000000,0.000000,0.634732,23.999778,-0.784825
1650625569.307848,3807.000000,1650625569.307546,0.000000,0.000000,1.000000,0.000000,0.000000,0.000000,0.000000,0.636076,23.998689,-0.804616
1650625569.407325,3808.000000,1650625569.407113,0.000000,0.000000,1.000000,0.000000,0.000000,0.000000,0.000000,0.639542,23.998754,-0.829390
1650625569.507236,3809.000000,1650625569.507088,0.000000,0.000000,1.000000,0.000000,0.000000,0.000000,0.000000,0.642822,23.999911,-0.853252
1650625569.607249,3810.000000,1650625569.607122,0.000000,0.000000,1.000000,0.000000,0.000000,0.000000,0.000000,0.648096,23.998824,-0.874583
1650625569.707290,3811.000000,1650625569.707111,0.000000,0.000000,1.000000,0.000000,0.000000,0.000000,0.000000,0.651968,23.997800,-0.894254
1650625569.807281,3812.000000,1650625569.807150,0.000000,0.000000,1.000000,0.000000,0.000000,0.000000,0.000000,0.656685,23.997929,-0.916329
1650625569.907632,3813.000000,1650625569.907411,0.000000,0.000000,1.000000,0.000000,0.000000,0.000000,0.000000,0.660007,23.998057,-0.941482
1650625570.007428,3814.000000,1650625570.007221,0.000000,0.000000,1.000000,0.000000,0.000000,0.000000,0.000000,0.662002,23.997093,-0.964710
1650625570.108117,3815.000000,1650625570.107899,0.000000,0.000000,1.000000,0.000000,0.000000,0.000000,0.000000,0.662739,23.997280,-0.986057
1650625570.207584,3816.000000,1650625570.207410,0.000000,0.000000,1.000000,0.000000,0.000000,0.000000,0.000000,0.662288,23.997463,-1.006373
1650625570.307681,3817.000000,1650625570.307470,0.000000,0.000000,1.000000,0.000000,0.000000,0.000000,0.000000,0.660719,24.000914,-1.032931
1650625570.407551,3818.000000,1650625570.407385,0.000000,0.000000,1.000000,0.000000,0.000000,0.000000,0.000000,0.662462,24.003081,-1.055766
1650625570.507719,3819.000000,1650625570.507480,0.000000,0.000000,1.000000,0.000000,0.000000,0.000000,0.000000,0.664062,24.004028,-1.075805
1650625570.607669,3820.000000,1650625570.607485,0.000000,0.000000,1.000000,0.000000,0.000000,0.000000,0.000000,0.663344,24.003819,-1.093944
1650625570.707690,3821.000000,1650625570.707473,0.000000,0.000000,1.000000,0.000000,0.000000,0.000000,0.000000,0.658259,24.005789,-1.061047
1650625570.807668,3822.000000,1650625570.807477,0.000000,0.000000,1.000000,0.000000,0.000000,0.000000,0.000000,0.656696,24.005453,-1.038111
1650625570.908175,3823.000000,1650625570.907923,0.000000,0.000000,1.000000,0.000000,0.000000,0.000000,0.000000,0.655198,24.005120,-1.028010
1650625571.007331,3824.000000,1650625571.007124,0.000000,0.000000,1.000000,0.000000,0.000000,0.000000,0.000000,0.655949,24.003700,-1.020573
1650625571.107405,3825.000000,1650625571.107210,0.000000,0.000000,1.000000,0.000000,0.000000,0.000000,0.000000,0.656643,24.002349,-1.012487
1650625571.207270,3826.000000,1650625571.207112,0.000000,0.000000,1.000000,0.000000,0.000000,0.000000,0.000000,0.654012,23.999977,-1.009442
1650625571.307502,3827.000000,1650625571.307318,0.000000,0.000000,1.000000,0.000000,0.000000,0.000000,0.000000,0.648245,23.998828,-1.011246
1650625571.407313,3828.000000,1650625571.407124,0.000000,0.000000,1.000000,0.000000,0.000000,0.000000,0.000000,0.646075,23.998839,-1.020125
1650625571.507463,3829.000000,1650625571.507242,0.000000,0.000000,1.000000,0.000000,0.000000,0.000000,0.000000,0.646221,23.998857,-1.029331
1650625571.607359,3830.000000,1650625571.607196,0.000000,0.000000,1.000000,0.000000,0.000000,0.000000,0.000000,0.645284,23.998880,-1.041260
1650625571.708111,3831.000000,1650625571.707927,0.000000,0.000000,1.000000,0.000000,0.000000,0.000000,0.000000,0.643326,23.998907,-1.052562
1650625571.807461,3832.000000,1650625571.807261,0.000000,0.000000,1.000000,0.000000,0.000000,0.000000,0.000000,0.645859,23.998938,-1.067281
1650625571.907655,3833.000000,1650625571.907424,0.000000,0.000000,1.000000,0.000000,0.000000,0.000000,0.000000,0.642816,24.001154,-1.029615
1650625572.007292,3834.000000,1650625572.007113,0.000000,0.000000,1.000000,0.000000,0.000000,0.000000,0.000000,0.641051,24.002156,-1.002233
1650625572.107442,3835.000000,1650625572.107222,0.000000,0.000000,1.000000,0.000000,0.000000,0.000000,0.000000,0.635048,24.003098,-0.988802
1650625572.207362,3836.000000,1650625572.207186,0.000000,0.000000,1.000000,0.000000,0.000000,0.000000,0.000000,0.617422,24.002890,-0.987172
1650625572.307436,3837.000000,1650625572.307249,0.000000,0.000000,1.000000,0.000000,0.000000,0.000000,0.000000,0.580135,24.002687,-0.995259
1650625572.407487,3838.000000,1650625572.407301,0.000000,0.000000,1.000000,0.000000,0.000000,0.000000,0.000000,0.526552,24.002489,-1.008626
1650625572.507604,3839.000000,1650625572.507384,0.000000,0.000000,1.000000,0.000000,0.000000,0.000000,0.000000,0.489338,24.003387,-1.023814
1650625572.607268,3840.000000,1650625572.607134,0.000000,0.000000,1.000000,0.000000,0.000000,0.000000,0.000000,0.468788,24.003139,-1.039113
1650625572.707362,3841.000000,1650625572.707194,0.000000,0.000000,1.000000,0.000000,0.000000,0.000000,0.000000,0.457489,24.002898,-1.052077
1650625572.807326,3842.000000,1650625572.807173,0.000000,0.000000,1.000000,0.000000,0.000000,0.000000,0.000000,0.456036,24.002665,-1.065201
1650625572.907329,3843.000000,1650625572.907156,0.000000,0.000000,1.000000,0.000000,0.000000,0.000000,0.000000,0.459505,24.003531,-1.082495
1650625573.007369,3844.000000,1650625573.007176,0.000000,0.000000,1.000000,0.000000,0.000000,0.000000,0.000000,0.465409,24.003253,-1.094896
1650625573.107354,3845.000000,1650625573.107163,0.000000,0.000000,1.000000,0.000000,0.000000,0.000000,0.000000,0.475751,24.000804,-1.097748
1650625573.207633,3846.000000,1650625573.207450,0.000000,0.000000,1.000000,0.000000,0.000000,0.000000,0.000000,0.490236,23.999582,-1.105149
1650625573.307983,3847.000000,1650625573.307678,0.000000,0.000000,1.000000,0.000000,0.000000,0.000000,0.000000,0.504209,23.997342,-1.107232
1650625573.407356,3848.000000,1650625573.407166,0.000000,0.000000,1.000000,0.000000,0.000000,0.000000,0.000000,0.517639,23.995237,-1.113894
1650625573.507290,3849.000000,1650625573.507103,0.000000,0.000000,1.000000,0.000000,0.000000,0.000000,0.000000,0.532681,23.991085,-1.112849
1650625573.607287,3850.000000,1650625573.607103,0.000000,0.000000,1.000000,0.000000,0.000000,0.000000,0.000000,0.549191,23.988281,-1.111675
1650625573.707398,3851.000000,1650625573.707188,0.000000,0.000000,1.000000,0.000000,0.000000,0.000000,0.000000,0.561578,23.985667,-1.108774
1650625573.807380,3852.000000,1650625573.807176,0.000000,0.000000,1.000000,0.000000,0.000000,0.000000,0.000000,0.571116,23.984330,-1.113098
1650625573.907451,3853.000000,1650625573.907240,0.000000,0.000000,1.000000,0.000000,0.000000,0.000000,0.000000,0.581201,23.984202,-1.121935
1650625574.007387,3854.000000,1650625574.007180,0.000000,0.000000,1.000000,0.000000,0.000000,0.000000,0.000000,0.590683,23.985215,-1.133482
1650625574.107923,3855.000000,1650625574.107673,0.000000,0.000000,1.000000,0.000000,0.000000,0.000000,0.000000,0.599566,23.987301,-1.147618
1650625574.207263,3856.000000,1650625574.207059,0.000000,0.000000,1.000000,0.000000,0.000000,0.000000,0.000000,0.607861,23.987121,-1.153736
1650625574.307368,3857.000000,1650625574.307136,0.000000,0.000000,1.000000,0.000000,0.000000,0.000000,0.000000,0.613399,23.988070,-1.166673
1650625574.407359,3858.000000,1650625574.407156,0.000000,0.000000,1.000000,0.000000,0.000000,0.000000,0.000000,0.623953,23.987900,-1.178078
1650625574.507328,3859.000000,1650625574.507114,0.000000,0.000000,1.000000,0.000000,0.000000,0.000000,0.000000,0.631590,23.987761,-1.184774
1650625574.607508,3860.000000,1650625574.607316,0.000000,0.000000,1.000000,0.000000,0.000000,0.000000,0.000000,0.627733,23.989833,-1.137756
1650625574.707427,3861.000000,1650625574.707210,0.000000,0.000000,1.000000,0.000000,0.000000,0.000000,0.000000,0.628295,23.991805,-1.108632
1650625574.807638,3862.000000,1650625574.807456,0.000000,0.000000,1.000000,0.000000,0.000000,0.000000,0.000000,0.611234,23.993677,-1.089479
1650625574.907687,3863.000000,1650625574.907468,0.000000,0.000000,1.000000,0.000000,0.000000,0.000000,0.000000,0.603741,23.995448,-1.076703
1650625575.007285,3864.000000,1650625575.007104,0.000000,0.000000,1.000000,0.000000,0.000000,0.000000,0.000000,0.595512,23.996027,-1.068459
1650625575.107331,3865.000000,1650625575.107163,0.000000,0.000000,1.000000,0.000000,0.000000,0.000000,0.000000,0.589885,23.996567,-1.060546
1650625575.207309,3866.000000,1650625575.207124,0.000000,0.000000,1.000000,0.000000,0.000000,0.000000,0.000000,0.591100,23.997070,-1.057803
1650625575.307345,3867.000000,1650625575.307159,0.000000,0.000000,1.000000,0.000000,0.000000,0.000000,0.000000,0.592239,23.997537,-1.058412
1650625575.407439,3868.000000,1650625575.407259,0.000000,0.000000,1.000000,0.000000,0.000000,0.000000,0.000000,0.581308,23.996878,-1.064657
1650625575.507506,3869.000000,1650625575.507310,0.000000,0.000000,1.000000,0.000000,0.000000,0.000000,0.000000,0.556819,23.996248,-1.073073
1650625575.607634,3870.000000,1650625575.607445,0.000000,0.000000,1.000000,0.000000,0.000000,0.000000,0.000000,0.545757,23.996737,-1.083558
1650625575.707907,3871.000000,1650625575.707626,0.000000,0.000000,1.000000,0.000000,0.000000,0.000000,0.000000,0.538695,23.997194,-1.091980
1650625575.807369,3872.000000,1650625575.807100,0.000000,0.000000,1.000000,0.000000,0.000000,0.000000,0.000000,0.507080,23.997618,-1.100827
1650625575.907345,3873.000000,1650625575.907081,0.000000,0.000000,1.000000,0.000000,0.000000,0.000000,0.000000,0.473060,23.999102,-1.120553
1650625576.007342,3874.000000,1650625576.007074,0.000000,0.000000,1.000000,0.000000,0.000000,0.000000,0.000000,0.452123,24.000492,-1.136173
1650625576.107380,3875.000000,1650625576.107180,0.000000,0.000000,1.000000,0.000000,0.000000,0.000000,0.000000,0.439243,24.000700,-1.143797
1650625576.207431,3876.000000,1650625576.207232,0.000000,0.000000,1.000000,0.000000,0.000000,0.000000,0.000000,0.435091,23.998701,-1.142125
1650625576.307671,3877.000000,1650625576.307339,0.000000,0.000000,1.000000,0.000000,0.000000,0.000000,0.000000,0.438090,23.997892,-1.146863
1650625576.407520,3878.000000,1650625576.407283,0.000000,0.000000,1.000000,0.000000,0.000000,0.000000,0.000000,0.436916,23.999302,-1.103716
1650625576.507796,3879.000000,1650625576.507501,0.000000,0.000000,1.000000,0.000000,0.000000,0.000000,0.000000,0.441593,24.000626,-1.076790
1650625576.607386,3880.000000,1650625576.607174,0.000000,0.000000,1.000000,0.000000,0.000000,0.000000,0.000000,0.452859,23.999684,-1.092090
1650625576.707283,3881.000000,1650625576.707124,0.000000,0.000000,1.000000,0.000000,0.000000,0.000000,0.000000,0.464849,23.998783,-1.110793
1650625576.807271,3882.000000,1650625576.807109,0.000000,0.000000,1.000000,0.000000,0.000000,0.000000,0.000000,0.479654,23.997926,-1.127889
1650625576.907397,3883.000000,1650625576.907216,0.000000,0.000000,1.000000,0.000000,0.000000,0.000000,0.000000,0.485068,23.999293,-1.095030
1650625577.007353,3884.000000,1650625577.007176,0.000000,0.000000,1.000000,0.000000,0.000000,0.000000,0.000000,0.497932,24.000578,-1.083644
1650625577.107396,3885.000000,1650625577.107211,0.000000,0.000000,1.000000,0.000000,0.000000,0.000000,0.000000,0.514524,24.000692,-1.079981
1650625577.207440,3886.000000,1650625577.207250,0.000000,0.000000,1.000000,0.000000,0.000000,0.000000,0.000000,0.532403,23.999699,-1.078897
1650625577.307972,3887.000000,1650625577.307755,0.000000,0.000000,1.000000,0.000000,0.000000,0.000000,0.000000,0.550351,23.997662,-1.080290
1650625577.407306,3888.000000,1650625577.407112,0.000000,0.000000,1.000000,0.000000,0.000000,0.000000,0.000000,0.568311,23.996827,-1.088088
1650625577.507396,3889.000000,1650625577.507217,0.000000,0.000000,1.000000,0.000000,0.000000,0.000000,0.000000,0.587323,23.996041,-1.098796
1650625577.607278,3890.000000,1650625577.607114,0.000000,0.000000,1.000000,0.000000,0.000000,0.000000,0.000000,0.604006,23.996392,-1.109050
1650625577.707424,3891.000000,1650625577.707203,0.000000,0.000000,1.000000,0.000000,0.000000,0.000000,0.000000,0.619537,23.995637,-1.115628
1650625577.807407,3892.000000,1650625577.807185,0.000000,0.000000,1.000000,0.000000,0.000000,0.000000,0.000000,0.633944,23.991658,-1.101733
1650625577.907359,3893.000000,1650625577.907180,0.000000,0.000000,1.000000,0.000000,0.000000,0.000000,0.000000,0.646168,23.987914,-1.089182
1650625578.007438,3894.000000,1650625578.007243,0.000000,0.000000,1.000000,0.000000,0.000000,0.000000,0.000000,0.657398,23.985492,-1.084396
1650625578.107543,3895.000000,1650625578.107363,0.000000,0.000000,1.000000,0.000000,0.000000,0.000000,0.000000,0.666581,23.984328,-1.088682
1650625578.207335,3896.000000,1650625578.207175,0.000000,0.000000,1.000000,0.000000,0.000000,0.000000,0.000000,0.673819,23.983263,-1.095216
1650625578.307667,3897.000000,1650625578.307519,0.000000,0.000000,1.000000,0.000000,0.000000,0.000000,0.000000,0.674856,23.982294,-1.101477
1650625578.407332,3898.000000,1650625578.407180,0.000000,0.000000,1.000000,0.000000,0.000000,0.000000,0.000000,0.673316,23.983597,-1.113110
1650625578.507404,3899.000000,1650625578.507218,0.000000,0.000000,1.000000,0.000000,0.000000,0.000000,0.000000,0.668275,23.985951,-1.126655
1650625578.607334,3900.000000,1650625578.607151,0.000000,0.000000,1.000000,0.000000,0.000000,0.000000,0.000000,0.659957,23.991471,-1.085560
1650625578.707356,3901.000000,1650625578.707171,0.000000,0.000000,1.000000,0.000000,0.000000,0.000000,0.000000,0.652944,23.995604,-1.058231
1650625578.807355,3902.000000,1650625578.807174,0.000000,0.000000,1.000000,0.000000,0.000000,0.000000,0.000000,0.649382,23.999503,-1.047383
1650625578.907801,3903.000000,1650625578.907351,0.000000,0.000000,1.000000,0.000000,0.000000,0.000000,0.000000,0.651287,24.002079,-1.033820
1650625579.007286,3904.000000,1650625579.007109,0.000000,0.000000,1.000000,0.000000,0.000000,0.000000,0.000000,0.661636,24.004486,-1.017672
1650625579.107384,3905.000000,1650625579.107185,0.000000,0.000000,1.000000,0.000000,0.000000,0.000000,0.000000,0.658139,24.006729,-1.015195
1650625579.207303,3906.000000,1650625579.207126,0.000000,0.000000,1.000000,0.000000,0.000000,0.000000,0.000000,0.652477,24.007720,-1.008901
1650625579.307361,3907.000000,1650625579.307195,0.000000,0.000000,1.000000,0.000000,0.000000,0.000000,0.000000,0.645886,24.011888,-0.959435
1650625579.407418,3908.000000,1650625579.407225,0.000000,0.000000,1.000000,0.000000,0.000000,0.000000,0.000000,0.646079,24.015779,-0.924260
1650625579.507363,3909.000000,1650625579.507174,0.000000,0.000000,1.000000,0.000000,0.000000,0.000000,0.000000,0.651601,24.017217,-0.902851
1650625579.607452,3910.000000,1650625579.607257,0.000000,0.000000,1.000000,0.000000,0.000000,0.000000,0.000000,0.658880,24.016336,-0.891454
1650625579.707840,3911.000000,1650625579.707630,0.000000,0.000000,1.000000,0.000000,0.000000,0.000000,0.000000,0.663444,24.015447,-0.886447
1650625579.807647,3912.000000,1650625579.807445,0.000000,0.000000,1.000000,0.000000,0.000000,0.000000,0.000000,0.668705,24.013468,-0.880310
1650625579.907734,3913.000000,1650625579.907487,0.000000,0.000000,1.000000,0.000000,0.000000,0.000000,0.000000,0.669164,24.012647,-0.882766
1650625580.007569,3914.000000,1650625580.007389,0.000000,0.000000,1.000000,0.000000,0.000000,0.000000,0.000000,0.672724,24.010746,-0.885387
1650625580.107648,3915.000000,1650625580.107436,0.000000,0.000000,1.000000,0.000000,0.000000,0.000000,0.000000,0.675942,24.010012,-0.897829
1650625580.207695,3916.000000,1650625580.207498,0.000000,0.000000,1.000000,0.000000,0.000000,0.000000,0.000000,0.678834,24.009295,-0.916439
1650625580.307742,3917.000000,1650625580.307506,0.000000,0.000000,1.000000,0.000000,0.000000,0.000000,0.000000,0.681418,24.009688,-0.937701
1650625580.407730,3918.000000,1650625580.407506,0.000000,0.000000,1.000000,0.000000,0.000000,0.000000,0.000000,0.682621,24.010040,-0.959852
1650625580.508175,3919.000000,1650625580.507942,0.000000,0.000000,1.000000,0.000000,0.000000,0.000000,0.000000,0.685795,24.011444,-0.985232
1650625580.607675,3920.000000,1650625580.607473,0.000000,0.000000,1.000000,0.000000,0.000000,0.000000,0.000000,0.688649,24.012749,-1.008826
1650625580.707600,3921.000000,1650625580.707380,0.000000,0.000000,1.000000,0.000000,0.000000,0.000000,0.000000,0.689019,24.012867,-1.029052
1650625580.807610,3922.000000,1650625580.807405,0.000000,0.000000,1.000000,0.000000,0.000000,0.000000,0.000000,0.688139,24.011863,-1.044397
1650625580.907657,3923.000000,1650625580.907480,0.000000,0.000000,1.000000,0.000000,0.000000,0.000000,0.000000,0.687178,24.011985,-1.062291
1650625581.007690,3924.000000,1650625581.007514,0.000000,0.000000,1.000000,0.000000,0.000000,0.000000,0.000000,0.683969,24.009900,-1.071314
1650625581.107700,3925.000000,1650625581.107514,0.000000,0.000000,1.000000,0.000000,0.000000,0.000000,0.000000,0.679744,24.006827,-1.075845
1650625581.207684,3926.000000,1650625581.207495,0.000000,0.000000,1.000000,0.000000,0.000000,0.000000,0.000000,0.675666,24.003920,-1.081704
1650625581.308110,3927.000000,1650625581.307763,0.000000,0.000000,1.000000,0.000000,0.000000,0.000000,0.000000,0.671746,24.001179,-1.085608
1650625581.407719,3928.000000,1650625581.407528,0.000000,0.000000,1.000000,0.000000,0.000000,0.000000,0.000000,0.667990,23.997514,-1.087633
1650625581.507741,3929.000000,1650625581.507449,0.000000,0.000000,1.000000,0.000000,0.000000,0.000000,0.000000,0.666586,23.995165,-1.093501
1650625581.607700,3930.000000,1650625581.607482,0.000000,0.000000,1.000000,0.000000,0.000000,0.000000,0.000000,0.667411,23.992978,-1.103052
1650625581.707718,3931.000000,1650625581.707484,0.000000,0.000000,1.000000,0.000000,0.000000,0.000000,0.000000,0.669252,23.992037,-1.112900
1650625581.807748,3932.000000,1650625581.807521,0.000000,0.000000,1.000000,0.000000,0.000000,0.000000,0.000000,0.670961,23.992277,-1.122215
1650625581.907801,3933.000000,1650625581.907538,0.000000,0.000000,1.000000,0.000000,0.000000,0.000000,0.000000,0.663817,23.995810,-1.083427
1650625582.007815,3934.000000,1650625582.007557,0.000000,0.000000,1.000000,0.000000,0.000000,0.000000,0.000000,0.658141,23.998083,-1.057420
1650625582.108216,3935.000000,1650625582.107925,0.000000,0.000000,1.000000,0.000000,0.000000,0.000000,0.000000,0.651690,24.000246,-1.045337
1650625582.207708,3936.000000,1650625582.207450,0.000000,0.000000,1.000000,0.000000,0.000000,0.000000,0.000000,0.643437,24.001207,-1.036961
1650625582.307664,3937.000000,1650625582.307429,0.000000,0.000000,1.000000,0.000000,0.000000,0.000000,0.000000,0.638956,24.003208,-1.040223
1650625582.407611,3938.000000,1650625582.407375,0.000000,0.000000,1.000000,0.000000,0.000000,0.000000,0.000000,0.628239,24.007278,-0.996582
1650625582.507679,3939.000000,1650625582.507425,0.000000,0.000000,1.000000,0.000000,0.000000,0.000000,0.000000,0.619288,24.011111,-0.970906
1650625582.607931,3940.000000,1650625582.607695,0.000000,0.000000,1.000000,0.000000,0.000000,0.000000,0.000000,0.613121,24.011436,-0.954447
1650625582.707899,3941.000000,1650625582.707648,0.000000,0.000000,1.000000,0.000000,0.000000,0.000000,0.000000,0.609599,24.011716,-0.943631
1650625582.807647,3942.000000,1650625582.807463,0.000000,0.000000,1.000000,0.000000,0.000000,0.000000,0.000000,0.609672,24.010865,-0.934210
1650625582.907794,3943.000000,1650625582.907527,0.000000,0.000000,1.000000,0.000000,0.000000,0.000000,0.000000,0.610955,24.011128,-0.935815
1650625583.007354,3944.000000,1650625583.007165,0.000000,0.000000,1.000000,0.000000,0.000000,0.000000,0.000000,0.612280,24.010266,-0.939927
1650625583.107509,3945.000000,1650625583.107298,0.000000,0.000000,1.000000,0.000000,0.000000,0.000000,0.000000,0.612546,24.010523,-0.953690
1650625583.207330,3946.000000,1650625583.207169,0.000000,0.000000,1.000000,0.000000,0.000000,0.000000,0.000000,0.612892,24.010749,-0.968622
1650625583.307781,3947.000000,1650625583.307618,0.000000,0.000000,1.000000,0.000000,0.000000,0.000000,0.000000,0.616579,24.009855,-0.980613
1650625583.407359,3948.000000,1650625583.407184,0.000000,0.000000,1.000000,0.000000,0.000000,0.000000,0.000000,0.619048,24.008996,-0.992984
1650625583.507490,3949.000000,1650625583.507300,0.000000,0.000000,1.000000,0.000000,0.000000,0.000000,0.000000,0.622532,24.009265,-1.010535
1650625583.607351,3950.000000,1650625583.607183,0.000000,0.000000,1.000000,0.000000,0.000000,0.000000,0.000000,0.624781,24.008419,-1.021735
1650625583.707923,3951.000000,1650625583.707665,0.000000,0.000000,1.000000,0.000000,0.000000,0.000000,0.000000,0.625854,24.007612,-1.030047
1650625583.807318,3952.000000,1650625583.807149,0.000000,0.000000,1.000000,0.000000,0.000000,0.000000,0.000000,0.625808,24.007936,-1.037994
1650625583.907385,3953.000000,1650625583.907195,0.000000,0.000000,1.000000,0.000000,0.000000,0.000000,0.000000,0.629065,24.007147,-1.045578
1650625584.007361,3954.000000,1650625584.007165,0.000000,0.000000,1.000000,0.000000,0.000000,0.000000,0.000000,0.633252,24.006399,-1.050384
1650625584.107434,3955.000000,1650625584.107216,0.000000,0.000000,1.000000,0.000000,0.000000,0.000000,0.000000,0.636123,24.005692,-1.056549
1650625584.207542,3956.000000,1650625584.207336,0.000000,0.000000,1.000000,0.000000,0.000000,0.000000,0.000000,0.638831,24.007207,-1.072882
1650625584.307504,3957.000000,1650625584.307292,0.000000,0.000000,1.000000,0.000000,0.000000,0.000000,0.000000,0.633745,24.011909,-1.035238
1650625584.407425,3958.000000,1650625584.407202,0.000000,0.000000,1.000000,0.000000,0.000000,0.000000,0.000000,0.632209,24.015247,-1.014409
1650625584.507931,3959.000000,1650625584.507640,0.000000,0.000000,1.000000,0.000000,0.000000,0.000000,0.000000,0.630764,24.016197,-0.998464
1650625584.607733,3960.000000,1650625584.607508,0.000000,0.000000,1.000000,0.000000,0.000000,0.000000,0.000000,0.630498,24.015976,-0.988039
1650625584.707578,3961.000000,1650625584.707389,0.000000,0.000000,1.000000,0.000000,0.000000,0.000000,0.000000,0.631349,24.015742,-0.983733
1650625584.807576,3962.000000,1650625584.807389,0.000000,0.000000,1.000000,0.000000,0.000000,0.000000,0.000000,0.633253,24.014407,-0.982080
1650625584.907701,3963.000000,1650625584.907528,0.000000,0.000000,1.000000,0.000000,0.000000,0.000000,0.000000,0.635054,24.013127,-0.985391
1650625585.007849,3964.000000,1650625585.007582,0.000000,0.000000,1.000000,0.000000,0.000000,0.000000,0.000000,0.637843,24.011903,-0.992653
1650625585.107768,3965.000000,1650625585.107544,0.000000,0.000000,1.000000,0.000000,0.000000,0.000000,0.000000,0.640467,24.010739,-0.998046
1650625585.207778,3966.000000,1650625585.207495,0.000000,0.000000,1.000000,0.000000,0.000000,0.000000,0.000000,0.644018,24.009633,-1.009700
1650625585.308000,3967.000000,1650625585.307600,0.000000,0.000000,1.000000,0.000000,0.000000,0.000000,0.000000,0.644075,24.008588,-1.020084
1650625585.407467,3968.000000,1650625585.407284,0.000000,0.000000,1.000000,0.000000,0.000000,0.000000,0.000000,0.644100,24.007602,-1.030036
1650625585.507317,3969.000000,1650625585.507141,0.000000,0.000000,1.000000,0.000000,0.000000,0.000000,0.000000,0.639734,24.008857,-1.045204
1650625585.607343,3970.000000,1650625585.607135,0.000000,0.000000,1.000000,0.000000,0.000000,0.000000,0.000000,0.637776,24.008955,-1.057288
1650625585.707403,3971.000000,1650625585.707210,0.000000,0.000000,1.000000,0.000000,0.000000,0.000000,0.000000,0.630467,24.012320,-1.018006
1650625585.807744,3972.000000,1650625585.807537,0.000000,0.000000,1.000000,0.000000,0.000000,0.000000,0.000000,0.610490,24.018763,-0.939984
1650625585.907483,3973.000000,1650625585.907260,0.000000,0.000000,1.000000,0.000000,0.000000,0.000000,0.000000,0.596043,24.023736,-0.889430
1650625586.007433,3974.000000,1650625586.007212,0.000000,0.000000,1.000000,0.000000,0.000000,0.000000,0.000000,0.587956,24.027304,-0.863705
1650625586.107596,3975.000000,1650625586.107358,0.000000,0.000000,1.000000,0.000000,0.000000,0.000000,0.000000,0.583720,24.030627,-0.854585
1650625586.207356,3976.000000,1650625586.207199,0.000000,0.000000,1.000000,0.000000,0.000000,0.000000,0.000000,0.582040,24.030437,-0.849309
1650625586.307475,3977.000000,1650625586.307293,0.000000,0.000000,1.000000,0.000000,0.000000,0.000000,0.000000,0.582775,24.030203,-0.852559
1650625586.407351,3978.000000,1650625586.407182,0.000000,0.000000,1.000000,0.000000,0.000000,0.000000,0.000000,0.577058,24.032110,-0.811557
1650625586.507400,3979.000000,1650625586.507225,0.000000,0.000000,1.000000,0.000000,0.000000,0.000000,0.000000,0.576156,24.031679,-0.787822
1650625586.607396,3980.000000,1650625586.607223,0.000000,0.000000,1.000000,0.000000,0.000000,0.000000,0.000000,0.576530,24.031221,-0.771817
1650625586.707397,3981.000000,1650625586.707223,0.000000,0.000000,1.000000,0.000000,0.000000,0.000000,0.000000,0.579191,24.029652,-0.762436
1650625586.807668,3982.000000,1650625586.807435,0.000000,0.000000,1.000000,0.000000,0.000000,0.000000,0.000000,0.573096,24.031402,-0.711834
1650625586.907462,3983.000000,1650625586.907252,0.000000,0.000000,1.000000,0.000000,0.000000,0.000000,0.000000,0.562005,24.035196,-0.633841
1650625587.007340,3984.000000,1650625587.007183,0.000000,0.000000,1.000000,0.000000,0.000000,0.000000,0.000000,0.556033,24.037641,-0.584514
1650625587.107360,3985.000000,1650625587.107189,0.000000,0.000000,1.000000,0.000000,0.000000,0.000000,0.000000,0.552728,24.038808,-0.555502
1650625587.207325,3986.000000,1650625587.207169,0.000000,0.000000,1.000000,0.000000,0.000000,0.000000,0.000000,0.551947,24.038764,-0.543591
1650625587.307472,3987.000000,1650625587.307299,0.000000,0.000000,1.000000,0.000000,0.000000,0.000000,0.000000,0.554636,24.037580,-0.547280
1650625587.407398,3988.000000,1650625587.407226,0.000000,0.000000,1.000000,0.000000,0.000000,0.000000,0.000000,0.557318,24.036414,-0.559458
1650625587.507378,3989.000000,1650625587.507208,0.000000,0.000000,1.000000,0.000000,0.000000,0.000000,0.000000,0.554524,24.036362,-0.530543
1650625587.607548,3990.000000,1650625587.607388,0.000000,0.000000,1.000000,0.000000,0.000000,0.000000,0.000000,0.553096,24.036276,-0.521896
1650625587.707782,3991.000000,1650625587.707462,0.000000,0.000000,1.000000,0.000000,0.000000,0.000000,0.000000,0.554048,24.036160,-0.531886
1650625587.807422,3992.000000,1650625587.807245,0.000000,0.000000,1.000000,0.000000,0.000000,0.000000,0.000000,0.558331,24.033837,-0.546818
1650625587.907279,3993.000000,1650625587.907126,0.000000,0.000000,1.000000,0.000000,0.000000,0.000000,0.000000,0.562472,24.031617,-0.567252
1650625588.007343,3994.000000,1650625588.007184,0.000000,0.000000,1.000000,0.000000,0.000000,0.000000,0.000000,0.568641,24.027323,-0.587268
1650625588.107744,3995.000000,1650625588.107543,0.000000,0.000000,1.000000,0.000000,0.000000,0.000000,0.000000,0.576705,24.023262,-0.614090
1650625588.207711,3996.000000,1650625588.207460,0.000000,0.000000,1.000000,0.000000,0.000000,0.000000,0.000000,0.586531,24.020524,-0.645770
1650625588.308065,3997.000000,1650625588.307878,0.000000,0.000000,1.000000,0.000000,0.000000,0.000000,0.000000,0.597992,24.019047,-0.684466
1650625588.407878,3998.000000,1650625588.407644,0.000000,0.000000,1.000000,0.000000,0.000000,0.000000,0.000000,0.606601,24.018764,-0.725787
1650625588.507726,3999.000000,1650625588.507355,0.000000,0.000000,1.000000,0.000000,0.000000,0.000000,0.000000,0.615761,24.018520,-0.760680
1650625588.607394,4000.000000,1650625588.607170,0.000000,0.000000,1.000000,0.000000,0.000000,0.000000,0.000000,0.623236,24.016131,-0.793374
1650625588.707411,4001.000000,1650625588.707221,0.000000,0.000000,1.000000,0.000000,0.000000,0.000000,0.000000,0.631281,24.012810,-0.824708
1650625588.807352,4002.000000,1650625588.807174,0.000000,0.000000,1.000000,0.000000,0.000000,0.000000,0.000000,0.637664,24.011889,-0.859525
1650625588.907384,4003.000000,1650625588.907212,0.000000,0.000000,1.000000,0.000000,0.000000,0.000000,0.000000,0.633742,24.013237,-0.845209
1650625589.007463,4004.000000,1650625589.007258,0.000000,0.000000,1.000000,0.000000,0.000000,0.000000,0.000000,0.632090,24.012363,-0.840222
1650625589.107466,4005.000000,1650625589.107272,0.000000,0.000000,1.000000,0.000000,0.000000,0.000000,0.000000,0.632597,24.011569,-0.848236
1650625589.207474,4006.000000,1650625589.207246,0.000000,0.000000,1.000000,0.000000,0.000000,0.000000,0.000000,0.635150,24.011942,-0.863877
1650625589.307802,4007.000000,1650625589.307532,0.000000,0.000000,1.000000,0.000000,0.000000,0.000000,0.000000,0.637455,24.011235,-0.878752
1650625589.407449,4008.000000,1650625589.407224,0.000000,0.000000,1.000000,0.000000,0.000000,0.000000,0.000000,0.639525,24.010598,-0.895291
1650625589.507346,4009.000000,1650625589.507154,0.000000,0.000000,1.000000,0.000000,0.000000,0.000000,0.000000,0.643553,24.008935,-0.910181
1650625589.607313,4010.000000,1650625589.607145,0.000000,0.000000,1.000000,0.000000,0.000000,0.000000,0.000000,0.648335,24.007398,-0.932341
1650625589.707861,4011.000000,1650625589.707630,0.000000,0.000000,1.000000,0.000000,0.000000,0.000000,0.000000,0.652733,24.003801,-0.941287
1650625589.807836,4012.000000,1650625589.807646,0.000000,0.000000,1.000000,0.000000,0.000000,0.000000,0.000000,0.657850,24.000446,-0.948030
1650625589.907464,4013.000000,1650625589.907282,0.000000,0.000000,1.000000,0.000000,0.000000,0.000000,0.000000,0.664729,23.997329,-0.961528
1650625590.007600,4014.000000,1650625590.007422,0.000000,0.000000,1.000000,0.000000,0.000000,0.000000,0.000000,0.668899,23.996623,-0.982301
1650625590.107756,4015.000000,1650625590.107395,0.000000,0.000000,1.000000,0.000000,0.000000,0.000000,0.000000,0.672685,23.994925,-0.995516
1650625590.207487,4016.000000,1650625590.207312,0.000000,0.000000,1.000000,0.000000,0.000000,0.000000,0.000000,0.676104,23.993381,-1.009531
1650625590.307550,4017.000000,1650625590.307317,0.000000,0.000000,1.000000,0.000000,0.000000,0.000000,0.000000,0.674812,23.990894,-1.017850
1650625590.407547,4018.000000,1650625590.407284,0.000000,0.000000,1.000000,0.000000,0.000000,0.000000,0.000000,0.675624,23.988610,-1.027152
1650625590.507426,4019.000000,1650625590.507232,0.000000,0.000000,1.000000,0.000000,0.000000,0.000000,0.000000,0.676248,23.986520,-1.039007
1650625590.607439,4020.000000,1650625590.607245,0.000000,0.000000,1.000000,0.000000,0.000000,0.000000,0.000000,0.676703,23.983527,-1.046853
1650625590.707504,4021.000000,1650625590.707326,0.000000,0.000000,1.000000,0.000000,0.000000,0.000000,0.000000,0.670460,23.985137,-1.004077
1650625590.807554,4022.000000,1650625590.807366,0.000000,0.000000,1.000000,0.000000,0.000000,0.000000,0.000000,0.667726,23.985637,-0.975708
1650625590.907784,4023.000000,1650625590.907319,0.000000,0.000000,1.000000,0.000000,0.000000,0.000000,0.000000,0.666143,23.986173,-0.960415
1650625591.007477,4024.000000,1650625591.007245,0.000000,0.000000,1.000000,0.000000,0.000000,0.000000,0.000000,0.664568,23.986737,-0.949641
1650625591.107334,4025.000000,1650625591.107085,0.000000,0.000000,1.000000,0.000000,0.000000,0.000000,0.000000,0.664100,23.988414,-0.952099
1650625591.207401,4026.000000,1650625591.207197,0.000000,0.000000,1.000000,0.000000,0.000000,0.000000,0.000000,0.663595,23.988954,-0.955157
1650625591.307496,4027.000000,1650625591.307278,0.000000,0.000000,1.000000,0.000000,0.000000,0.000000,0.000000,0.660879,23.989504,-0.965243
1650625591.407479,4028.000000,1650625591.407260,0.000000,0.000000,1.000000,0.000000,0.000000,0.000000,0.000000,0.659354,23.987879,-0.972384
1650625591.507546,4029.000000,1650625591.507298,0.000000,0.000000,1.000000,0.000000,0.000000,0.000000,0.000000,0.658965,23.987473,-0.986368
1650625591.607611,4030.000000,1650625591.607352,0.000000,0.000000,1.000000,0.000000,0.000000,0.000000,0.000000,0.658562,23.987126,-1.000450
