__time,/dwm1001/id_458E/pose_kf/header/seq,/dwm1001/id_458E/pose_kf/header/stamp,/dwm1001/id_458E/pose_kf/pose/orientation/pitch_deg,/dwm1001/id_458E/pose_kf/pose/orientation/roll_deg,/dwm1001/id_458E/pose_kf/pose/orientation/w,/dwm1001/id_458E/pose_kf/pose/orientation/x,/dwm1001/id_458E/pose_kf/pose/orientation/y,/dwm1001/id_458E/pose_kf/pose/orientation/yaw_deg,/dwm1001/id_458E/pose_kf/pose/orientation/z,/dwm1001/id_458E/pose_kf/pose/position/x,/dwm1001/id_458E/pose_kf/pose/position/y,/dwm1001/id_458E/pose_kf/pose/position/z
1649934125.315128,6032.000000,1649934125.314976,0.000000,0.000000,1.000000,0.000000,0.000000,0.000000,0.000000,0.932514,12.384220,-0.680826
1649934125.415454,6033.000000,1649934125.415246,0.000000,0.000000,1.000000,0.000000,0.000000,0.000000,0.000000,0.933309,12.385050,-0.680924
1649934125.515512,6034.000000,1649934125.515229,0.000000,0.000000,1.000000,0.000000,0.000000,0.000000,0.000000,0.932970,12.386911,-0.681885
1649934125.615096,6035.000000,1649934125.614961,0.000000,0.000000,1.000000,0.000000,0.000000,0.000000,0.000000,0.932648,12.387561,-0.681251
1649934125.715139,6036.000000,1649934125.715015,0.000000,0.000000,1.000000,0.000000,0.000000,0.000000,0.000000,0.932346,12.387065,-0.683117
1649934125.815101,6037.000000,1649934125.814968,0.000000,0.000000,1.000000,0.000000,0.000000,0.000000,0.000000,0.932061,12.387669,-0.686571
1649934125.915052,6038.000000,1649934125.914920,0.000000,0.000000,1.000000,0.000000,0.000000,0.000000,0.000000,0.931794,12.387131,-0.689121
1649934126.015171,6039.000000,1649934126.015039,0.000000,0.000000,1.000000,0.000000,0.000000,0.000000,0.000000,0.930455,12.386608,-0.690797
1649934126.115582,6040.000000,1649934126.115363,0.000000,0.000000,1.000000,0.000000,0.000000,0.000000,0.000000,0.930287,12.386099,-0.691631
1649934126.215750,6041.000000,1649934126.215579,0.000000,0.000000,1.000000,0.000000,0.000000,0.000000,0.000000,0.930135,12.385608,-0.690040
1649934126.315502,6042.000000,1649934126.315324,0.000000,0.000000,1.000000,0.000000,0.000000,0.000000,0.000000,0.929998,12.386226,-0.691769
1649934126.415026,6043.000000,1649934126.414858,0.000000,0.000000,1.000000,0.000000,0.000000,0.000000,0.000000,0.928787,12.387890,-0.693455
1649934126.515788,6044.000000,1649934126.515605,0.000000,0.000000,1.000000,0.000000,0.000000,0.000000,0.000000,0.926561,12.388359,-0.694288
1649934126.615494,6045.000000,1649934126.615353,0.000000,0.000000,1.000000,0.000000,0.000000,0.000000,0.000000,0.925565,12.388786,-0.696720
1649934126.715502,6046.000000,1649934126.715320,0.000000,0.000000,1.000000,0.000000,0.000000,0.000000,0.000000,0.924642,12.388085,-0.691005
1649934126.815407,6047.000000,1649934126.815260,0.000000,0.000000,1.000000,0.000000,0.000000,0.000000,0.000000,0.924881,12.386319,-0.690382
1649934126.915504,6048.000000,1649934126.915271,0.000000,0.000000,1.000000,0.000000,0.000000,0.000000,0.000000,0.926216,12.384642,-0.685776
1649934127.015821,6049.000000,1649934127.015672,0.000000,0.000000,1.000000,0.000000,0.000000,0.000000,0.000000,0.927493,12.381966,-0.677353
1649934127.115563,6050.000000,1649934127.115429,0.000000,0.000000,1.000000,0.000000,0.000000,0.000000,0.000000,0.929799,12.379443,-0.669314
1649934127.215349,6051.000000,1649934127.215176,0.000000,0.000000,1.000000,0.000000,0.000000,0.000000,0.000000,0.933072,12.378164,-0.668106
1649934127.315482,6052.000000,1649934127.315335,0.000000,0.000000,1.000000,0.000000,0.000000,0.000000,0.000000,0.936157,12.376973,-0.668615
1649934127.415648,6053.000000,1649934127.415441,0.000000,0.000000,1.000000,0.000000,0.000000,0.000000,0.000000,0.939056,12.374777,-0.665930
1649934127.515538,6054.000000,1649934127.515398,0.000000,0.000000,1.000000,0.000000,0.000000,0.000000,0.000000,0.939589,12.373818,-0.667439
1649934127.615419,6055.000000,1649934127.615184,0.000000,0.000000,1.000000,0.000000,0.000000,0.000000,0.000000,0.941158,12.370759,-0.664098
1649934127.715605,6056.000000,1649934127.715411,0.000000,0.000000,1.000000,0.000000,0.000000,0.000000,0.000000,0.942611,12.367903,-0.663364
1649934127.815694,6057.000000,1649934127.815481,0.000000,0.000000,1.000000,0.000000,0.000000,0.000000,0.000000,0.943952,12.366336,-0.665938
1649934127.915133,6058.000000,1649934127.915003,0.000000,0.000000,1.000000,0.000000,0.000000,0.000000,0.000000,0.946276,12.367080,-0.671679
1649934128.015083,6059.000000,1649934128.014956,0.000000,0.000000,1.000000,0.000000,0.000000,0.000000,0.000000,0.948432,12.366735,-0.673998
1649934128.115163,6060.000000,1649934128.115047,0.000000,0.000000,1.000000,0.000000,0.000000,0.000000,0.000000,0.949336,12.366448,-0.677057
1649934128.215137,6061.000000,1649934128.214974,0.000000,0.000000,1.000000,0.000000,0.000000,0.000000,0.000000,0.950145,12.366214,-0.680016
1649934128.315108,6062.000000,1649934128.314968,0.000000,0.000000,1.000000,0.000000,0.000000,0.000000,0.000000,0.950865,12.366030,-0.683677
1649934128.415095,6063.000000,1649934128.414965,0.000000,0.000000,1.000000,0.000000,0.000000,0.000000,0.000000,0.951501,12.365890,-0.688008
1649934128.515149,6064.000000,1649934128.515006,0.000000,0.000000,1.000000,0.000000,0.000000,0.000000,0.000000,0.953149,12.365792,-0.693778
1649934128.615669,6065.000000,1649934128.615466,0.000000,0.000000,1.000000,0.000000,0.000000,0.000000,0.000000,0.953570,12.366821,-0.698500
1649934128.715081,6066.000000,1649934128.714952,0.000000,0.000000,1.000000,0.000000,0.000000,0.000000,0.000000,0.953922,12.367822,-0.702210
1649934128.815173,6067.000000,1649934128.815041,0.000000,0.000000,1.000000,0.000000,0.000000,0.000000,0.000000,0.955302,12.369880,-0.710588
1649934128.915043,6068.000000,1649934128.914926,0.000000,0.000000,1.000000,0.000000,0.000000,0.000000,0.000000,0.955470,12.370749,-0.713754
1649934129.015089,6069.000000,1649934129.014948,0.000000,0.000000,1.000000,0.000000,0.000000,0.000000,0.000000,0.954496,12.370492,-0.714335
1649934129.115242,6070.000000,1649934129.115107,0.000000,0.000000,1.000000,0.000000,0.000000,0.000000,0.000000,0.954627,12.370260,-0.715660
1649934129.215166,6071.000000,1649934129.215054,0.000000,0.000000,1.000000,0.000000,0.000000,0.000000,0.000000,0.953623,12.370051,-0.719313
1649934129.315135,6072.000000,1649934129.314950,0.000000,0.000000,1.000000,0.000000,0.000000,0.000000,0.000000,0.951554,12.370956,-0.723582
1649934129.415246,6073.000000,1649934129.415095,0.000000,0.000000,1.000000,0.000000,0.000000,0.000000,0.000000,0.949574,12.371818,-0.726017
1649934129.515018,6074.000000,1649934129.514894,0.000000,0.000000,1.000000,0.000000,0.000000,0.000000,0.000000,0.948777,12.372638,-0.726690
1649934129.615128,6075.000000,1649934129.614958,0.000000,0.000000,1.000000,0.000000,0.000000,0.000000,0.000000,0.946922,12.373415,-0.728092
1649934129.715172,6076.000000,1649934129.715030,0.000000,0.000000,1.000000,0.000000,0.000000,0.000000,0.000000,0.945162,12.375239,-0.727775
1649934129.815114,6077.000000,1649934129.814978,0.000000,0.000000,1.000000,0.000000,0.000000,0.000000,0.000000,0.943499,12.376957,-0.729843
1649934129.915129,6078.000000,1649934129.914974,0.000000,0.000000,1.000000,0.000000,0.000000,0.000000,0.000000,0.940842,12.377480,-0.730972
1649934130.015219,6079.000000,1649934130.015077,0.000000,0.000000,1.000000,0.000000,0.000000,0.000000,0.000000,0.939434,12.377961,-0.732007
1649934130.115165,6080.000000,1649934130.115050,0.000000,0.000000,1.000000,0.000000,0.000000,0.000000,0.000000,0.939210,12.378403,-0.735370
1649934130.215412,6081.000000,1649934130.215286,0.000000,0.000000,1.000000,0.000000,0.000000,0.000000,0.000000,0.941197,12.379896,-0.739353
1649934130.315051,6082.000000,1649934130.314957,0.000000,0.000000,1.000000,0.000000,0.000000,0.000000,0.000000,0.943085,12.380201,-0.739086
1649934130.415002,6083.000000,1649934130.414894,0.000000,0.000000,1.000000,0.000000,0.000000,0.000000,0.000000,0.942693,12.380470,-0.740388
1649934130.515217,6084.000000,1649934130.515109,0.000000,0.000000,1.000000,0.000000,0.000000,0.000000,0.000000,0.942327,12.381798,-0.742391
1649934130.615542,6085.000000,1649934130.615316,0.000000,0.000000,1.000000,0.000000,0.000000,0.000000,0.000000,0.940896,12.381942,-0.749097
1649934130.715443,6086.000000,1649934130.715253,0.000000,0.000000,1.000000,0.000000,0.000000,0.000000,0.000000,0.940642,12.382059,-0.755468
1649934130.815510,6087.000000,1649934130.815325,0.000000,0.000000,1.000000,0.000000,0.000000,0.000000,0.000000,0.940413,12.383240,-0.758285
1649934130.915503,6088.000000,1649934130.915288,0.000000,0.000000,1.000000,0.000000,0.000000,0.000000,0.000000,0.940205,12.384335,-0.760107
1649934131.015238,6089.000000,1649934131.015086,0.000000,0.000000,1.000000,0.000000,0.000000,0.000000,0.000000,0.940019,12.385346,-0.761783
1649934131.115135,6090.000000,1649934131.114964,0.000000,0.000000,1.000000,0.000000,0.000000,0.000000,0.000000,0.938763,12.385185,-0.760897
1649934131.215188,6091.000000,1649934131.214986,0.000000,0.000000,1.000000,0.000000,0.000000,0.000000,0.000000,0.938679,12.386100,-0.761592
1649934131.315535,6092.000000,1649934131.315372,0.000000,0.000000,1.000000,0.000000,0.000000,0.000000,0.000000,0.937522,12.386940,-0.763804
1649934131.415068,6093.000000,1649934131.414912,0.000000,0.000000,1.000000,0.000000,0.000000,0.000000,0.000000,0.937534,12.387708,-0.765052
1649934131.515473,6094.000000,1649934131.515257,0.000000,0.000000,1.000000,0.000000,0.000000,0.000000,0.000000,0.936470,12.387315,-0.765376
1649934131.615187,6095.000000,1649934131.615040,0.000000,0.000000,1.000000,0.000000,0.000000,0.000000,0.000000,0.936572,12.388010,-0.767235
1649934131.715711,6096.000000,1649934131.715564,0.000000,0.000000,1.000000,0.000000,0.000000,0.000000,0.000000,0.935594,12.387551,-0.767340
1649934131.815575,6097.000000,1649934131.815377,0.000000,0.000000,1.000000,0.000000,0.000000,0.000000,0.000000,0.935778,12.387095,-0.766571
1649934131.915581,6098.000000,1649934131.915371,0.000000,0.000000,1.000000,0.000000,0.000000,0.000000,0.000000,0.934877,12.386644,-0.769000
1649934132.015429,6099.000000,1649934132.015282,0.000000,0.000000,1.000000,0.000000,0.000000,0.000000,0.000000,0.934045,12.386200,-0.768852
1649934132.115517,6100.000000,1649934132.115320,0.000000,0.000000,1.000000,0.000000,0.000000,0.000000,0.000000,0.932187,12.385766,-0.767844
1649934132.215517,6101.000000,1649934132.215351,0.000000,0.000000,1.000000,0.000000,0.000000,0.000000,0.000000,0.930455,12.385343,-0.767631
1649934132.315497,6102.000000,1649934132.315355,0.000000,0.000000,1.000000,0.000000,0.000000,0.000000,0.000000,0.929937,12.384932,-0.770600
1649934132.415475,6103.000000,1649934132.415314,0.000000,0.000000,1.000000,0.000000,0.000000,0.000000,0.000000,0.930565,12.384535,-0.766944
1649934132.515444,6104.000000,1649934132.515302,0.000000,0.000000,1.000000,0.000000,0.000000,0.000000,0.000000,0.931185,12.384153,-0.759358
1649934132.615932,6105.000000,1649934132.615700,0.000000,0.000000,1.000000,0.000000,0.000000,0.000000,0.000000,0.931793,12.383786,-0.754466
1649934132.715519,6106.000000,1649934132.715363,0.000000,0.000000,1.000000,0.000000,0.000000,0.000000,0.000000,0.932386,12.383435,-0.752975
1649934132.815564,6107.000000,1649934132.815360,0.000000,0.000000,1.000000,0.000000,0.000000,0.000000,0.000000,0.931872,12.384192,-0.753140
1649934132.915442,6108.000000,1649934132.915225,0.000000,0.000000,1.000000,0.000000,0.000000,0.000000,0.000000,0.931402,12.384902,-0.753281
1649934133.015589,6109.000000,1649934133.015417,0.000000,0.000000,1.000000,0.000000,0.000000,0.000000,0.000000,0.929884,12.385567,-0.755013
1649934133.115533,6110.000000,1649934133.115348,0.000000,0.000000,1.000000,0.000000,0.000000,0.000000,0.000000,0.929560,12.385098,-0.755849
1649934133.215464,6111.000000,1649934133.215317,0.000000,0.000000,1.000000,0.000000,0.000000,0.000000,0.000000,0.929274,12.385737,-0.757438
1649934133.315657,6112.000000,1649934133.315490,0.000000,0.000000,1.000000,0.000000,0.000000,0.000000,0.000000,0.929023,12.386334,-0.759748
1649934133.415605,6113.000000,1649934133.415443,0.000000,0.000000,1.000000,0.000000,0.000000,0.000000,0.000000,0.929897,12.385798,-0.758715
1649934133.515312,6114.000000,1649934133.515115,0.000000,0.000000,1.000000,0.000000,0.000000,0.000000,0.000000,0.930739,12.385285,-0.756089
1649934133.615129,6115.000000,1649934133.614980,0.000000,0.000000,1.000000,0.000000,0.000000,0.000000,0.000000,0.930457,12.384794,-0.755165
1649934133.715387,6116.000000,1649934133.714962,0.000000,0.000000,1.000000,0.000000,0.000000,0.000000,0.000000,0.930203,12.383236,-0.753457
1649934133.815160,6117.000000,1649934133.815024,0.000000,0.000000,1.000000,0.000000,0.000000,0.000000,0.000000,0.928885,12.382855,-0.751002
1649934133.915347,6118.000000,1649934133.915210,0.000000,0.000000,1.000000,0.000000,0.000000,0.000000,0.000000,0.928745,12.382497,-0.747026
1649934134.015133,6119.000000,1649934134.014968,0.000000,0.000000,1.000000,0.000000,0.000000,0.000000,0.000000,0.928628,12.381073,-0.742405
1649934134.115140,6120.000000,1649934134.114993,0.000000,0.000000,1.000000,0.000000,0.000000,0.000000,0.000000,0.929623,12.379734,-0.738786
1649934134.215199,6121.000000,1649934134.215000,0.000000,0.000000,1.000000,0.000000,0.000000,0.000000,0.000000,0.929484,12.378480,-0.734520
1649934134.315125,6122.000000,1649934134.314972,0.000000,0.000000,1.000000,0.000000,0.000000,0.000000,0.000000,0.929364,12.378399,-0.732867
1649934134.415258,6123.000000,1649934134.415112,0.000000,0.000000,1.000000,0.000000,0.000000,0.000000,0.000000,0.930351,12.378338,-0.733723
1649934134.515525,6124.000000,1649934134.515263,0.000000,0.000000,1.000000,0.000000,0.000000,0.000000,0.000000,0.930201,12.377203,-0.735372
1649934134.615484,6125.000000,1649934134.615304,0.000000,0.000000,1.000000,0.000000,0.000000,0.000000,0.000000,0.930066,12.377237,-0.736971
1649934134.715175,6126.000000,1649934134.715007,0.000000,0.000000,1.000000,0.000000,0.000000,0.000000,0.000000,0.931036,12.377285,-0.740132
1649934134.815196,6127.000000,1649934134.815062,0.000000,0.000000,1.000000,0.000000,0.000000,0.000000,0.000000,0.930866,12.378435,-0.744787
1649934134.915274,6128.000000,1649934134.915135,0.000000,0.000000,1.000000,0.000000,0.000000,0.000000,0.000000,0.931800,12.378442,-0.746833
1649934135.015836,6129.000000,1649934135.015584,0.000000,0.000000,1.000000,0.000000,0.000000,0.000000,0.000000,0.932683,12.378458,-0.744761
1649934135.115268,6130.000000,1649934135.115141,0.000000,0.000000,1.000000,0.000000,0.000000,0.000000,0.000000,0.933516,12.378482,-0.742772
1649934135.214955,6131.000000,1649934135.214842,0.000000,0.000000,1.000000,0.000000,0.000000,0.000000,0.000000,0.933209,12.379603,-0.741673
1649934135.315081,6132.000000,1649934135.314947,0.000000,0.000000,1.000000,0.000000,0.000000,0.000000,0.000000,0.932914,12.380667,-0.736591
1649934135.415128,6133.000000,1649934135.414894,0.000000,0.000000,1.000000,0.000000,0.000000,0.000000,0.000000,0.932634,12.380584,-0.731726
1649934135.515117,6134.000000,1649934135.514980,0.000000,0.000000,1.000000,0.000000,0.000000,0.000000,0.000000,0.932368,12.380506,-0.729498
1649934135.615073,6135.000000,1649934135.614956,0.000000,0.000000,1.000000,0.000000,0.000000,0.000000,0.000000,0.933206,12.380434,-0.727384
1649934135.715376,6136.000000,1649934135.715219,0.000000,0.000000,1.000000,0.000000,0.000000,0.000000,0.000000,0.935086,12.379276,-0.723768
1649934135.815416,6137.000000,1649934135.815237,0.000000,0.000000,1.000000,0.000000,0.000000,0.000000,0.000000,0.936855,12.378186,-0.719523
1649934135.915110,6138.000000,1649934135.914988,0.000000,0.000000,1.000000,0.000000,0.000000,0.000000,0.000000,0.939604,12.377163,-0.715486
1649934136.015144,6139.000000,1649934136.014967,0.000000,0.000000,1.000000,0.000000,0.000000,0.000000,0.000000,0.940001,12.375117,-0.708429
1649934136.115341,6140.000000,1649934136.115162,0.000000,0.000000,1.000000,0.000000,0.000000,0.000000,0.000000,0.939264,12.373198,-0.700096
1649934136.215497,6141.000000,1649934136.215310,0.000000,0.000000,1.000000,0.000000,0.000000,0.000000,0.000000,0.938549,12.372496,-0.697808
1649934136.315144,6142.000000,1649934136.315005,0.000000,0.000000,1.000000,0.000000,0.000000,0.000000,0.000000,0.937858,12.371855,-0.692453
1649934136.415104,6143.000000,1649934136.414987,0.000000,0.000000,1.000000,0.000000,0.000000,0.000000,0.000000,0.937194,12.373453,-0.692224
1649934136.515462,6144.000000,1649934136.515346,0.000000,0.000000,1.000000,0.000000,0.000000,0.000000,0.000000,0.936556,12.372800,-0.684817
1649934136.615404,6145.000000,1649934136.615117,0.000000,0.000000,1.000000,0.000000,0.000000,0.000000,0.000000,0.935947,12.373291,-0.682625
1649934136.715154,6146.000000,1649934136.714964,0.000000,0.000000,1.000000,0.000000,0.000000,0.000000,0.000000,0.934276,12.373771,-0.680601
1649934136.815350,6147.000000,1649934136.815215,0.000000,0.000000,1.000000,0.000000,0.000000,0.000000,0.000000,0.931607,12.375328,-0.678739
1649934136.915475,6148.000000,1649934136.915335,0.000000,0.000000,1.000000,0.000000,0.000000,0.000000,0.000000,0.930184,12.375717,-0.669773
1649934137.015070,6149.000000,1649934137.014935,0.000000,0.000000,1.000000,0.000000,0.000000,0.000000,0.000000,0.928852,12.376090,-0.662066
1649934137.115100,6150.000000,1649934137.114963,0.000000,0.000000,1.000000,0.000000,0.000000,0.000000,0.000000,0.927609,12.376448,-0.657996
1649934137.215657,6151.000000,1649934137.215524,0.000000,0.000000,1.000000,0.000000,0.000000,0.000000,0.000000,0.927545,12.376789,-0.650967
1649934137.315099,6152.000000,1649934137.314969,0.000000,0.000000,1.000000,0.000000,0.000000,0.000000,0.000000,0.927503,12.376022,-0.646752
1649934137.415476,6153.000000,1649934137.415311,0.000000,0.000000,1.000000,0.000000,0.000000,0.000000,0.000000,0.927481,12.375301,-0.642013
1649934137.515142,6154.000000,1649934137.515022,0.000000,0.000000,1.000000,0.000000,0.000000,0.000000,0.000000,0.926387,12.374626,-0.635969
1649934137.615013,6155.000000,1649934137.614845,0.000000,0.000000,1.000000,0.000000,0.000000,0.000000,0.000000,0.926462,12.373995,-0.631904
1649934137.715111,6156.000000,1649934137.714963,0.000000,0.000000,1.000000,0.000000,0.000000,0.000000,0.000000,0.927642,12.373408,-0.628932
1649934137.815076,6157.000000,1649934137.814955,0.000000,0.000000,1.000000,0.000000,0.000000,0.000000,0.000000,0.928771,12.372863,-0.627010
1649934137.915098,6158.000000,1649934137.914965,0.000000,0.000000,1.000000,0.000000,0.000000,0.000000,0.000000,0.928757,12.373450,-0.626900
1649934138.015198,6159.000000,1649934138.015063,0.000000,0.000000,1.000000,0.000000,0.000000,0.000000,0.000000,0.929843,12.374014,-0.626911
1649934138.115023,6160.000000,1649934138.114897,0.000000,0.000000,1.000000,0.000000,0.000000,0.000000,0.000000,0.930875,12.373464,-0.625421
1649934138.215525,6161.000000,1649934138.215379,0.000000,0.000000,1.000000,0.000000,0.000000,0.000000,0.000000,0.930761,12.372952,-0.627326
1649934138.315071,6162.000000,1649934138.314943,0.000000,0.000000,1.000000,0.000000,0.000000,0.000000,0.000000,0.931745,12.373568,-0.630869
1649934138.415031,6163.000000,1649934138.414899,0.000000,0.000000,1.000000,0.000000,0.000000,0.000000,0.000000,0.930493,12.374157,-0.634360
1649934138.515065,6164.000000,1649934138.514953,0.000000,0.000000,1.000000,0.000000,0.000000,0.000000,0.000000,0.931492,12.374719,-0.640212
1649934138.615179,6165.000000,1649934138.615045,0.000000,0.000000,1.000000,0.000000,0.000000,0.000000,0.000000,0.932435,12.375252,-0.646703
1649934138.715158,6166.000000,1649934138.715035,0.000000,0.000000,1.000000,0.000000,0.000000,0.000000,0.000000,0.933324,12.375758,-0.650567
1649934138.814383,6167.000000,1649934138.814204,0.000000,0.000000,1.000000,0.000000,0.000000,0.000000,0.000000,0.934158,12.376235,-0.654321
1649934138.915052,6168.000000,1649934138.914898,0.000000,0.000000,1.000000,0.000000,0.000000,0.000000,0.000000,0.936027,12.375593,-0.624896
1649934139.015946,6169.000000,1649934139.015732,0.000000,0.000000,1.000000,0.000000,0.000000,0.000000,0.000000,0.936691,12.373895,-0.601582
1649934139.115425,6170.000000,1649934139.115235,0.000000,0.000000,1.000000,0.000000,0.000000,0.000000,0.000000,0.937303,12.373386,-0.587393
1649934139.215137,6171.000000,1649934139.215006,0.000000,0.000000,1.000000,0.000000,0.000000,0.000000,0.000000,0.937865,12.372911,-0.577949
1649934139.315293,6172.000000,1649934139.315154,0.000000,0.000000,1.000000,0.000000,0.000000,0.000000,0.000000,0.938379,12.372469,-0.573069
1649934139.415186,6173.000000,1649934139.415052,0.000000,0.000000,1.000000,0.000000,0.000000,0.000000,0.000000,0.938848,12.370970,-0.570151
1649934139.515098,6174.000000,1649934139.514935,0.000000,0.000000,1.000000,0.000000,0.000000,0.000000,0.000000,0.939273,12.369565,-0.568308
1649934139.615005,6175.000000,1649934139.614888,0.000000,0.000000,1.000000,0.000000,0.000000,0.000000,0.000000,0.939655,12.369344,-0.571526
1649934139.715187,6176.000000,1649934139.715082,0.000000,0.000000,1.000000,0.000000,0.000000,0.000000,0.000000,0.939999,12.368060,-0.571524
1649934139.815570,6177.000000,1649934139.815372,0.000000,0.000000,1.000000,0.000000,0.000000,0.000000,0.000000,0.940305,12.367956,-0.574879
1649934139.915326,6178.000000,1649934139.915117,0.000000,0.000000,1.000000,0.000000,0.000000,0.000000,0.000000,0.939485,12.367876,-0.577412
1649934140.015509,6179.000000,1649934140.015331,0.000000,0.000000,1.000000,0.000000,0.000000,0.000000,0.000000,0.938695,12.366728,-0.578339
1649934140.115568,6180.000000,1649934140.115427,0.000000,0.000000,1.000000,0.000000,0.000000,0.000000,0.000000,0.937936,12.365663,-0.578527
1649934140.215230,6181.000000,1649934140.215088,0.000000,0.000000,1.000000,0.000000,0.000000,0.000000,0.000000,0.937210,12.365768,-0.582838
1649934140.315097,6182.000000,1649934140.314942,0.000000,0.000000,1.000000,0.000000,0.000000,0.000000,0.000000,0.935428,12.366979,-0.591902
1649934140.415439,6183.000000,1649934140.415310,0.000000,0.000000,1.000000,0.000000,0.000000,0.000000,0.000000,0.935924,12.368140,-0.603089
1649934140.515090,6184.000000,1649934140.514955,0.000000,0.000000,1.000000,0.000000,0.000000,0.000000,0.000000,0.935300,12.370340,-0.616291
1649934140.615417,6185.000000,1649934140.615095,0.000000,0.000000,1.000000,0.000000,0.000000,0.000000,0.000000,0.934712,12.370242,-0.621725
1649934140.715096,6186.000000,1649934140.714989,0.000000,0.000000,1.000000,0.000000,0.000000,0.000000,0.000000,0.934158,12.371244,-0.630178
1649934140.815358,6187.000000,1649934140.815215,0.000000,0.000000,1.000000,0.000000,0.000000,0.000000,0.000000,0.934728,12.373283,-0.641514
1649934140.915502,6188.000000,1649934140.915323,0.000000,0.000000,1.000000,0.000000,0.000000,0.000000,0.000000,0.934179,12.374113,-0.649145
1649934141.015143,6189.000000,1649934141.015009,0.000000,0.000000,1.000000,0.000000,0.000000,0.000000,0.000000,0.932574,12.373800,-0.648371
1649934141.115371,6190.000000,1649934141.115203,0.000000,0.000000,1.000000,0.000000,0.000000,0.000000,0.000000,0.931064,12.372407,-0.640338
1649934141.215520,6191.000000,1649934141.215357,0.000000,0.000000,1.000000,0.000000,0.000000,0.000000,0.000000,0.929649,12.369997,-0.630194
1649934141.315494,6192.000000,1649934141.315348,0.000000,0.000000,1.000000,0.000000,0.000000,0.000000,0.000000,0.929418,12.368815,-0.624492
1649934141.415933,6193.000000,1649934141.415749,0.000000,0.000000,1.000000,0.000000,0.000000,0.000000,0.000000,0.929216,12.368796,-0.620645
1649934141.515822,6194.000000,1649934141.515653,0.000000,0.000000,1.000000,0.000000,0.000000,0.000000,0.000000,0.930132,12.368787,-0.620196
1649934141.615390,6195.000000,1649934141.615248,0.000000,0.000000,1.000000,0.000000,0.000000,0.000000,0.000000,0.929919,12.369877,-0.622202
1649934141.715274,6196.000000,1649934141.715124,0.000000,0.000000,1.000000,0.000000,0.000000,0.000000,0.000000,0.930820,12.369821,-0.625753
1649934141.815309,6197.000000,1649934141.815173,0.000000,0.000000,1.000000,0.000000,0.000000,0.000000,0.000000,0.930591,12.369773,-0.630781
1649934141.915137,6198.000000,1649934141.915015,0.000000,0.000000,1.000000,0.000000,0.000000,0.000000,0.000000,0.930383,12.369731,-0.634798
1649934142.015236,6199.000000,1649934142.015103,0.000000,0.000000,1.000000,0.000000,0.000000,0.000000,0.000000,0.930195,12.368606,-0.634611
1649934142.115093,6200.000000,1649934142.114922,0.000000,0.000000,1.000000,0.000000,0.000000,0.000000,0.000000,0.930026,12.367548,-0.635231
1649934142.215519,6201.000000,1649934142.215205,0.000000,0.000000,1.000000,0.000000,0.000000,0.000000,0.000000,0.929876,12.366559,-0.635817
1649934142.315205,6202.000000,1649934142.315065,0.000000,0.000000,1.000000,0.000000,0.000000,0.000000,0.000000,0.929742,12.365636,-0.634756
1649934142.415310,6203.000000,1649934142.415167,0.000000,0.000000,1.000000,0.000000,0.000000,0.000000,0.000000,0.928535,12.364778,-0.632119
1649934142.515094,6204.000000,1649934142.514954,0.000000,0.000000,1.000000,0.000000,0.000000,0.000000,0.000000,0.927405,12.366165,-0.639262
1649934142.615159,6205.000000,1649934142.615041,0.000000,0.000000,1.000000,0.000000,0.000000,0.000000,0.000000,0.927443,12.369668,-0.650942
1649934142.715314,6206.000000,1649934142.715160,0.000000,0.000000,1.000000,0.000000,0.000000,0.000000,0.000000,0.927492,12.370799,-0.654860
1649934142.815562,6207.000000,1649934142.815376,0.000000,0.000000,1.000000,0.000000,0.000000,0.000000,0.000000,0.927552,12.372956,-0.661000
1649934142.915541,6208.000000,1649934142.915342,0.000000,0.000000,1.000000,0.000000,0.000000,0.000000,0.000000,0.927621,12.374984,-0.668457
1649934143.015912,6209.000000,1649934143.015691,0.000000,0.000000,1.000000,0.000000,0.000000,0.000000,0.000000,0.927697,12.376886,-0.677976
1649934143.115116,6210.000000,1649934143.114962,0.000000,0.000000,1.000000,0.000000,0.000000,0.000000,0.000000,0.927779,12.377572,-0.686232
1649934143.215076,6211.000000,1649934143.214956,0.000000,0.000000,1.000000,0.000000,0.000000,0.000000,0.000000,0.928957,12.378199,-0.692459
1649934143.315160,6212.000000,1649934143.315017,0.000000,0.000000,1.000000,0.000000,0.000000,0.000000,0.000000,0.928985,12.377679,-0.699152
1649934143.415231,6213.000000,1649934143.415102,0.000000,0.000000,1.000000,0.000000,0.000000,0.000000,0.000000,0.930107,12.378257,-0.706284
1649934143.515247,6214.000000,1649934143.515074,0.000000,0.000000,1.000000,0.000000,0.000000,0.000000,0.000000,0.932260,12.377693,-0.712216
1649934143.615487,6215.000000,1649934143.615327,0.000000,0.000000,1.000000,0.000000,0.000000,0.000000,0.000000,0.933199,12.378232,-0.717798
1649934143.715420,6216.000000,1649934143.715268,0.000000,0.000000,1.000000,0.000000,0.000000,0.000000,0.000000,0.934078,12.378724,-0.724652
1649934143.815582,6217.000000,1649934143.815399,0.000000,0.000000,1.000000,0.000000,0.000000,0.000000,0.000000,0.934899,12.379170,-0.731107
1649934143.915515,6218.000000,1649934143.915331,0.000000,0.000000,1.000000,0.000000,0.000000,0.000000,0.000000,0.935662,12.379572,-0.734754
1649934144.015349,6219.000000,1649934144.015205,0.000000,0.000000,1.000000,0.000000,0.000000,0.000000,0.000000,0.936370,12.381024,-0.738125
1649934144.115155,6220.000000,1649934144.114991,0.000000,0.000000,1.000000,0.000000,0.000000,0.000000,0.000000,0.937023,12.381284,-0.737198
1649934144.215147,6221.000000,1649934144.215031,0.000000,0.000000,1.000000,0.000000,0.000000,0.000000,0.000000,0.936533,12.381507,-0.735379
1649934144.315230,6222.000000,1649934144.315070,0.000000,0.000000,1.000000,0.000000,0.000000,0.000000,0.000000,0.936056,12.381697,-0.735132
1649934144.415214,6223.000000,1649934144.415067,0.000000,0.000000,1.000000,0.000000,0.000000,0.000000,0.000000,0.936682,12.382945,-0.738012
1649934144.515231,6224.000000,1649934144.515084,0.000000,0.000000,1.000000,0.000000,0.000000,0.000000,0.000000,0.936171,12.383011,-0.736633
1649934144.615611,6225.000000,1649934144.615410,0.000000,0.000000,1.000000,0.000000,0.000000,0.000000,0.000000,0.935677,12.383052,-0.737628
1649934144.715542,6226.000000,1649934144.715396,0.000000,0.000000,1.000000,0.000000,0.000000,0.000000,0.000000,0.935201,12.381978,-0.733643
1649934144.815465,6227.000000,1649934144.815305,0.000000,0.000000,1.000000,0.000000,0.000000,0.000000,0.000000,0.935835,12.380946,-0.732956
1649934144.915609,6228.000000,1649934144.915359,0.000000,0.000000,1.000000,0.000000,0.000000,0.000000,0.000000,0.935335,12.379957,-0.729794
1649934145.015635,6229.000000,1649934145.015435,0.000000,0.000000,1.000000,0.000000,0.000000,0.000000,0.000000,0.934857,12.379014,-0.727490
1649934145.115414,6230.000000,1649934145.115228,0.000000,0.000000,1.000000,0.000000,0.000000,0.000000,0.000000,0.935490,12.378117,-0.727630
1649934145.215173,6231.000000,1649934145.215047,0.000000,0.000000,1.000000,0.000000,0.000000,0.000000,0.000000,0.936083,12.377266,-0.728506
1649934145.315196,6232.000000,1649934145.315039,0.000000,0.000000,1.000000,0.000000,0.000000,0.000000,0.000000,0.936635,12.377553,-0.730895
1649934145.415752,6233.000000,1649934145.415583,0.000000,0.000000,1.000000,0.000000,0.000000,0.000000,0.000000,0.937149,12.377824,-0.732316
1649934145.515636,6234.000000,1649934145.515441,0.000000,0.000000,1.000000,0.000000,0.000000,0.000000,0.000000,0.937624,12.378079,-0.731196
1649934145.615155,6235.000000,1649934145.614999,0.000000,0.000000,1.000000,0.000000,0.000000,0.000000,0.000000,0.938063,12.378319,-0.730059
1649934145.715423,6236.000000,1649934145.715239,0.000000,0.000000,1.000000,0.000000,0.000000,0.000000,0.000000,0.938466,12.377453,-0.725687
1649934145.815178,6237.000000,1649934145.815053,0.000000,0.000000,1.000000,0.000000,0.000000,0.000000,0.000000,0.937744,12.377724,-0.723057
1649934145.915215,6238.000000,1649934145.915097,0.000000,0.000000,1.000000,0.000000,0.000000,0.000000,0.000000,0.937052,12.376890,-0.719688
1649934146.015166,6239.000000,1649934146.015028,0.000000,0.000000,1.000000,0.000000,0.000000,0.000000,0.000000,0.937482,12.377194,-0.718034
1649934146.115194,6240.000000,1649934146.115057,0.000000,0.000000,1.000000,0.000000,0.000000,0.000000,0.000000,0.936790,12.378572,-0.718838
1649934146.215538,6241.000000,1649934146.215362,0.000000,0.000000,1.000000,0.000000,0.000000,0.000000,0.000000,0.936131,12.380963,-0.719581
1649934146.314382,6242.000000,1649934146.314236,0.000000,0.000000,1.000000,0.000000,0.000000,0.000000,0.000000,0.935506,12.383213,-0.720266
1649934146.415118,6243.000000,1649934146.415005,0.000000,0.000000,1.000000,0.000000,0.000000,0.000000,0.000000,0.936004,12.383142,-0.688636
1649934146.515464,6244.000000,1649934146.515329,0.000000,0.000000,1.000000,0.000000,0.000000,0.000000,0.000000,0.937563,12.384150,-0.667985
1649934146.615146,6245.000000,1649934146.614987,0.000000,0.000000,1.000000,0.000000,0.000000,0.000000,0.000000,0.939031,12.398169,-0.674033
1649934146.715097,6246.000000,1649934146.714949,0.000000,0.000000,1.000000,0.000000,0.000000,0.000000,0.000000,0.940408,12.409183,-0.682304
1649934146.815172,6247.000000,1649934146.815013,0.000000,0.000000,1.000000,0.000000,0.000000,0.000000,0.000000,0.942785,12.416233,-0.687854
1649934146.915156,6248.000000,1649934146.915015,0.000000,0.000000,1.000000,0.000000,0.000000,0.000000,0.000000,0.942831,12.420609,-0.690782
1649934147.015512,6249.000000,1649934147.015328,0.000000,0.000000,1.000000,0.000000,0.000000,0.000000,0.000000,0.941763,12.424630,-0.696025
1649934147.115335,6250.000000,1649934147.115093,0.000000,0.000000,1.000000,0.000000,0.000000,0.000000,0.000000,0.939647,12.426128,-0.697031
1649934147.215052,6251.000000,1649934147.214906,0.000000,0.000000,1.000000,0.000000,0.000000,0.000000,0.000000,0.937639,12.426334,-0.695579
1649934147.315112,6252.000000,1649934147.314960,0.000000,0.000000,1.000000,0.000000,0.000000,0.000000,0.000000,0.934648,12.426415,-0.694999
1649934147.415204,6253.000000,1649934147.415038,0.000000,0.000000,1.000000,0.000000,0.000000,0.000000,0.000000,0.932919,12.426384,-0.695255
1649934147.515220,6254.000000,1649934147.515069,0.000000,0.000000,1.000000,0.000000,0.000000,0.000000,0.000000,0.931296,12.426253,-0.697926
1649934147.615327,6255.000000,1649934147.615121,0.000000,0.000000,1.000000,0.000000,0.000000,0.000000,0.000000,0.929780,12.426034,-0.701296
1649934147.715636,6256.000000,1649934147.715467,0.000000,0.000000,1.000000,0.000000,0.000000,0.000000,0.000000,0.929458,12.425738,-0.702107
1649934147.815674,6257.000000,1649934147.815476,0.000000,0.000000,1.000000,0.000000,0.000000,0.000000,0.000000,0.930265,12.424284,-0.706104
1649934147.915262,6258.000000,1649934147.915133,0.000000,0.000000,1.000000,0.000000,0.000000,0.000000,0.000000,0.931045,12.421747,-0.707509
1649934148.015090,6259.000000,1649934148.014959,0.000000,0.000000,1.000000,0.000000,0.000000,0.000000,0.000000,0.931796,12.418195,-0.708036
1649934148.115145,6260.000000,1649934148.115014,0.000000,0.000000,1.000000,0.000000,0.000000,0.000000,0.000000,0.932517,12.414791,-0.710141
1649934148.215199,6261.000000,1649934148.215063,0.000000,0.000000,1.000000,0.000000,0.000000,0.000000,0.000000,0.932116,12.412629,-0.714562
1649934148.315181,6262.000000,1649934148.315044,0.000000,0.000000,1.000000,0.000000,0.000000,0.000000,0.000000,0.932836,12.411651,-0.721200
1649934148.415132,6263.000000,1649934148.415027,0.000000,0.000000,1.000000,0.000000,0.000000,0.000000,0.000000,0.933522,12.408525,-0.723504
1649934148.515099,6264.000000,1649934148.514966,0.000000,0.000000,1.000000,0.000000,0.000000,0.000000,0.000000,0.933084,12.405561,-0.722452
1649934148.615820,6265.000000,1649934148.615675,0.000000,0.000000,1.000000,0.000000,0.000000,0.000000,0.000000,0.932675,12.401669,-0.718990
1649934148.715493,6266.000000,1649934148.715266,0.000000,0.000000,1.000000,0.000000,0.000000,0.000000,0.000000,0.931203,12.398002,-0.712415
1649934148.815472,6267.000000,1649934148.815266,0.000000,0.000000,1.000000,0.000000,0.000000,0.000000,0.000000,0.930911,12.394558,-0.708510
1649934148.915494,6268.000000,1649934148.915359,0.000000,0.000000,1.000000,0.000000,0.000000,0.000000,0.000000,0.930645,12.393517,-0.707981
1649934149.015522,6269.000000,1649934149.015354,0.000000,0.000000,1.000000,0.000000,0.000000,0.000000,0.000000,0.930404,12.392566,-0.706662
1649934149.115471,6270.000000,1649934149.115284,0.000000,0.000000,1.000000,0.000000,0.000000,0.000000,0.000000,0.930187,12.391704,-0.707811
1649934149.215226,6271.000000,1649934149.215081,0.000000,0.000000,1.000000,0.000000,0.000000,0.000000,0.000000,0.931083,12.390924,-0.710523
1649934149.315210,6272.000000,1649934149.315052,0.000000,0.000000,1.000000,0.000000,0.000000,0.000000,0.000000,0.931937,12.390224,-0.714728
1649934149.415491,6273.000000,1649934149.415362,0.000000,0.000000,1.000000,0.000000,0.000000,0.000000,0.000000,0.933839,12.389598,-0.718748
1649934149.515032,6274.000000,1649934149.514908,0.000000,0.000000,1.000000,0.000000,0.000000,0.000000,0.000000,0.934546,12.390134,-0.726616
1649934149.615058,6275.000000,1649934149.614931,0.000000,0.000000,1.000000,0.000000,0.000000,0.000000,0.000000,0.934119,12.389583,-0.727680
1649934149.715197,6276.000000,1649934149.715061,0.000000,0.000000,1.000000,0.000000,0.000000,0.000000,0.000000,0.933712,12.388005,-0.726247
1649934149.815292,6277.000000,1649934149.815154,0.000000,0.000000,1.000000,0.000000,0.000000,0.000000,0.000000,0.933327,12.388728,-0.726453
1649934149.915140,6278.000000,1649934149.915022,0.000000,0.000000,1.000000,0.000000,0.000000,0.000000,0.000000,0.932963,12.387264,-0.721783
1649934150.015158,6279.000000,1649934150.015036,0.000000,0.000000,1.000000,0.000000,0.000000,0.000000,0.000000,0.932619,12.387003,-0.722118
1649934150.115113,6280.000000,1649934150.114943,0.000000,0.000000,1.000000,0.000000,0.000000,0.000000,0.000000,0.932297,12.386790,-0.724032
1649934150.215441,6281.000000,1649934150.215313,0.000000,0.000000,1.000000,0.000000,0.000000,0.000000,0.000000,0.931996,12.385530,-0.722619
1649934150.315078,6282.000000,1649934150.314940,0.000000,0.000000,1.000000,0.000000,0.000000,0.000000,0.000000,0.931714,12.385463,-0.724470
1649934150.415082,6283.000000,1649934150.414953,0.000000,0.000000,1.000000,0.000000,0.000000,0.000000,0.000000,0.932543,12.385431,-0.722999
1649934150.515204,6284.000000,1649934150.515061,0.000000,0.000000,1.000000,0.000000,0.000000,0.000000,0.000000,0.933329,12.383251,-0.719148
1649934150.615197,6285.000000,1649934150.615045,0.000000,0.000000,1.000000,0.000000,0.000000,0.000000,0.000000,0.934071,12.380135,-0.713023
1649934150.715147,6286.000000,1649934150.715016,0.000000,0.000000,1.000000,0.000000,0.000000,0.000000,0.000000,0.934769,12.378323,-0.703111
1649934150.815124,6287.000000,1649934150.814991,0.000000,0.000000,1.000000,0.000000,0.000000,0.000000,0.000000,0.935424,12.375565,-0.694422
1649934150.915116,6288.000000,1649934150.914982,0.000000,0.000000,1.000000,0.000000,0.000000,0.000000,0.000000,0.936037,12.375191,-0.692565
1649934151.015229,6289.000000,1649934151.015088,0.000000,0.000000,1.000000,0.000000,0.000000,0.000000,0.000000,0.935517,12.374888,-0.687589
1649934151.115168,6290.000000,1649934151.115024,0.000000,0.000000,1.000000,0.000000,0.000000,0.000000,0.000000,0.936109,12.373560,-0.683660
1649934151.215127,6291.000000,1649934151.214975,0.000000,0.000000,1.000000,0.000000,0.000000,0.000000,0.000000,0.936662,12.373444,-0.681547
1649934151.315419,6292.000000,1649934151.315215,0.000000,0.000000,1.000000,0.000000,0.000000,0.000000,0.000000,0.937175,12.372292,-0.677952
1649934151.415545,6293.000000,1649934151.415350,0.000000,0.000000,1.000000,0.000000,0.000000,0.000000,0.000000,0.936560,12.373432,-0.677778
1649934151.515869,6294.000000,1649934151.515646,0.000000,0.000000,1.000000,0.000000,0.000000,0.000000,0.000000,0.937060,12.373462,-0.679272
1649934151.615271,6295.000000,1649934151.615110,0.000000,0.000000,1.000000,0.000000,0.000000,0.000000,0.000000,0.938615,12.372439,-0.674298
1649934151.715109,6296.000000,1649934151.714999,0.000000,0.000000,1.000000,0.000000,0.000000,0.000000,0.000000,0.940073,12.371512,-0.672801
1649934151.815514,6297.000000,1649934151.815350,0.000000,0.000000,1.000000,0.000000,0.000000,0.000000,0.000000,0.939253,12.370677,-0.673028
1649934151.915122,6298.000000,1649934151.914961,0.000000,0.000000,1.000000,0.000000,0.000000,0.000000,0.000000,0.939554,12.369929,-0.672488
1649934152.015053,6299.000000,1649934152.014834,0.000000,0.000000,1.000000,0.000000,0.000000,0.000000,0.000000,0.939826,12.369262,-0.671211
1649934152.115340,6300.000000,1649934152.115176,0.000000,0.000000,1.000000,0.000000,0.000000,0.000000,0.000000,0.940069,12.368673,-0.671645
1649934152.215170,6301.000000,1649934152.215039,0.000000,0.000000,1.000000,0.000000,0.000000,0.000000,0.000000,0.940285,12.367066,-0.665655
1649934152.315251,6302.000000,1649934152.315085,0.000000,0.000000,1.000000,0.000000,0.000000,0.000000,0.000000,0.941566,12.365590,-0.663185
1649934152.415514,6303.000000,1649934152.415320,0.000000,0.000000,1.000000,0.000000,0.000000,0.000000,0.000000,0.941670,12.363150,-0.660063
1649934152.515482,6304.000000,1649934152.515333,0.000000,0.000000,1.000000,0.000000,0.000000,0.000000,0.000000,0.940662,12.361983,-0.657932
1649934152.616056,6305.000000,1649934152.615882,0.000000,0.000000,1.000000,0.000000,0.000000,0.000000,0.000000,0.939696,12.362021,-0.659977
1649934152.715172,6306.000000,1649934152.715005,0.000000,0.000000,1.000000,0.000000,0.000000,0.000000,0.000000,0.938775,12.361015,-0.659574
1649934152.815175,6307.000000,1649934152.815056,0.000000,0.000000,1.000000,0.000000,0.000000,0.000000,0.000000,0.937900,12.360112,-0.658433
1649934152.915161,6308.000000,1649934152.915034,0.000000,0.000000,1.000000,0.000000,0.000000,0.000000,0.000000,0.935979,12.359307,-0.659808
1649934153.015129,6309.000000,1649934153.014964,0.000000,0.000000,1.000000,0.000000,0.000000,0.000000,0.000000,0.936348,12.359684,-0.663594
1649934153.115178,6310.000000,1649934153.115037,0.000000,0.000000,1.000000,0.000000,0.000000,0.000000,0.000000,0.937791,12.360085,-0.668878
1649934153.215116,6311.000000,1649934153.214952,0.000000,0.000000,1.000000,0.000000,0.000000,0.000000,0.000000,0.938062,12.360505,-0.674785
1649934153.315205,6312.000000,1649934153.315073,0.000000,0.000000,1.000000,0.000000,0.000000,0.000000,0.000000,0.937226,12.360939,-0.666760
1649934153.415157,6313.000000,1649934153.414999,0.000000,0.000000,1.000000,0.000000,0.000000,0.000000,0.000000,0.937525,12.359202,-0.658281
1649934153.515010,6314.000000,1649934153.514877,0.000000,0.000000,1.000000,0.000000,0.000000,0.000000,0.000000,0.936718,12.359777,-0.657445
1649934153.615505,6315.000000,1649934153.615381,0.000000,0.000000,1.000000,0.000000,0.000000,0.000000,0.000000,0.934865,12.361444,-0.659912
1649934153.715209,6316.000000,1649934153.715048,0.000000,0.000000,1.000000,0.000000,0.000000,0.000000,0.000000,0.933122,12.361956,-0.657476
1649934153.815561,6317.000000,1649934153.815331,0.000000,0.000000,1.000000,0.000000,0.000000,0.000000,0.000000,0.931485,12.360281,-0.650339
1649934153.915626,6318.000000,1649934153.915496,0.000000,0.000000,1.000000,0.000000,0.000000,0.000000,0.000000,0.931045,12.358725,-0.642732
1649934154.015492,6319.000000,1649934154.015269,0.000000,0.000000,1.000000,0.000000,0.000000,0.000000,0.000000,0.929557,12.357283,-0.637912
1649934154.115235,6320.000000,1649934154.115061,0.000000,0.000000,1.000000,0.000000,0.000000,0.000000,0.000000,0.929260,12.357044,-0.634965
1649934154.215552,6321.000000,1649934154.215376,0.000000,0.000000,1.000000,0.000000,0.000000,0.000000,0.000000,0.929001,12.356848,-0.634624
1649934154.315288,6322.000000,1649934154.315140,0.000000,0.000000,1.000000,0.000000,0.000000,0.000000,0.000000,0.928777,12.356694,-0.633556
1649934154.415481,6323.000000,1649934154.415336,0.000000,0.000000,1.000000,0.000000,0.000000,0.000000,0.000000,0.929674,12.355488,-0.627758
1649934154.515504,6324.000000,1649934154.515354,0.000000,0.000000,1.000000,0.000000,0.000000,0.000000,0.000000,0.930539,12.356559,-0.627104
1649934154.615552,6325.000000,1649934154.615408,0.000000,0.000000,1.000000,0.000000,0.000000,0.000000,0.000000,0.932460,12.357598,-0.628159
1649934154.715574,6326.000000,1649934154.715437,0.000000,0.000000,1.000000,0.000000,0.000000,0.000000,0.000000,0.935372,12.358601,-0.629238
1649934154.815609,6327.000000,1649934154.815414,0.000000,0.000000,1.000000,0.000000,0.000000,0.000000,0.000000,0.937031,12.359567,-0.630333
1649934154.915523,6328.000000,1649934154.915384,0.000000,0.000000,1.000000,0.000000,0.000000,0.000000,0.000000,0.938591,12.361584,-0.633054
1649934155.015688,6329.000000,1649934155.015466,0.000000,0.000000,1.000000,0.000000,0.000000,0.000000,0.000000,0.938962,12.363496,-0.636521
1649934155.115673,6330.000000,1649934155.115533,0.000000,0.000000,1.000000,0.000000,0.000000,0.000000,0.000000,0.939299,12.364214,-0.636663
1649934155.215703,6331.000000,1649934155.215577,0.000000,0.000000,1.000000,0.000000,0.000000,0.000000,0.000000,0.939604,12.364890,-0.639259
1649934155.315162,6332.000000,1649934155.315043,0.000000,0.000000,1.000000,0.000000,0.000000,0.000000,0.000000,0.936606,12.366614,-0.641784
1649934155.415582,6333.000000,1649934155.415436,0.000000,0.000000,1.000000,0.000000,0.000000,0.000000,0.000000,0.934859,12.368235,-0.643428
1649934155.515560,6334.000000,1649934155.515368,0.000000,0.000000,1.000000,0.000000,0.000000,0.000000,0.000000,0.933209,12.371934,-0.650675
1649934155.615196,6335.000000,1649934155.615068,0.000000,0.000000,1.000000,0.000000,0.000000,0.000000,0.000000,0.931655,12.375406,-0.658446
1649934155.715374,6336.000000,1649934155.715224,0.000000,0.000000,1.000000,0.000000,0.000000,0.000000,0.000000,0.929107,12.377564,-0.662676
1649934155.815231,6337.000000,1649934155.815088,0.000000,0.000000,1.000000,0.000000,0.000000,0.000000,0.000000,0.925627,12.379565,-0.668337
1649934155.915145,6338.000000,1649934155.915030,0.000000,0.000000,1.000000,0.000000,0.000000,0.000000,0.000000,0.923455,12.380323,-0.669719
1649934156.015243,6339.000000,1649934156.015100,0.000000,0.000000,1.000000,0.000000,0.000000,0.000000,0.000000,0.921435,12.380996,-0.671831
1649934156.115546,6340.000000,1649934156.115353,0.000000,0.000000,1.000000,0.000000,0.000000,0.000000,0.000000,0.919563,12.382680,-0.677866
1649934156.215523,6341.000000,1649934156.215372,0.000000,0.000000,1.000000,0.000000,0.000000,0.000000,0.000000,0.917836,12.384226,-0.682819
1649934156.315576,6342.000000,1649934156.315396,0.000000,0.000000,1.000000,0.000000,0.000000,0.000000,0.000000,0.916247,12.385641,-0.688338
1649934156.415542,6343.000000,1649934156.415339,0.000000,0.000000,1.000000,0.000000,0.000000,0.000000,0.000000,0.914792,12.386928,-0.693588
1649934156.515872,6344.000000,1649934156.515687,0.000000,0.000000,1.000000,0.000000,0.000000,0.000000,0.000000,0.914557,12.387004,-0.695346
1649934156.615370,6345.000000,1649934156.615235,0.000000,0.000000,1.000000,0.000000,0.000000,0.000000,0.000000,0.914381,12.385937,-0.696171
1649934156.715243,6346.000000,1649934156.715084,0.000000,0.000000,1.000000,0.000000,0.000000,0.000000,0.000000,0.914259,12.384886,-0.697716
1649934156.815130,6347.000000,1649934156.814991,0.000000,0.000000,1.000000,0.000000,0.000000,0.000000,0.000000,0.916368,12.382766,-0.698337
1649934156.915287,6348.000000,1649934156.915151,0.000000,0.000000,1.000000,0.000000,0.000000,0.000000,0.000000,0.918396,12.381824,-0.700493
1649934157.015370,6349.000000,1649934157.015242,0.000000,0.000000,1.000000,0.000000,0.000000,0.000000,0.000000,0.920338,12.380911,-0.700894
1649934157.115520,6350.000000,1649934157.115347,0.000000,0.000000,1.000000,0.000000,0.000000,0.000000,0.000000,0.922193,12.380028,-0.701226
1649934157.215591,6351.000000,1649934157.215420,0.000000,0.000000,1.000000,0.000000,0.000000,0.000000,0.000000,0.922866,12.378088,-0.699880
1649934157.315542,6352.000000,1649934157.315333,0.000000,0.000000,1.000000,0.000000,0.000000,0.000000,0.000000,0.923512,12.377336,-0.696928
1649934157.415730,6353.000000,1649934157.415589,0.000000,0.000000,1.000000,0.000000,0.000000,0.000000,0.000000,0.925218,12.376620,-0.697282
1649934157.515441,6354.000000,1649934157.515306,0.000000,0.000000,1.000000,0.000000,0.000000,0.000000,0.000000,0.926831,12.375941,-0.700001
1649934157.615566,6355.000000,1649934157.615433,0.000000,0.000000,1.000000,0.000000,0.000000,0.000000,0.000000,0.927261,12.376388,-0.703375
1649934157.715562,6356.000000,1649934157.715392,0.000000,0.000000,1.000000,0.000000,0.000000,0.000000,0.000000,0.927661,12.376810,-0.705761
1649934157.815579,6357.000000,1649934157.815381,0.000000,0.000000,1.000000,0.000000,0.000000,0.000000,0.000000,0.928032,12.377205,-0.706390
1649934157.915530,6358.000000,1649934157.915353,0.000000,0.000000,1.000000,0.000000,0.000000,0.000000,0.000000,0.928375,12.377575,-0.704528
1649934158.015522,6359.000000,1649934158.015353,0.000000,0.000000,1.000000,0.000000,0.000000,0.000000,0.000000,0.928691,12.377920,-0.705117
1649934158.115567,6360.000000,1649934158.115413,0.000000,0.000000,1.000000,0.000000,0.000000,0.000000,0.000000,0.927890,12.379331,-0.704836
1649934158.215607,6361.000000,1649934158.215331,0.000000,0.000000,1.000000,0.000000,0.000000,0.000000,0.000000,0.928217,12.379565,-0.704527
1649934158.315457,6362.000000,1649934158.315254,0.000000,0.000000,1.000000,0.000000,0.000000,0.000000,0.000000,0.927430,12.380866,-0.704193
1649934158.415712,6363.000000,1649934158.415276,0.000000,0.000000,1.000000,0.000000,0.000000,0.000000,0.000000,0.926682,12.380993,-0.699806
1649934158.515566,6364.000000,1649934158.515413,0.000000,0.000000,1.000000,0.000000,0.000000,0.000000,0.000000,0.925973,12.380009,-0.685893
1649934158.615463,6365.000000,1649934158.615265,0.000000,0.000000,1.000000,0.000000,0.000000,0.000000,0.000000,0.925304,12.376888,-0.668507
1649934158.715284,6366.000000,1649934158.715094,0.000000,0.000000,1.000000,0.000000,0.000000,0.000000,0.000000,0.923584,12.375029,-0.655076
1649934158.815120,6367.000000,1649934158.814984,0.000000,0.000000,1.000000,0.000000,0.000000,0.000000,0.000000,0.924147,12.374369,-0.648688
1649934158.915201,6368.000000,1649934158.915078,0.000000,0.000000,1.000000,0.000000,0.000000,0.000000,0.000000,0.923595,12.373753,-0.644229
1649934159.015208,6369.000000,1649934159.015079,0.000000,0.000000,1.000000,0.000000,0.000000,0.000000,0.000000,0.924170,12.373181,-0.640820
1649934159.115052,6370.000000,1649934159.114870,0.000000,0.000000,1.000000,0.000000,0.000000,0.000000,0.000000,0.925811,12.372651,-0.637615
1649934159.215068,6371.000000,1649934159.214942,0.000000,0.000000,1.000000,0.000000,0.000000,0.000000,0.000000,0.925181,12.372162,-0.634610
1649934159.315075,6372.000000,1649934159.314962,0.000000,0.000000,1.000000,0.000000,0.000000,0.000000,0.000000,0.924586,12.371713,-0.633410
1649934159.415226,6373.000000,1649934159.415093,0.000000,0.000000,1.000000,0.000000,0.000000,0.000000,0.000000,0.924028,12.372392,-0.630716
1649934159.515141,6374.000000,1649934159.514987,0.000000,0.000000,1.000000,0.000000,0.000000,0.000000,0.000000,0.924596,12.371955,-0.624171
1649934159.615180,6375.000000,1649934159.615009,0.000000,0.000000,1.000000,0.000000,0.000000,0.000000,0.000000,0.925136,12.371553,-0.618776
1649934159.715277,6376.000000,1649934159.715113,0.000000,0.000000,1.000000,0.000000,0.000000,0.000000,0.000000,0.926738,12.370095,-0.616911
1649934159.815897,6377.000000,1649934159.815534,0.000000,0.000000,1.000000,0.000000,0.000000,0.000000,0.000000,0.928249,12.368732,-0.615207
1649934159.915460,6378.000000,1649934159.915274,0.000000,0.000000,1.000000,0.000000,0.000000,0.000000,0.000000,0.930759,12.369644,-0.620914
1649934160.015085,6379.000000,1649934160.014953,0.000000,0.000000,1.000000,0.000000,0.000000,0.000000,0.000000,0.933117,12.370522,-0.627270
1649934160.115995,6380.000000,1649934160.115857,0.000000,0.000000,1.000000,0.000000,0.000000,0.000000,0.000000,0.935324,12.371363,-0.631815
1649934160.215163,6381.000000,1649934160.215051,0.000000,0.000000,1.000000,0.000000,0.000000,0.000000,0.000000,0.938473,12.372167,-0.638643
1649934160.315272,6382.000000,1649934160.315138,0.000000,0.000000,1.000000,0.000000,0.000000,0.000000,0.000000,0.940324,12.374023,-0.646844
1649934160.415311,6383.000000,1649934160.415133,0.000000,0.000000,1.000000,0.000000,0.000000,0.000000,0.000000,0.910412,12.376868,-0.615216
1649934160.515227,6384.000000,1649934160.515038,0.000000,0.000000,1.000000,0.000000,0.000000,0.000000,0.000000,0.890910,12.379548,-0.597032
1649934160.615768,6385.000000,1649934160.615607,0.000000,0.000000,1.000000,0.000000,0.000000,0.000000,0.000000,0.876945,12.380974,-0.579680
1649934160.715117,6386.000000,1649934160.714981,0.000000,0.000000,1.000000,0.000000,0.000000,0.000000,0.000000,0.868255,12.382301,-0.570411
1649934160.815098,6387.000000,1649934160.814960,0.000000,0.000000,1.000000,0.000000,0.000000,0.000000,0.000000,0.863480,12.383532,-0.569715
1649934160.915139,6388.000000,1649934160.915010,0.000000,0.000000,1.000000,0.000000,0.000000,0.000000,0.000000,0.861322,12.385760,-0.572403
1649934161.015199,6389.000000,1649934161.015077,0.000000,0.000000,1.000000,0.000000,0.000000,0.000000,0.000000,0.860544,12.387835,-0.577524
1649934161.114412,6390.000000,1649934161.114257,0.000000,0.000000,1.000000,0.000000,0.000000,0.000000,0.000000,0.859973,12.389760,-0.582544
1649934161.215188,6391.000000,1649934161.215067,0.000000,0.000000,1.000000,0.000000,0.000000,0.000000,0.000000,0.860681,12.390449,-0.560037
1649934161.315188,6392.000000,1649934161.315040,0.000000,0.000000,1.000000,0.000000,0.000000,0.000000,0.000000,0.863677,12.391060,-0.545017
1649934161.415455,6393.000000,1649934161.415324,0.000000,0.000000,1.000000,0.000000,0.000000,0.000000,0.000000,0.866638,12.391598,-0.536396
1649934161.515518,6394.000000,1649934161.515291,0.000000,0.000000,1.000000,0.000000,0.000000,0.000000,0.000000,0.870639,12.392067,-0.534730
1649934161.615175,6395.000000,1649934161.615040,0.000000,0.000000,1.000000,0.000000,0.000000,0.000000,0.000000,0.874515,12.393562,-0.541349
1649934161.715621,6396.000000,1649934161.715491,0.000000,0.000000,1.000000,0.000000,0.000000,0.000000,0.000000,0.878254,12.393845,-0.547030
1649934161.815820,6397.000000,1649934161.815615,0.000000,0.000000,1.000000,0.000000,0.000000,0.000000,0.000000,0.882938,12.392982,-0.555021
1649934161.915914,6398.000000,1649934161.915782,0.000000,0.000000,1.000000,0.000000,0.000000,0.000000,0.000000,0.887408,12.392131,-0.565211
1649934162.015642,6399.000000,1649934162.015346,0.000000,0.000000,1.000000,0.000000,0.000000,0.000000,0.000000,0.891659,12.392388,-0.574263
1649934162.115593,6400.000000,1649934162.115349,0.000000,0.000000,1.000000,0.000000,0.000000,0.000000,0.000000,0.894597,12.391510,-0.583012
1649934162.215966,6401.000000,1649934162.215707,0.000000,0.000000,1.000000,0.000000,0.000000,0.000000,0.000000,0.898464,12.391747,-0.593871
1649934162.315622,6402.000000,1649934162.315441,0.000000,0.000000,1.000000,0.000000,0.000000,0.000000,0.000000,0.902109,12.393037,-0.605928
1649934162.415626,6403.000000,1649934162.415426,0.000000,0.000000,1.000000,0.000000,0.000000,0.000000,0.000000,0.905532,12.393140,-0.618308
1649934162.515556,6404.000000,1649934162.515363,0.000000,0.000000,1.000000,0.000000,0.000000,0.000000,0.000000,0.908735,12.393212,-0.630977
1649934162.615545,6405.000000,1649934162.615378,0.000000,0.000000,1.000000,0.000000,0.000000,0.000000,0.000000,0.912813,12.393256,-0.644708
1649934162.715545,6406.000000,1649934162.715378,0.000000,0.000000,1.000000,0.000000,0.000000,0.000000,0.000000,0.915528,12.391093,-0.646534
1649934162.815545,6407.000000,1649934162.815368,0.000000,0.000000,1.000000,0.000000,0.000000,0.000000,0.000000,0.916947,12.392305,-0.653869
1649934162.915579,6408.000000,1649934162.915347,0.000000,0.000000,1.000000,0.000000,0.000000,0.000000,0.000000,0.918230,12.391253,-0.656805
1649934163.015785,6409.000000,1649934163.015626,0.000000,0.000000,1.000000,0.000000,0.000000,0.000000,0.000000,0.920475,12.390244,-0.660355
1649934163.115106,6410.000000,1649934163.114973,0.000000,0.000000,1.000000,0.000000,0.000000,0.000000,0.000000,0.923626,12.388191,-0.659654
1649934163.215143,6411.000000,1649934163.214993,0.000000,0.000000,1.000000,0.000000,0.000000,0.000000,0.000000,0.926536,12.387337,-0.658102
1649934163.315270,6412.000000,1649934163.315112,0.000000,0.000000,1.000000,0.000000,0.000000,0.000000,0.000000,0.929214,12.385440,-0.660578
1649934163.415186,6413.000000,1649934163.415043,0.000000,0.000000,1.000000,0.000000,0.000000,0.000000,0.000000,0.931667,12.383653,-0.664499
1649934163.515312,6414.000000,1649934163.515126,0.000000,0.000000,1.000000,0.000000,0.000000,0.000000,0.000000,0.933905,12.383065,-0.668997
1649934163.615607,6415.000000,1649934163.615422,0.000000,0.000000,1.000000,0.000000,0.000000,0.000000,0.000000,0.935938,12.382522,-0.674044
1649934163.715608,6416.000000,1649934163.715463,0.000000,0.000000,1.000000,0.000000,0.000000,0.000000,0.000000,0.937775,12.382022,-0.677193
1649934163.815248,6417.000000,1649934163.815094,0.000000,0.000000,1.000000,0.000000,0.000000,0.000000,0.000000,0.938335,12.381564,-0.680938
1649934163.915166,6418.000000,1649934163.915015,0.000000,0.000000,1.000000,0.000000,0.000000,0.000000,0.000000,0.938781,12.378965,-0.680413
1649934164.015120,6419.000000,1649934164.014956,0.000000,0.000000,1.000000,0.000000,0.000000,0.000000,0.000000,0.939123,12.376530,-0.678214
1649934164.115166,6420.000000,1649934164.115012,0.000000,0.000000,1.000000,0.000000,0.000000,0.000000,0.000000,0.939371,12.375347,-0.679255
1649934164.215111,6421.000000,1649934164.214970,0.000000,0.000000,1.000000,0.000000,0.000000,0.000000,0.000000,0.939533,12.375350,-0.677762
1649934164.315322,6422.000000,1649934164.315158,0.000000,0.000000,1.000000,0.000000,0.000000,0.000000,0.000000,0.939617,12.376472,-0.678680
1649934164.415373,6423.000000,1649934164.415155,0.000000,0.000000,1.000000,0.000000,0.000000,0.000000,0.000000,0.940722,12.377557,-0.681914
1649934164.515378,6424.000000,1649934164.515231,0.000000,0.000000,1.000000,0.000000,0.000000,0.000000,0.000000,0.942792,12.377512,-0.681723
1649934164.615634,6425.000000,1649934164.615418,0.000000,0.000000,1.000000,0.000000,0.000000,0.000000,0.000000,0.944682,12.377487,-0.683893
1649934164.715225,6426.000000,1649934164.715081,0.000000,0.000000,1.000000,0.000000,0.000000,0.000000,0.000000,0.945309,12.377481,-0.685102
1649934164.815274,6427.000000,1649934164.815111,0.000000,0.000000,1.000000,0.000000,0.000000,0.000000,0.000000,0.945834,12.376401,-0.683777
1649934164.915668,6428.000000,1649934164.915482,0.000000,0.000000,1.000000,0.000000,0.000000,0.000000,0.000000,0.946265,12.376488,-0.685670
1649934165.015508,6429.000000,1649934165.015330,0.000000,0.000000,1.000000,0.000000,0.000000,0.000000,0.000000,0.946610,12.376589,-0.684199
1649934165.115558,6430.000000,1649934165.115405,0.000000,0.000000,1.000000,0.000000,0.000000,0.000000,0.000000,0.947966,12.376699,-0.677893
1649934165.215507,6431.000000,1649934165.215336,0.000000,0.000000,1.000000,0.000000,0.000000,0.000000,0.000000,0.949186,12.376819,-0.676635
1649934165.315505,6432.000000,1649934165.315330,0.000000,0.000000,1.000000,0.000000,0.000000,0.000000,0.000000,0.949189,12.376945,-0.677002
1649934165.415726,6433.000000,1649934165.415575,0.000000,0.000000,1.000000,0.000000,0.000000,0.000000,0.000000,0.949133,12.378168,-0.680541
1649934165.515573,6434.000000,1649934165.515352,0.000000,0.000000,1.000000,0.000000,0.000000,0.000000,0.000000,0.949026,12.379331,-0.683088
1649934165.615468,6435.000000,1649934165.615284,0.000000,0.000000,1.000000,0.000000,0.000000,0.000000,0.000000,0.948874,12.379344,-0.684681
1649934165.715596,6436.000000,1649934165.715391,0.000000,0.000000,1.000000,0.000000,0.000000,0.000000,0.000000,0.947592,12.378270,-0.686163
1649934165.815664,6437.000000,1649934165.815475,0.000000,0.000000,1.000000,0.000000,0.000000,0.000000,0.000000,0.946340,12.378351,-0.689958
1649934165.915455,6438.000000,1649934165.915276,0.000000,0.000000,1.000000,0.000000,0.000000,0.000000,0.000000,0.945121,12.378434,-0.693549
1649934166.015599,6439.000000,1649934166.015373,0.000000,0.000000,1.000000,0.000000,0.000000,0.000000,0.000000,0.945030,12.378517,-0.696940
1649934166.115635,6440.000000,1649934166.115460,0.000000,0.000000,1.000000,0.000000,0.000000,0.000000,0.000000,0.943827,12.378601,-0.699329
1649934166.215544,6441.000000,1649934166.215415,0.000000,0.000000,1.000000,0.000000,0.000000,0.000000,0.000000,0.942668,12.377594,-0.701562
1649934166.315458,6442.000000,1649934166.315262,0.000000,0.000000,1.000000,0.000000,0.000000,0.000000,0.000000,0.940465,12.377740,-0.705256
1649934166.415133,6443.000000,1649934166.414966,0.000000,0.000000,1.000000,0.000000,0.000000,0.000000,0.000000,0.938374,12.376793,-0.703091
1649934166.515596,6444.000000,1649934166.515443,0.000000,0.000000,1.000000,0.000000,0.000000,0.000000,0.000000,0.936396,12.375907,-0.701761
1649934166.615504,6445.000000,1649934166.615353,0.000000,0.000000,1.000000,0.000000,0.000000,0.000000,0.000000,0.934529,12.375080,-0.698011
1649934166.715586,6446.000000,1649934166.715395,0.000000,0.000000,1.000000,0.000000,0.000000,0.000000,0.000000,0.933866,12.373221,-0.695980
1649934166.815992,6447.000000,1649934166.815852,0.000000,0.000000,1.000000,0.000000,0.000000,0.000000,0.000000,0.932160,12.372572,-0.697216
1649934166.915623,6448.000000,1649934166.915482,0.000000,0.000000,1.000000,0.000000,0.000000,0.000000,0.000000,0.931653,12.373068,-0.699975
1649934167.015766,6449.000000,1649934167.015593,0.000000,0.000000,1.000000,0.000000,0.000000,0.000000,0.000000,0.931192,12.374644,-0.703386
1649934167.115208,6450.000000,1649934167.115072,0.000000,0.000000,1.000000,0.000000,0.000000,0.000000,0.000000,0.931864,12.376145,-0.709838
1649934167.215440,6451.000000,1649934167.215289,0.000000,0.000000,1.000000,0.000000,0.000000,0.000000,0.000000,0.931423,12.378659,-0.715167
1649934167.315508,6452.000000,1649934167.315369,0.000000,0.000000,1.000000,0.000000,0.000000,0.000000,0.000000,0.932112,12.379944,-0.717799
1649934167.415266,6453.000000,1649934167.415144,0.000000,0.000000,1.000000,0.000000,0.000000,0.000000,0.000000,0.930595,12.380061,-0.717841
1649934167.515362,6454.000000,1649934167.515200,0.000000,0.000000,1.000000,0.000000,0.000000,0.000000,0.000000,0.930266,12.380165,-0.714593
1649934167.615268,6455.000000,1649934167.615142,0.000000,0.000000,1.000000,0.000000,0.000000,0.000000,0.000000,0.929972,12.379166,-0.711422
