__time,/dwm1001/id_458E/pose_kf/header/seq,/dwm1001/id_458E/pose_kf/header/stamp,/dwm1001/id_458E/pose_kf/pose/orientation/pitch_deg,/dwm1001/id_458E/pose_kf/pose/orientation/roll_deg,/dwm1001/id_458E/pose_kf/pose/orientation/w,/dwm1001/id_458E/pose_kf/pose/orientation/x,/dwm1001/id_458E/pose_kf/pose/orientation/y,/dwm1001/id_458E/pose_kf/pose/orientation/yaw_deg,/dwm1001/id_458E/pose_kf/pose/orientation/z,/dwm1001/id_458E/pose_kf/pose/position/x,/dwm1001/id_458E/pose_kf/pose/position/y,/dwm1001/id_458E/pose_kf/pose/position/z
1650623099.401835,1312.000000,1650623099.401684,0.000000,0.000000,1.000000,0.000000,0.000000,0.000000,0.000000,3.539298,6.090285,-0.461811
1650623099.501940,1313.000000,1650623099.501704,0.000000,0.000000,1.000000,0.000000,0.000000,0.000000,0.000000,3.543957,6.091053,-0.484042
1650623099.601918,1314.000000,1650623099.601689,0.000000,0.000000,1.000000,0.000000,0.000000,0.000000,0.000000,3.548336,6.091794,-0.514625
1650623099.701917,1315.000000,1650623099.701629,0.000000,0.000000,1.000000,0.000000,0.000000,0.000000,0.000000,3.551345,6.091415,-0.553964
1650623099.801892,1316.000000,1650623099.801637,0.000000,0.000000,1.000000,0.000000,0.000000,0.000000,0.000000,3.553054,6.091069,-0.595979
1650623099.901812,1317.000000,1650623099.901650,0.000000,0.000000,1.000000,0.000000,0.000000,0.000000,0.000000,3.553529,6.090754,-0.640482
1650623100.002744,1318.000000,1650623100.002343,0.000000,0.000000,1.000000,0.000000,0.000000,0.000000,0.000000,3.552840,6.090468,-0.672776
1650623100.101995,1319.000000,1650623100.101764,0.000000,0.000000,1.000000,0.000000,0.000000,0.000000,0.000000,3.551055,6.090211,-0.696519
1650623100.202167,1320.000000,1650623100.201925,0.000000,0.000000,1.000000,0.000000,0.000000,0.000000,0.000000,3.548242,6.089980,-0.712017
1650623100.307092,1321.000000,1650623100.302082,0.000000,0.000000,1.000000,0.000000,0.000000,0.000000,0.000000,3.545558,6.089775,-0.736512
1650623100.401960,1322.000000,1650623100.401729,0.000000,0.000000,1.000000,0.000000,0.000000,0.000000,0.000000,3.543006,6.090684,-0.742989
1650623100.502037,1323.000000,1650623100.501852,0.000000,0.000000,1.000000,0.000000,0.000000,0.000000,0.000000,3.540587,6.091552,-0.762813
1650623100.601937,1324.000000,1650623100.601742,0.000000,0.000000,1.000000,0.000000,0.000000,0.000000,0.000000,3.538302,6.092379,-0.788965
1650623100.701955,1325.000000,1650623100.701736,0.000000,0.000000,1.000000,0.000000,0.000000,0.000000,0.000000,3.538332,6.092073,-0.821151
1650623100.802530,1326.000000,1650623100.802307,0.000000,0.000000,1.000000,0.000000,0.000000,0.000000,0.000000,3.537279,6.092878,-0.854241
1650623100.902014,1327.000000,1650623100.901793,0.000000,0.000000,1.000000,0.000000,0.000000,0.000000,0.000000,3.534114,6.095820,-0.878475
1650623101.002303,1328.000000,1650623101.002086,0.000000,0.000000,1.000000,0.000000,0.000000,0.000000,0.000000,3.531143,6.098595,-0.906277
1650623101.102709,1329.000000,1650623101.102404,0.000000,0.000000,1.000000,0.000000,0.000000,0.000000,0.000000,3.527272,6.103382,-0.916499
1650623101.201930,1330.000000,1650623101.201764,0.000000,0.000000,1.000000,0.000000,0.000000,0.000000,0.000000,3.525832,6.108967,-0.926784
1650623101.301908,1331.000000,1650623101.301737,0.000000,0.000000,1.000000,0.000000,0.000000,0.000000,0.000000,3.524513,6.113112,-0.944382
1650623101.402340,1332.000000,1650623101.402120,0.000000,0.000000,1.000000,0.000000,0.000000,0.000000,0.000000,3.524399,6.115883,-0.966565
1650623101.502450,1333.000000,1650623101.502168,0.000000,0.000000,1.000000,0.000000,0.000000,0.000000,0.000000,3.521062,6.118442,-0.978607
1650623101.602372,1334.000000,1650623101.602093,0.000000,0.000000,1.000000,0.000000,0.000000,0.000000,0.000000,3.517957,6.119703,-0.996237
1650623101.702268,1335.000000,1650623101.702070,0.000000,0.000000,1.000000,0.000000,0.000000,0.000000,0.000000,3.518348,6.120829,-1.016794
1650623101.803684,1336.000000,1650623101.803313,0.000000,0.000000,1.000000,0.000000,0.000000,0.000000,0.000000,3.519860,6.122917,-1.032080
1650623101.902358,1337.000000,1650623101.902096,0.000000,0.000000,1.000000,0.000000,0.000000,0.000000,0.000000,3.521334,6.124822,-1.049555
1650623102.002342,1338.000000,1650623102.002132,0.000000,0.000000,1.000000,0.000000,0.000000,0.000000,0.000000,3.522764,6.124372,-1.070732
1650623102.102613,1339.000000,1650623102.102386,0.000000,0.000000,1.000000,0.000000,0.000000,0.000000,0.000000,3.525238,6.122789,-1.095444
1650623102.202396,1340.000000,1650623102.202167,0.000000,0.000000,1.000000,0.000000,0.000000,0.000000,0.000000,3.527598,6.124507,-1.111429
1650623102.302348,1341.000000,1650623102.302132,0.000000,0.000000,1.000000,0.000000,0.000000,0.000000,0.000000,3.530931,6.126072,-1.109354
1650623102.402350,1342.000000,1650623102.402101,0.000000,0.000000,1.000000,0.000000,0.000000,0.000000,0.000000,3.535175,6.125310,-1.115777
1650623102.502402,1343.000000,1650623102.502148,0.000000,0.000000,1.000000,0.000000,0.000000,0.000000,0.000000,3.535904,6.125626,-1.108590
1650623102.602305,1344.000000,1650623102.602049,0.000000,0.000000,1.000000,0.000000,0.000000,0.000000,0.000000,3.535488,6.124781,-1.111759
1650623102.702331,1345.000000,1650623102.702068,0.000000,0.000000,1.000000,0.000000,0.000000,0.000000,0.000000,3.532903,6.123936,-1.108751
1650623102.802232,1346.000000,1650623102.802054,0.000000,0.000000,1.000000,0.000000,0.000000,0.000000,0.000000,3.530456,6.124185,-1.110319
1650623102.902272,1347.000000,1650623102.902061,0.000000,0.000000,1.000000,0.000000,0.000000,0.000000,0.000000,3.528146,6.123290,-1.117100
1650623103.002175,1348.000000,1650623103.001971,0.000000,0.000000,1.000000,0.000000,0.000000,0.000000,0.000000,3.527065,6.121319,-1.128081
1650623103.102239,1349.000000,1650623103.102059,0.000000,0.000000,1.000000,0.000000,0.000000,0.000000,0.000000,3.526057,6.119429,-1.139864
1650623103.202179,1350.000000,1650623103.202016,0.000000,0.000000,1.000000,0.000000,0.000000,0.000000,0.000000,3.525121,6.118713,-1.133863
1650623103.302203,1351.000000,1650623103.302034,0.000000,0.000000,1.000000,0.000000,0.000000,0.000000,0.000000,3.523164,6.119110,-1.133401
1650623103.402225,1352.000000,1650623103.402053,0.000000,0.000000,1.000000,0.000000,0.000000,0.000000,0.000000,3.522429,6.120560,-1.127788
1650623103.502460,1353.000000,1650623103.502133,0.000000,0.000000,1.000000,0.000000,0.000000,0.000000,0.000000,3.523938,6.124093,-1.124512
1650623103.602326,1354.000000,1650623103.602082,0.000000,0.000000,1.000000,0.000000,0.000000,0.000000,0.000000,3.525385,6.127403,-1.116239
1650623103.702237,1355.000000,1650623103.702027,0.000000,0.000000,1.000000,0.000000,0.000000,0.000000,0.000000,3.526765,6.129404,-1.113681
1650623103.802155,1356.000000,1650623103.801994,0.000000,0.000000,1.000000,0.000000,0.000000,0.000000,0.000000,3.528079,6.130163,-1.103720
1650623103.902241,1357.000000,1650623103.902029,0.000000,0.000000,1.000000,0.000000,0.000000,0.000000,0.000000,3.529324,6.130838,-1.100391
1650623104.002219,1358.000000,1650623104.002059,0.000000,0.000000,1.000000,0.000000,0.000000,0.000000,0.000000,3.530501,6.131435,-1.086506
1650623104.102271,1359.000000,1650623104.102075,0.000000,0.000000,1.000000,0.000000,0.000000,0.000000,0.000000,3.531609,6.130867,-1.081072
1650623104.202224,1360.000000,1650623104.202039,0.000000,0.000000,1.000000,0.000000,0.000000,0.000000,0.000000,3.531558,6.130292,-1.067635
1650623104.302413,1361.000000,1650623104.302158,0.000000,0.000000,1.000000,0.000000,0.000000,0.000000,0.000000,3.535865,6.127535,-1.013482
1650623104.402339,1362.000000,1650623104.402119,0.000000,0.000000,1.000000,0.000000,0.000000,0.000000,0.000000,3.536646,6.124905,-0.979223
1650623104.502177,1363.000000,1650623104.501985,0.000000,0.000000,1.000000,0.000000,0.000000,0.000000,0.000000,3.536273,6.122405,-0.950406
1650623104.602204,1364.000000,1650623104.601961,0.000000,0.000000,1.000000,0.000000,0.000000,0.000000,0.000000,3.535900,6.120036,-0.926859
1650623104.702206,1365.000000,1650623104.702004,0.000000,0.000000,1.000000,0.000000,0.000000,0.000000,0.000000,3.534441,6.116710,-0.910826
1650623104.802181,1366.000000,1650623104.802019,0.000000,0.000000,1.000000,0.000000,0.000000,0.000000,0.000000,3.533050,6.113578,-0.909284
1650623104.902209,1367.000000,1650623104.902032,0.000000,0.000000,1.000000,0.000000,0.000000,0.000000,0.000000,3.531729,6.110639,-0.907936
1650623105.002191,1368.000000,1650623105.002025,0.000000,0.000000,1.000000,0.000000,0.000000,0.000000,0.000000,3.531568,6.106801,-0.905160
1650623105.102346,1369.000000,1650623105.102087,0.000000,0.000000,1.000000,0.000000,0.000000,0.000000,0.000000,3.531415,6.103212,-0.855042
1650623105.201863,1370.000000,1650623105.201652,0.000000,0.000000,1.000000,0.000000,0.000000,0.000000,0.000000,3.529089,6.100959,-0.824895
1650623105.301877,1371.000000,1650623105.301712,0.000000,0.000000,1.000000,0.000000,0.000000,0.000000,0.000000,3.526896,6.098882,-0.797826
1650623105.401919,1372.000000,1650623105.401679,0.000000,0.000000,1.000000,0.000000,0.000000,0.000000,0.000000,3.523746,6.096977,-0.789070
1650623105.501881,1373.000000,1650623105.501739,0.000000,0.000000,1.000000,0.000000,0.000000,0.000000,0.000000,3.520790,6.096325,-0.789826
1650623105.601864,1374.000000,1650623105.601724,0.000000,0.000000,1.000000,0.000000,0.000000,0.000000,0.000000,3.520206,6.095768,-0.799697
1650623105.701876,1375.000000,1650623105.701722,0.000000,0.000000,1.000000,0.000000,0.000000,0.000000,0.000000,3.518594,6.095298,-0.815870
1650623105.801823,1376.000000,1650623105.801667,0.000000,0.000000,1.000000,0.000000,0.000000,0.000000,0.000000,3.518195,6.094909,-0.824341
1650623105.901925,1377.000000,1650623105.901706,0.000000,0.000000,1.000000,0.000000,0.000000,0.000000,0.000000,3.516759,6.094594,-0.822980
1650623106.002215,1378.000000,1650623106.002005,0.000000,0.000000,1.000000,0.000000,0.000000,0.000000,0.000000,3.513257,6.093257,-0.825886
1650623106.102199,1379.000000,1650623106.101970,0.000000,0.000000,1.000000,0.000000,0.000000,0.000000,0.000000,3.508900,6.093136,-0.811907
1650623106.202172,1380.000000,1650623106.201969,0.000000,0.000000,1.000000,0.000000,0.000000,0.000000,0.000000,3.507017,6.093071,-0.809967
1650623106.302336,1381.000000,1650623106.302073,0.000000,0.000000,1.000000,0.000000,0.000000,0.000000,0.000000,3.506386,6.094148,-0.795381
1650623106.402205,1382.000000,1650623106.401947,0.000000,0.000000,1.000000,0.000000,0.000000,0.000000,0.000000,3.505846,6.095206,-0.777549
1650623106.501936,1383.000000,1650623106.501748,0.000000,0.000000,1.000000,0.000000,0.000000,0.000000,0.000000,3.505391,6.096243,-0.775170
1650623106.601881,1384.000000,1650623106.601707,0.000000,0.000000,1.000000,0.000000,0.000000,0.000000,0.000000,3.503925,6.096162,-0.772295
1650623106.701833,1385.000000,1650623106.701626,0.000000,0.000000,1.000000,0.000000,0.000000,0.000000,0.000000,3.502593,6.097205,-0.757649
1650623106.801788,1386.000000,1650623106.801621,0.000000,0.000000,1.000000,0.000000,0.000000,0.000000,0.000000,3.504662,6.097125,-0.758336
1650623106.901950,1387.000000,1650623106.901768,0.000000,0.000000,1.000000,0.000000,0.000000,0.000000,0.000000,3.507755,6.095980,-0.763242
1650623107.001799,1388.000000,1650623107.001641,0.000000,0.000000,1.000000,0.000000,0.000000,0.000000,0.000000,3.509623,6.094923,-0.760890
1650623107.102290,1389.000000,1650623107.102122,0.000000,0.000000,1.000000,0.000000,0.000000,0.000000,0.000000,3.511416,6.095041,-0.749956
1650623107.201875,1390.000000,1650623107.201706,0.000000,0.000000,1.000000,0.000000,0.000000,0.000000,0.000000,3.515311,6.095177,-0.754182
1650623107.301825,1391.000000,1650623107.301662,0.000000,0.000000,1.000000,0.000000,0.000000,0.000000,0.000000,3.521180,6.095328,-0.753588
1650623107.401903,1392.000000,1650623107.401734,0.000000,0.000000,1.000000,0.000000,0.000000,0.000000,0.000000,3.524536,6.096583,-0.744328
1650623107.502141,1393.000000,1650623107.501910,0.000000,0.000000,1.000000,0.000000,0.000000,0.000000,0.000000,3.528776,6.097785,-0.750147
1650623107.602309,1394.000000,1650623107.602139,0.000000,0.000000,1.000000,0.000000,0.000000,0.000000,0.000000,3.530570,6.098934,-0.763160
1650623107.702225,1395.000000,1650623107.702039,0.000000,0.000000,1.000000,0.000000,0.000000,0.000000,0.000000,3.530047,6.098936,-0.774179
1650623107.802235,1396.000000,1650623107.802027,0.000000,0.000000,1.000000,0.000000,0.000000,0.000000,0.000000,3.529517,6.098944,-0.793742
1650623107.902326,1397.000000,1650623107.902126,0.000000,0.000000,1.000000,0.000000,0.000000,0.000000,0.000000,3.528986,6.098959,-0.819855
1650623108.002176,1398.000000,1650623108.002007,0.000000,0.000000,1.000000,0.000000,0.000000,0.000000,0.000000,3.530637,6.098978,-0.840914
1650623108.102217,1399.000000,1650623108.101963,0.000000,0.000000,1.000000,0.000000,0.000000,0.000000,0.000000,3.533256,6.099002,-0.865152
1650623108.202339,1400.000000,1650623108.202115,0.000000,0.000000,1.000000,0.000000,0.000000,0.000000,0.000000,3.535696,6.100120,-0.872238
1650623108.302538,1401.000000,1650623108.302301,0.000000,0.000000,1.000000,0.000000,0.000000,0.000000,0.000000,3.537960,6.101178,-0.884627
1650623108.401838,1402.000000,1650623108.401594,0.000000,0.000000,1.000000,0.000000,0.000000,0.000000,0.000000,3.540052,6.102176,-0.889990
1650623108.501900,1403.000000,1650623108.501694,0.000000,0.000000,1.000000,0.000000,0.000000,0.000000,0.000000,3.540889,6.102024,-0.905541
1650623108.601909,1404.000000,1650623108.601730,0.000000,0.000000,1.000000,0.000000,0.000000,0.000000,0.000000,3.540538,6.101876,-0.928425
1650623108.701882,1405.000000,1650623108.701718,0.000000,0.000000,1.000000,0.000000,0.000000,0.000000,0.000000,3.539069,6.101732,-0.935733
1650623108.801864,1406.000000,1650623108.801708,0.000000,0.000000,1.000000,0.000000,0.000000,0.000000,0.000000,3.537640,6.102684,-0.945828
1650623108.901934,1407.000000,1650623108.901757,0.000000,0.000000,1.000000,0.000000,0.000000,0.000000,0.000000,3.536256,6.102487,-0.954553
1650623109.001909,1408.000000,1650623109.001750,0.000000,0.000000,1.000000,0.000000,0.000000,0.000000,0.000000,3.534921,6.102296,-0.958730
1650623109.101975,1409.000000,1650623109.101779,0.000000,0.000000,1.000000,0.000000,0.000000,0.000000,0.000000,3.532547,6.102112,-0.956124
1650623109.202011,1410.000000,1650623109.201757,0.000000,0.000000,1.000000,0.000000,0.000000,0.000000,0.000000,3.530290,6.103025,-0.941372
1650623109.302130,1411.000000,1650623109.301885,0.000000,0.000000,1.000000,0.000000,0.000000,0.000000,0.000000,3.528151,6.103882,-0.937578
1650623109.401876,1412.000000,1650623109.401677,0.000000,0.000000,1.000000,0.000000,0.000000,0.000000,0.000000,3.526131,6.104684,-0.945116
1650623109.501966,1413.000000,1650623109.501781,0.000000,0.000000,1.000000,0.000000,0.000000,0.000000,0.000000,3.524230,6.105432,-0.957072
1650623109.602028,1414.000000,1650623109.601832,0.000000,0.000000,1.000000,0.000000,0.000000,0.000000,0.000000,3.521357,6.106127,-0.969219
1650623109.701924,1415.000000,1650623109.701726,0.000000,0.000000,1.000000,0.000000,0.000000,0.000000,0.000000,3.519752,6.106771,-0.985567
1650623109.802351,1416.000000,1650623109.802004,0.000000,0.000000,1.000000,0.000000,0.000000,0.000000,0.000000,3.518262,6.106275,-1.005924
1650623109.901977,1417.000000,1650623109.901760,0.000000,0.000000,1.000000,0.000000,0.000000,0.000000,0.000000,3.516881,6.105793,-1.021232
1650623110.002004,1418.000000,1650623110.001827,0.000000,0.000000,1.000000,0.000000,0.000000,0.000000,0.000000,3.515608,6.105327,-1.025224
1650623110.101936,1419.000000,1650623110.101763,0.000000,0.000000,1.000000,0.000000,0.000000,0.000000,0.000000,3.512258,6.104879,-1.036907
1650623110.201908,1420.000000,1650623110.201744,0.000000,0.000000,1.000000,0.000000,0.000000,0.000000,0.000000,3.509133,6.103358,-1.054347
1650623110.301931,1421.000000,1650623110.301753,0.000000,0.000000,1.000000,0.000000,0.000000,0.000000,0.000000,3.506228,6.103010,-1.050679
1650623110.401877,1422.000000,1650623110.401693,0.000000,0.000000,1.000000,0.000000,0.000000,0.000000,0.000000,3.503538,6.101590,-1.046932
1650623110.501953,1423.000000,1650623110.501812,0.000000,0.000000,1.000000,0.000000,0.000000,0.000000,0.000000,3.501056,6.101343,-1.030221
1650623110.601869,1424.000000,1650623110.601710,0.000000,0.000000,1.000000,0.000000,0.000000,0.000000,0.000000,3.502047,6.101114,-1.001106
1650623110.701952,1425.000000,1650623110.701778,0.000000,0.000000,1.000000,0.000000,0.000000,0.000000,0.000000,3.501952,6.101993,-0.985951
1650623110.801923,1426.000000,1650623110.801750,0.000000,0.000000,1.000000,0.000000,0.000000,0.000000,0.000000,3.503008,6.102827,-0.981803
1650623110.901913,1427.000000,1650623110.901748,0.000000,0.000000,1.000000,0.000000,0.000000,0.000000,0.000000,3.504056,6.102524,-0.977747
1650623111.001928,1428.000000,1650623111.001750,0.000000,0.000000,1.000000,0.000000,0.000000,0.000000,0.000000,3.507271,6.101149,-0.984272
1650623111.101942,1429.000000,1650623111.101762,0.000000,0.000000,1.000000,0.000000,0.000000,0.000000,0.000000,3.510341,6.099853,-0.985621
1650623111.201910,1430.000000,1650623111.201697,0.000000,0.000000,1.000000,0.000000,0.000000,0.000000,0.000000,3.513263,6.100817,-0.989262
1650623111.301952,1431.000000,1650623111.301764,0.000000,0.000000,1.000000,0.000000,0.000000,0.000000,0.000000,3.516035,6.100644,-0.999937
1650623111.401943,1432.000000,1650623111.401725,0.000000,0.000000,1.000000,0.000000,0.000000,0.000000,0.000000,3.525198,6.097214,-0.967348
1650623111.501938,1433.000000,1650623111.501725,0.000000,0.000000,1.000000,0.000000,0.000000,0.000000,0.000000,3.532741,6.096168,-0.951364
1650623111.601854,1434.000000,1650623111.601690,0.000000,0.000000,1.000000,0.000000,0.000000,0.000000,0.000000,3.538733,6.094106,-0.950536
1650623111.701849,1435.000000,1650623111.701649,0.000000,0.000000,1.000000,0.000000,0.000000,0.000000,0.000000,3.543240,6.092181,-0.951351
1650623111.801875,1436.000000,1650623111.801680,0.000000,0.000000,1.000000,0.000000,0.000000,0.000000,0.000000,3.546334,6.090389,-0.948098
1650623111.901879,1437.000000,1650623111.901686,0.000000,0.000000,1.000000,0.000000,0.000000,0.000000,0.000000,3.548086,6.089817,-0.928043
1650623112.001847,1438.000000,1650623112.001670,0.000000,0.000000,1.000000,0.000000,0.000000,0.000000,0.000000,3.550749,6.089309,-0.921735
1650623112.102564,1439.000000,1650623112.102361,0.000000,0.000000,1.000000,0.000000,0.000000,0.000000,0.000000,3.551000,6.089951,-0.919759
1650623112.202281,1440.000000,1650623112.201989,0.000000,0.000000,1.000000,0.000000,0.000000,0.000000,0.000000,3.548973,6.091677,-0.909039
1650623112.302425,1441.000000,1650623112.302196,0.000000,0.000000,1.000000,0.000000,0.000000,0.000000,0.000000,3.545894,6.091149,-0.903651
1650623112.402184,1442.000000,1650623112.402029,0.000000,0.000000,1.000000,0.000000,0.000000,0.000000,0.000000,3.542926,6.090671,-0.908228
1650623112.502223,1443.000000,1650623112.502058,0.000000,0.000000,1.000000,0.000000,0.000000,0.000000,0.000000,3.545525,6.089151,-0.869131
1650623112.602277,1444.000000,1650623112.602056,0.000000,0.000000,1.000000,0.000000,0.000000,0.000000,0.000000,3.546842,6.088829,-0.849474
1650623112.702258,1445.000000,1650623112.702052,0.000000,0.000000,1.000000,0.000000,0.000000,0.000000,0.000000,3.546945,6.089640,-0.841243
1650623112.801869,1446.000000,1650623112.801692,0.000000,0.000000,1.000000,0.000000,0.000000,0.000000,0.000000,3.546993,6.090428,-0.831890
1650623112.901839,1447.000000,1650623112.901674,0.000000,0.000000,1.000000,0.000000,0.000000,0.000000,0.000000,3.549173,6.091190,-0.817436
1650623113.001913,1448.000000,1650623113.001748,0.000000,0.000000,1.000000,0.000000,0.000000,0.000000,0.000000,3.550092,6.091925,-0.807782
1650623113.101936,1449.000000,1650623113.101737,0.000000,0.000000,1.000000,0.000000,0.000000,0.000000,0.000000,3.548730,6.092630,-0.794678
1650623113.202262,1450.000000,1650623113.202059,0.000000,0.000000,1.000000,0.000000,0.000000,0.000000,0.000000,3.546308,6.093305,-0.776665
1650623113.302184,1451.000000,1650623113.302024,0.000000,0.000000,1.000000,0.000000,0.000000,0.000000,0.000000,3.546166,6.096129,-0.753962
1650623113.402269,1452.000000,1650623113.402063,0.000000,0.000000,1.000000,0.000000,0.000000,0.000000,0.000000,3.546000,6.098795,-0.730820
1650623113.502282,1453.000000,1650623113.501971,0.000000,0.000000,1.000000,0.000000,0.000000,0.000000,0.000000,3.545815,6.101304,-0.723413
1650623113.602240,1454.000000,1650623113.602040,0.000000,0.000000,1.000000,0.000000,0.000000,0.000000,0.000000,3.542342,6.103658,-0.727883
1650623113.702243,1455.000000,1650623113.702027,0.000000,0.000000,1.000000,0.000000,0.000000,0.000000,0.000000,3.540134,6.104767,-0.741310
1650623113.802229,1456.000000,1650623113.802032,0.000000,0.000000,1.000000,0.000000,0.000000,0.000000,0.000000,3.538041,6.105788,-0.742334
1650623113.902197,1457.000000,1650623113.902004,0.000000,0.000000,1.000000,0.000000,0.000000,0.000000,0.000000,3.533881,6.106724,-0.742731
1650623114.002306,1458.000000,1650623114.002093,0.000000,0.000000,1.000000,0.000000,0.000000,0.000000,0.000000,3.532143,6.107578,-0.754615
1650623114.102195,1459.000000,1650623114.101974,0.000000,0.000000,1.000000,0.000000,0.000000,0.000000,0.000000,3.531608,6.108355,-0.753300
1650623114.201893,1460.000000,1650623114.201730,0.000000,0.000000,1.000000,0.000000,0.000000,0.000000,0.000000,3.531122,6.110148,-0.745764
1650623114.301863,1461.000000,1650623114.301702,0.000000,0.000000,1.000000,0.000000,0.000000,0.000000,0.000000,3.529591,6.110717,-0.740327
1650623114.401917,1462.000000,1650623114.401729,0.000000,0.000000,1.000000,0.000000,0.000000,0.000000,0.000000,3.535799,6.109039,-0.699809
1650623114.502622,1463.000000,1650623114.502309,0.000000,0.000000,1.000000,0.000000,0.000000,0.000000,0.000000,3.542762,6.108514,-0.663589
1650623114.602324,1464.000000,1650623114.602077,0.000000,0.000000,1.000000,0.000000,0.000000,0.000000,0.000000,3.548235,6.106902,-0.651706
1650623114.702318,1465.000000,1650623114.702088,0.000000,0.000000,1.000000,0.000000,0.000000,0.000000,0.000000,3.555555,6.103179,-0.604316
1650623114.802216,1466.000000,1650623114.802043,0.000000,0.000000,1.000000,0.000000,0.000000,0.000000,0.000000,3.560239,6.100744,-0.572111
1650623114.902178,1467.000000,1650623114.901943,0.000000,0.000000,1.000000,0.000000,0.000000,0.000000,0.000000,3.555876,6.097353,-0.507743
1650623115.002141,1468.000000,1650623115.001946,0.000000,0.000000,1.000000,0.000000,0.000000,0.000000,0.000000,3.559333,6.093070,-0.435181
1650623115.102052,1469.000000,1650623115.101803,0.000000,0.000000,1.000000,0.000000,0.000000,0.000000,0.000000,3.561453,6.090135,-0.396794
1650623115.201989,1470.000000,1650623115.201756,0.000000,0.000000,1.000000,0.000000,0.000000,0.000000,0.000000,3.560124,6.088485,-0.384792
1650623115.301932,1471.000000,1650623115.301743,0.000000,0.000000,1.000000,0.000000,0.000000,0.000000,0.000000,3.559904,6.088051,-0.368266
1650623115.402121,1472.000000,1650623115.401817,0.000000,0.000000,1.000000,0.000000,0.000000,0.000000,0.000000,3.560736,6.088767,-0.352238
1650623115.501925,1473.000000,1650623115.501727,0.000000,0.000000,1.000000,0.000000,0.000000,0.000000,0.000000,3.562563,6.090567,-0.338302
1650623115.601869,1474.000000,1650623115.601700,0.000000,0.000000,1.000000,0.000000,0.000000,0.000000,0.000000,3.562057,6.093383,-0.328789
1650623115.701932,1475.000000,1650623115.701766,0.000000,0.000000,1.000000,0.000000,0.000000,0.000000,0.000000,3.559349,6.096059,-0.338026
1650623115.801892,1476.000000,1650623115.801703,0.000000,0.000000,1.000000,0.000000,0.000000,0.000000,0.000000,3.556752,6.097503,-0.361184
1650623115.901852,1477.000000,1650623115.901703,0.000000,0.000000,1.000000,0.000000,0.000000,0.000000,0.000000,3.552089,6.098869,-0.384735
1650623116.001869,1478.000000,1650623116.001726,0.000000,0.000000,1.000000,0.000000,0.000000,0.000000,0.000000,3.547669,6.100156,-0.414246
1650623116.101828,1479.000000,1650623116.101686,0.000000,0.000000,1.000000,0.000000,0.000000,0.000000,0.000000,3.544585,6.101365,-0.435697
1650623116.201817,1480.000000,1650623116.201661,0.000000,0.000000,1.000000,0.000000,0.000000,0.000000,0.000000,3.541683,6.101405,-0.469523
1650623116.301934,1481.000000,1650623116.301748,0.000000,0.000000,1.000000,0.000000,0.000000,0.000000,0.000000,3.538960,6.102523,-0.490154
1650623116.401959,1482.000000,1650623116.401714,0.000000,0.000000,1.000000,0.000000,0.000000,0.000000,0.000000,3.536415,6.102476,-0.519848
1650623116.501971,1483.000000,1650623116.501715,0.000000,0.000000,1.000000,0.000000,0.000000,0.000000,0.000000,3.535135,6.103508,-0.536407
1650623116.601805,1484.000000,1650623116.601644,0.000000,0.000000,1.000000,0.000000,0.000000,0.000000,0.000000,3.532871,6.103379,-0.563713
1650623116.701914,1485.000000,1650623116.701735,0.000000,0.000000,1.000000,0.000000,0.000000,0.000000,0.000000,3.535135,6.102152,-0.546442
1650623116.802262,1486.000000,1650623116.802098,0.000000,0.000000,1.000000,0.000000,0.000000,0.000000,0.000000,3.536218,6.100982,-0.551740
1650623116.902329,1487.000000,1650623116.902101,0.000000,0.000000,1.000000,0.000000,0.000000,0.000000,0.000000,3.538360,6.098780,-0.566588
1650623117.002257,1488.000000,1650623117.002008,0.000000,0.000000,1.000000,0.000000,0.000000,0.000000,0.000000,3.539315,6.096701,-0.594604
1650623117.102912,1489.000000,1650623117.102543,0.000000,0.000000,1.000000,0.000000,0.000000,0.000000,0.000000,3.541322,6.095833,-0.611819
1650623117.202329,1490.000000,1650623117.202070,0.000000,0.000000,1.000000,0.000000,0.000000,0.000000,0.000000,3.549771,6.093933,-0.587189
1650623117.302415,1491.000000,1650623117.302185,0.000000,0.000000,1.000000,0.000000,0.000000,0.000000,0.000000,3.556650,6.093242,-0.581314
1650623117.402162,1492.000000,1650623117.401972,0.000000,0.000000,1.000000,0.000000,0.000000,0.000000,0.000000,3.559844,6.092607,-0.593447
1650623117.502248,1493.000000,1650623117.502065,0.000000,0.000000,1.000000,0.000000,0.000000,0.000000,0.000000,3.563906,6.093115,-0.605098
1650623117.602209,1494.000000,1650623117.602021,0.000000,0.000000,1.000000,0.000000,0.000000,0.000000,0.000000,3.567690,6.093611,-0.614654
1650623117.702256,1495.000000,1650623117.702006,0.000000,0.000000,1.000000,0.000000,0.000000,0.000000,0.000000,3.570111,6.093002,-0.638313
1650623117.802227,1496.000000,1650623117.801959,0.000000,0.000000,1.000000,0.000000,0.000000,0.000000,0.000000,3.570150,6.092441,-0.670628
1650623117.902202,1497.000000,1650623117.901982,0.000000,0.000000,1.000000,0.000000,0.000000,0.000000,0.000000,3.567940,6.093016,-0.700715
1650623118.002184,1498.000000,1650623118.001988,0.000000,0.000000,1.000000,0.000000,0.000000,0.000000,0.000000,3.566885,6.094663,-0.736682
1650623118.102146,1499.000000,1650623118.101918,0.000000,0.000000,1.000000,0.000000,0.000000,0.000000,0.000000,3.564749,6.095136,-0.765335
1650623118.202217,1500.000000,1650623118.202029,0.000000,0.000000,1.000000,0.000000,0.000000,0.000000,0.000000,3.562690,6.096679,-0.777252
1650623118.302226,1501.000000,1650623118.301986,0.000000,0.000000,1.000000,0.000000,0.000000,0.000000,0.000000,3.560713,6.098138,-0.793259
1650623118.402220,1502.000000,1650623118.401991,0.000000,0.000000,1.000000,0.000000,0.000000,0.000000,0.000000,3.557730,6.098421,-0.805112
1650623118.502206,1503.000000,1650623118.502002,0.000000,0.000000,1.000000,0.000000,0.000000,0.000000,0.000000,3.555989,6.099774,-0.803291
1650623118.601882,1504.000000,1650623118.601655,0.000000,0.000000,1.000000,0.000000,0.000000,0.000000,0.000000,3.554337,6.101044,-0.812557
1650623118.702041,1505.000000,1650623118.701874,0.000000,0.000000,1.000000,0.000000,0.000000,0.000000,0.000000,3.551684,6.101141,-0.826008
1650623118.801908,1506.000000,1650623118.801729,0.000000,0.000000,1.000000,0.000000,0.000000,0.000000,0.000000,3.549184,6.100130,-0.849109
1650623118.901870,1507.000000,1650623118.901666,0.000000,0.000000,1.000000,0.000000,0.000000,0.000000,0.000000,3.547927,6.099166,-0.878218
1650623119.001941,1508.000000,1650623119.001742,0.000000,0.000000,1.000000,0.000000,0.000000,0.000000,0.000000,3.547847,6.099340,-0.892896
1650623119.101854,1509.000000,1650623119.101665,0.000000,0.000000,1.000000,0.000000,0.000000,0.000000,0.000000,3.548880,6.099498,-0.911457
1650623119.201941,1510.000000,1650623119.201771,0.000000,0.000000,1.000000,0.000000,0.000000,0.000000,0.000000,3.548779,6.099643,-0.935340
1650623119.302446,1511.000000,1650623119.302155,0.000000,0.000000,1.000000,0.000000,0.000000,0.000000,0.000000,3.551969,6.098684,-0.911887
1650623119.402012,1512.000000,1650623119.401804,0.000000,0.000000,1.000000,0.000000,0.000000,0.000000,0.000000,3.552806,6.097774,-0.906774
1650623119.502110,1513.000000,1650623119.501893,0.000000,0.000000,1.000000,0.000000,0.000000,0.000000,0.000000,3.554688,6.098005,-0.894283
1650623119.601990,1514.000000,1650623119.601776,0.000000,0.000000,1.000000,0.000000,0.000000,0.000000,0.000000,3.557551,6.099314,-0.882811
1650623119.701940,1515.000000,1650623119.701733,0.000000,0.000000,1.000000,0.000000,0.000000,0.000000,0.000000,3.560243,6.099457,-0.886866
1650623119.801885,1516.000000,1650623119.801711,0.000000,0.000000,1.000000,0.000000,0.000000,0.000000,0.000000,3.561676,6.100679,-0.897761
1650623119.901930,1517.000000,1650623119.901734,0.000000,0.000000,1.000000,0.000000,0.000000,0.000000,0.000000,3.563005,6.101826,-0.903116
1650623120.001974,1518.000000,1650623120.001786,0.000000,0.000000,1.000000,0.000000,0.000000,0.000000,0.000000,3.562052,6.101808,-0.907995
1650623120.101936,1519.000000,1650623120.101757,0.000000,0.000000,1.000000,0.000000,0.000000,0.000000,0.000000,3.555675,6.099601,-0.865644
1650623120.202106,1520.000000,1650623120.201918,0.000000,0.000000,1.000000,0.000000,0.000000,0.000000,0.000000,3.551824,6.097511,-0.846600
1650623120.302001,1521.000000,1650623120.301786,0.000000,0.000000,1.000000,0.000000,0.000000,0.000000,0.000000,3.546012,6.096629,-0.820929
1650623120.401937,1522.000000,1650623120.401743,0.000000,0.000000,1.000000,0.000000,0.000000,0.000000,0.000000,3.540544,6.096892,-0.794595
1650623120.501890,1523.000000,1650623120.501698,0.000000,0.000000,1.000000,0.000000,0.000000,0.000000,0.000000,3.537598,6.097145,-0.787831
1650623120.601907,1524.000000,1650623120.601722,0.000000,0.000000,1.000000,0.000000,0.000000,0.000000,0.000000,3.534863,6.098480,-0.769219
1650623120.702233,1525.000000,1650623120.702042,0.000000,0.000000,1.000000,0.000000,0.000000,0.000000,0.000000,3.534513,6.098651,-0.755397
1650623120.802236,1526.000000,1650623120.802040,0.000000,0.000000,1.000000,0.000000,0.000000,0.000000,0.000000,3.532055,6.098812,-0.742163
1650623120.902255,1527.000000,1650623120.902056,0.000000,0.000000,1.000000,0.000000,0.000000,0.000000,0.000000,3.526518,6.100053,-0.730321
1650623121.002567,1528.000000,1650623121.002278,0.000000,0.000000,1.000000,0.000000,0.000000,0.000000,0.000000,3.530078,6.099040,-0.683541
1650623121.102257,1529.000000,1650623121.102030,0.000000,0.000000,1.000000,0.000000,0.000000,0.000000,0.000000,3.532410,6.096991,-0.663794
1650623121.201882,1530.000000,1650623121.201724,0.000000,0.000000,1.000000,0.000000,0.000000,0.000000,0.000000,3.533572,6.095059,-0.655500
1650623121.301890,1531.000000,1650623121.301723,0.000000,0.000000,1.000000,0.000000,0.000000,0.000000,0.000000,3.534710,6.093242,-0.661430
1650623121.401909,1532.000000,1650623121.401733,0.000000,0.000000,1.000000,0.000000,0.000000,0.000000,0.000000,3.540182,6.090449,-0.625348
1650623121.501909,1533.000000,1650623121.501731,0.000000,0.000000,1.000000,0.000000,0.000000,0.000000,0.000000,3.545371,6.090014,-0.606261
1650623121.601869,1534.000000,1650623121.601701,0.000000,0.000000,1.000000,0.000000,0.000000,0.000000,0.000000,3.547003,6.089625,-0.609150
1650623121.701994,1535.000000,1650623121.701828,0.000000,0.000000,1.000000,0.000000,0.000000,0.000000,0.000000,3.556172,6.087101,-0.575052
1650623121.801890,1536.000000,1650623121.801713,0.000000,0.000000,1.000000,0.000000,0.000000,0.000000,0.000000,3.563716,6.084744,-0.557924
1650623121.901884,1537.000000,1650623121.901701,0.000000,0.000000,1.000000,0.000000,0.000000,0.000000,0.000000,3.568610,6.082552,-0.561939
1650623122.001890,1538.000000,1650623122.001718,0.000000,0.000000,1.000000,0.000000,0.000000,0.000000,0.000000,3.568807,6.081609,-0.559613
1650623122.102184,1539.000000,1650623122.102017,0.000000,0.000000,1.000000,0.000000,0.000000,0.000000,0.000000,3.567836,6.080760,-0.572968
1650623122.201943,1540.000000,1650623122.201748,0.000000,0.000000,1.000000,0.000000,0.000000,0.000000,0.000000,3.565769,6.079998,-0.596499
1650623122.301902,1541.000000,1650623122.301743,0.000000,0.000000,1.000000,0.000000,0.000000,0.000000,0.000000,3.561584,6.080410,-0.614425
1650623122.401912,1542.000000,1650623122.401745,0.000000,0.000000,1.000000,0.000000,0.000000,0.000000,0.000000,3.558684,6.081928,-0.624513
1650623122.501902,1543.000000,1650623122.501737,0.000000,0.000000,1.000000,0.000000,0.000000,0.000000,0.000000,3.554830,6.085574,-0.630282
1650623122.601872,1544.000000,1650623122.601718,0.000000,0.000000,1.000000,0.000000,0.000000,0.000000,0.000000,3.551176,6.087950,-0.650441
1650623122.701900,1545.000000,1650623122.701725,0.000000,0.000000,1.000000,0.000000,0.000000,0.000000,0.000000,3.548815,6.091295,-0.661789
1650623122.801894,1546.000000,1650623122.801727,0.000000,0.000000,1.000000,0.000000,0.000000,0.000000,0.000000,3.547684,6.094456,-0.663047
1650623122.902078,1547.000000,1650623122.901909,0.000000,0.000000,1.000000,0.000000,0.000000,0.000000,0.000000,3.545537,6.097434,-0.663488
1650623123.002466,1548.000000,1650623123.002210,0.000000,0.000000,1.000000,0.000000,0.000000,0.000000,0.000000,3.542436,6.100228,-0.676047
1650623123.101867,1549.000000,1650623123.101678,0.000000,0.000000,1.000000,0.000000,0.000000,0.000000,0.000000,3.540623,6.102843,-0.688114
1650623123.201886,1550.000000,1650623123.201730,0.000000,0.000000,1.000000,0.000000,0.000000,0.000000,0.000000,3.538940,6.104190,-0.712593
1650623123.301959,1551.000000,1650623123.301767,0.000000,0.000000,1.000000,0.000000,0.000000,0.000000,0.000000,3.536294,6.105426,-0.723941
1650623123.401850,1552.000000,1650623123.401674,0.000000,0.000000,1.000000,0.000000,0.000000,0.000000,0.000000,3.534925,6.106557,-0.746865
1650623123.502154,1553.000000,1650623123.501909,0.000000,0.000000,1.000000,0.000000,0.000000,0.000000,0.000000,3.533674,6.107586,-0.776828
1650623123.601895,1554.000000,1650623123.601658,0.000000,0.000000,1.000000,0.000000,0.000000,0.000000,0.000000,3.532536,6.108517,-0.808662
1650623123.701917,1555.000000,1650623123.701728,0.000000,0.000000,1.000000,0.000000,0.000000,0.000000,0.000000,3.529325,6.109357,-0.826116
1650623123.801857,1556.000000,1650623123.801650,0.000000,0.000000,1.000000,0.000000,0.000000,0.000000,0.000000,3.527434,6.110109,-0.836197
1650623123.901946,1557.000000,1650623123.901722,0.000000,0.000000,1.000000,0.000000,0.000000,0.000000,0.000000,3.524611,6.111869,-0.834358
1650623124.002469,1558.000000,1650623124.002206,0.000000,0.000000,1.000000,0.000000,0.000000,0.000000,0.000000,3.524185,6.113488,-0.845285
1650623124.106315,1559.000000,1650623124.104905,0.000000,0.000000,1.000000,0.000000,0.000000,0.000000,0.000000,3.522752,6.113881,-0.864420
1650623124.201969,1560.000000,1650623124.201756,0.000000,0.000000,1.000000,0.000000,0.000000,0.000000,0.000000,3.522548,6.114207,-0.886572
1650623124.302030,1561.000000,1650623124.301800,0.000000,0.000000,1.000000,0.000000,0.000000,0.000000,0.000000,3.522413,6.114471,-0.895463
1650623124.401835,1562.000000,1650623124.401683,0.000000,0.000000,1.000000,0.000000,0.000000,0.000000,0.000000,3.522341,6.113588,-0.913397
1650623124.501933,1563.000000,1650623124.501771,0.000000,0.000000,1.000000,0.000000,0.000000,0.000000,0.000000,3.521234,6.112715,-0.935153
1650623124.601839,1564.000000,1650623124.601675,0.000000,0.000000,1.000000,0.000000,0.000000,0.000000,0.000000,3.519150,6.111857,-0.960552
1650623124.701948,1565.000000,1650623124.701785,0.000000,0.000000,1.000000,0.000000,0.000000,0.000000,0.000000,3.517235,6.111019,-0.971675
1650623124.801833,1566.000000,1650623124.801674,0.000000,0.000000,1.000000,0.000000,0.000000,0.000000,0.000000,3.523117,6.106931,-0.939256
1650623124.901901,1567.000000,1650623124.901744,0.000000,0.000000,1.000000,0.000000,0.000000,0.000000,0.000000,3.527624,6.103057,-0.910279
1650623125.001910,1568.000000,1650623125.001746,0.000000,0.000000,1.000000,0.000000,0.000000,0.000000,0.000000,3.530817,6.100487,-0.899184
1650623125.101973,1569.000000,1650623125.101798,0.000000,0.000000,1.000000,0.000000,0.000000,0.000000,0.000000,3.531664,6.099159,-0.880278
1650623125.201866,1570.000000,1650623125.201704,0.000000,0.000000,1.000000,0.000000,0.000000,0.000000,0.000000,3.528110,6.099009,-0.855529
1650623125.302063,1571.000000,1650623125.301889,0.000000,0.000000,1.000000,0.000000,0.000000,0.000000,0.000000,3.526947,6.099972,-0.826027
1650623125.402505,1572.000000,1650623125.402241,0.000000,0.000000,1.000000,0.000000,0.000000,0.000000,0.000000,3.530229,6.099802,-0.806534
1650623125.502482,1573.000000,1650623125.502108,0.000000,0.000000,1.000000,0.000000,0.000000,0.000000,0.000000,3.533340,6.099652,-0.804747
1650623125.606974,1574.000000,1650623125.606196,0.000000,0.000000,1.000000,0.000000,0.000000,0.000000,0.000000,3.538461,6.098431,-0.800601
1650623125.709821,1575.000000,1650623125.708882,0.000000,0.000000,1.000000,0.000000,0.000000,0.000000,0.000000,3.542194,6.098380,-0.808714
1650623125.804358,1576.000000,1650623125.803666,0.000000,0.000000,1.000000,0.000000,0.000000,0.000000,0.000000,3.545695,6.098344,-0.822128
1650623125.906692,1577.000000,1650623125.906118,0.000000,0.000000,1.000000,0.000000,0.000000,0.000000,0.000000,3.546787,6.099413,-0.826897
1650623126.010304,1578.000000,1650623126.008713,0.000000,0.000000,1.000000,0.000000,0.000000,0.000000,0.000000,3.545599,6.100433,-0.823362
1650623126.104295,1579.000000,1650623126.103616,0.000000,0.000000,1.000000,0.000000,0.000000,0.000000,0.000000,3.544442,6.101401,-0.832836
1650623126.207158,1580.000000,1650623126.206600,0.000000,0.000000,1.000000,0.000000,0.000000,0.000000,0.000000,3.544411,6.103408,-0.849132
1650623126.308966,1581.000000,1650623126.304491,0.000000,0.000000,1.000000,0.000000,0.000000,0.000000,0.000000,3.543265,6.104211,-0.871146
1650623126.403483,1582.000000,1650623126.402830,0.000000,0.000000,1.000000,0.000000,0.000000,0.000000,0.000000,3.539980,6.106053,-0.892966
1650623126.503850,1583.000000,1650623126.503139,0.000000,0.000000,1.000000,0.000000,0.000000,0.000000,0.000000,3.535774,6.107781,-0.916988
1650623126.602085,1584.000000,1650623126.601889,0.000000,0.000000,1.000000,0.000000,0.000000,0.000000,0.000000,3.531802,6.109398,-0.934218
1650623126.705761,1585.000000,1650623126.704711,0.000000,0.000000,1.000000,0.000000,0.000000,0.000000,0.000000,3.528063,6.110906,-0.952165
1650623126.805957,1586.000000,1650623126.804832,0.000000,0.000000,1.000000,0.000000,0.000000,0.000000,0.000000,3.524554,6.110125,-0.963521
1650623126.902145,1587.000000,1650623126.901915,0.000000,0.000000,1.000000,0.000000,0.000000,0.000000,0.000000,3.521274,6.109366,-0.979025
1650623127.004140,1588.000000,1650623127.003186,0.000000,0.000000,1.000000,0.000000,0.000000,0.000000,0.000000,3.517127,6.109721,-0.979139
1650623127.104794,1589.000000,1650623127.104084,0.000000,0.000000,1.000000,0.000000,0.000000,0.000000,0.000000,3.514352,6.108949,-0.974977
1650623127.202188,1590.000000,1650623127.201932,0.000000,0.000000,1.000000,0.000000,0.000000,0.000000,0.000000,3.513970,6.108205,-0.970760
1650623127.305156,1591.000000,1650623127.303566,0.000000,0.000000,1.000000,0.000000,0.000000,0.000000,0.000000,3.512578,6.108581,-0.950380
1650623127.405323,1592.000000,1650623127.404267,0.000000,0.000000,1.000000,0.000000,0.000000,0.000000,0.000000,3.512411,6.107834,-0.945174
1650623127.502342,1593.000000,1650623127.502058,0.000000,0.000000,1.000000,0.000000,0.000000,0.000000,0.000000,3.513401,6.107119,-0.948903
1650623127.604859,1594.000000,1650623127.604225,0.000000,0.000000,1.000000,0.000000,0.000000,0.000000,0.000000,3.513296,6.107528,-0.935400
1650623127.706051,1595.000000,1650623127.705339,0.000000,0.000000,1.000000,0.000000,0.000000,0.000000,0.000000,3.514336,6.106817,-0.935226
1650623127.804179,1596.000000,1650623127.803603,0.000000,0.000000,1.000000,0.000000,0.000000,0.000000,0.000000,3.516451,6.106141,-0.943818
1650623127.903017,1597.000000,1650623127.902539,0.000000,0.000000,1.000000,0.000000,0.000000,0.000000,0.000000,3.518484,6.105500,-0.947909
1650623128.005238,1598.000000,1650623128.004049,0.000000,0.000000,1.000000,0.000000,0.000000,0.000000,0.000000,3.519340,6.105985,-0.955743
1650623128.104540,1599.000000,1650623128.103557,0.000000,0.000000,1.000000,0.000000,0.000000,0.000000,0.000000,3.522351,6.104261,-0.914743
1650623128.204469,1600.000000,1650623128.203468,0.000000,0.000000,1.000000,0.000000,0.000000,0.000000,0.000000,3.523027,6.102636,-0.885015
1650623128.305039,1601.000000,1650623128.303851,0.000000,0.000000,1.000000,0.000000,0.000000,0.000000,0.000000,3.524763,6.100018,-0.875029
1650623128.404809,1602.000000,1650623128.404091,0.000000,0.000000,1.000000,0.000000,0.000000,0.000000,0.000000,3.525315,6.098650,-0.875137
1650623128.503034,1603.000000,1650623128.502576,0.000000,0.000000,1.000000,0.000000,0.000000,0.000000,0.000000,3.525837,6.097376,-0.884123
1650623128.607747,1604.000000,1650623128.606438,0.000000,0.000000,1.000000,0.000000,0.000000,0.000000,0.000000,3.526328,6.096195,-0.900808
1650623128.708304,1605.000000,1650623128.707423,0.000000,0.000000,1.000000,0.000000,0.000000,0.000000,0.000000,3.527879,6.094014,-0.924047
1650623128.803977,1606.000000,1650623128.803221,0.000000,0.000000,1.000000,0.000000,0.000000,0.000000,0.000000,3.530427,6.093072,-0.949505
1650623128.904597,1607.000000,1650623128.903648,0.000000,0.000000,1.000000,0.000000,0.000000,0.000000,0.000000,3.532821,6.092214,-0.977053
1650623129.004155,1608.000000,1650623129.003225,0.000000,0.000000,1.000000,0.000000,0.000000,0.000000,0.000000,3.533971,6.091435,-1.005758
1650623129.108408,1609.000000,1650623129.107213,0.000000,0.000000,1.000000,0.000000,0.000000,0.000000,0.000000,3.535034,6.090733,-1.013756
1650623129.204521,1610.000000,1650623129.203961,0.000000,0.000000,1.000000,0.000000,0.000000,0.000000,0.000000,3.537103,6.090102,-1.026071
1650623129.303211,1611.000000,1650623129.302629,0.000000,0.000000,1.000000,0.000000,0.000000,0.000000,0.000000,3.539027,6.089539,-1.041710
1650623129.403061,1612.000000,1650623129.402645,0.000000,0.000000,1.000000,0.000000,0.000000,0.000000,0.000000,3.539720,6.089041,-1.061327
1650623129.507546,1613.000000,1650623129.506100,0.000000,0.000000,1.000000,0.000000,0.000000,0.000000,0.000000,3.542521,6.089694,-1.067804
1650623129.609496,1614.000000,1650623129.608427,0.000000,0.000000,1.000000,0.000000,0.000000,0.000000,0.000000,3.542944,6.090340,-1.081830
1650623129.707177,1615.000000,1650623129.706462,0.000000,0.000000,1.000000,0.000000,0.000000,0.000000,0.000000,3.544394,6.090976,-1.079701
1650623129.802936,1616.000000,1650623129.802545,0.000000,0.000000,1.000000,0.000000,0.000000,0.000000,0.000000,3.546811,6.092691,-1.080632
1650623129.906073,1617.000000,1650623129.905549,0.000000,0.000000,1.000000,0.000000,0.000000,0.000000,0.000000,3.547958,6.094327,-1.086927
1650623130.009795,1618.000000,1650623130.008877,0.000000,0.000000,1.000000,0.000000,0.000000,0.000000,0.000000,3.550082,6.094793,-1.096757
1650623130.108464,1619.000000,1650623130.106981,0.000000,0.000000,1.000000,0.000000,0.000000,0.000000,0.000000,3.554218,6.095241,-1.109167
1650623130.203380,1620.000000,1650623130.203035,0.000000,0.000000,1.000000,0.000000,0.000000,0.000000,0.000000,3.556975,6.095670,-1.125655
1650623130.305265,1621.000000,1650623130.304667,0.000000,0.000000,1.000000,0.000000,0.000000,0.000000,0.000000,3.559513,6.096080,-1.142814
1650623130.409081,1622.000000,1650623130.408098,0.000000,0.000000,1.000000,0.000000,0.000000,0.000000,0.000000,3.561841,6.095379,-1.161405
1650623130.504246,1623.000000,1650623130.503644,0.000000,0.000000,1.000000,0.000000,0.000000,0.000000,0.000000,3.562875,6.094721,-1.182159
1650623130.602592,1624.000000,1650623130.602283,0.000000,0.000000,1.000000,0.000000,0.000000,0.000000,0.000000,3.561598,6.094104,-1.201741
1650623130.703110,1625.000000,1650623130.702736,0.000000,0.000000,1.000000,0.000000,0.000000,0.000000,0.000000,3.559234,6.092439,-1.214533
1650623130.810489,1626.000000,1650623130.809617,0.000000,0.000000,1.000000,0.000000,0.000000,0.000000,0.000000,3.558034,6.090877,-1.211125
1650623130.906124,1627.000000,1650623130.905313,0.000000,0.000000,1.000000,0.000000,0.000000,0.000000,0.000000,3.562304,6.088327,-1.159932
1650623131.003059,1628.000000,1650623131.002625,0.000000,0.000000,1.000000,0.000000,0.000000,0.000000,0.000000,3.564101,6.085939,-1.128305
1650623131.105738,1629.000000,1650623131.105076,0.000000,0.000000,1.000000,0.000000,0.000000,0.000000,0.000000,3.564649,6.084802,-1.110680
1650623131.209348,1630.000000,1650623131.208196,0.000000,0.000000,1.000000,0.000000,0.000000,0.000000,0.000000,3.561837,6.083759,-1.104917
1650623131.308634,1631.000000,1650623131.307816,0.000000,0.000000,1.000000,0.000000,0.000000,0.000000,0.000000,3.558041,6.084986,-1.088779
1650623131.403015,1632.000000,1650623131.402514,0.000000,0.000000,1.000000,0.000000,0.000000,0.000000,0.000000,3.553329,6.086174,-1.061910
1650623131.502619,1633.000000,1650623131.502222,0.000000,0.000000,1.000000,0.000000,0.000000,0.000000,0.000000,3.549949,6.088410,-1.028826
1650623131.607048,1634.000000,1650623131.605483,0.000000,0.000000,1.000000,0.000000,0.000000,0.000000,0.000000,3.548929,6.089448,-1.013220
1650623131.708980,1635.000000,1650623131.707289,0.000000,0.000000,1.000000,0.000000,0.000000,0.000000,0.000000,3.546874,6.090439,-0.996672
1650623131.805049,1636.000000,1650623131.803742,0.000000,0.000000,1.000000,0.000000,0.000000,0.000000,0.000000,3.544937,6.091382,-0.990538
1650623131.902808,1637.000000,1650623131.902221,0.000000,0.000000,1.000000,0.000000,0.000000,0.000000,0.000000,3.542027,6.093366,-0.973436
1650623132.006537,1638.000000,1650623132.003542,0.000000,0.000000,1.000000,0.000000,0.000000,0.000000,0.000000,3.540386,6.094149,-0.968417
1650623132.108289,1639.000000,1650623132.107041,0.000000,0.000000,1.000000,0.000000,0.000000,0.000000,0.000000,3.538858,6.094883,-0.974189
1650623132.204324,1640.000000,1650623132.203816,0.000000,0.000000,1.000000,0.000000,0.000000,0.000000,0.000000,3.534170,6.096660,-0.966918
1650623132.307823,1641.000000,1650623132.307065,0.000000,0.000000,1.000000,0.000000,0.000000,0.000000,0.000000,3.530869,6.099417,-0.951975
1650623132.409781,1642.000000,1650623132.407686,0.000000,0.000000,1.000000,0.000000,0.000000,0.000000,0.000000,3.526706,6.100913,-0.932918
1650623132.508282,1643.000000,1650623132.507040,0.000000,0.000000,1.000000,0.000000,0.000000,0.000000,0.000000,3.523919,6.100122,-0.924455
1650623132.602829,1644.000000,1650623132.602411,0.000000,0.000000,1.000000,0.000000,0.000000,0.000000,0.000000,3.520258,6.098263,-0.927780
1650623132.704513,1645.000000,1650623132.703554,0.000000,0.000000,1.000000,0.000000,0.000000,0.000000,0.000000,3.517959,6.097583,-0.919019
1650623132.804687,1646.000000,1650623132.803617,0.000000,0.000000,1.000000,0.000000,0.000000,0.000000,0.000000,3.515861,6.098019,-0.901086
1650623132.904702,1647.000000,1650623132.903973,0.000000,0.000000,1.000000,0.000000,0.000000,0.000000,0.000000,3.515045,6.098420,-0.898570
1650623133.004182,1648.000000,1650623133.003325,0.000000,0.000000,1.000000,0.000000,0.000000,0.000000,0.000000,3.514349,6.098787,-0.900362
1650623133.102564,1649.000000,1650623133.102214,0.000000,0.000000,1.000000,0.000000,0.000000,0.000000,0.000000,3.515945,6.099122,-0.911117
1650623133.205751,1650.000000,1650623133.204997,0.000000,0.000000,1.000000,0.000000,0.000000,0.000000,0.000000,3.516429,6.100517,-0.923189
1650623133.308913,1651.000000,1650623133.307695,0.000000,0.000000,1.000000,0.000000,0.000000,0.000000,0.000000,3.515854,6.101819,-0.922791
1650623133.405176,1652.000000,1650623133.404323,0.000000,0.000000,1.000000,0.000000,0.000000,0.000000,0.000000,3.517550,6.104120,-0.928969
1650623133.502957,1653.000000,1650623133.502501,0.000000,0.000000,1.000000,0.000000,0.000000,0.000000,0.000000,3.519201,6.106271,-0.923700
1650623133.604395,1654.000000,1650623133.603807,0.000000,0.000000,1.000000,0.000000,0.000000,0.000000,0.000000,3.526255,6.103912,-0.877613
1650623133.707065,1655.000000,1650623133.705521,0.000000,0.000000,1.000000,0.000000,0.000000,0.000000,0.000000,3.530761,6.102751,-0.840007
1650623133.807987,1656.000000,1650623133.806995,0.000000,0.000000,1.000000,0.000000,0.000000,0.000000,0.000000,3.532841,6.102726,-0.805759
1650623133.903600,1657.000000,1650623133.903115,0.000000,0.000000,1.000000,0.000000,0.000000,0.000000,0.000000,3.535893,6.102686,-0.792524
1650623134.006152,1658.000000,1650623134.005416,0.000000,0.000000,1.000000,0.000000,0.000000,0.000000,0.000000,3.536583,6.103725,-0.772045
1650623134.106350,1659.000000,1650623134.105743,0.000000,0.000000,1.000000,0.000000,0.000000,0.000000,0.000000,3.538310,6.104689,-0.744638
1650623134.203158,1660.000000,1650623134.202636,0.000000,0.000000,1.000000,0.000000,0.000000,0.000000,0.000000,3.541012,6.105582,-0.734002
1650623134.303029,1661.000000,1650623134.302467,0.000000,0.000000,1.000000,0.000000,0.000000,0.000000,0.000000,3.543539,6.105315,-0.727369
1650623134.405830,1662.000000,1650623134.404608,0.000000,0.000000,1.000000,0.000000,0.000000,0.000000,0.000000,3.544804,6.105044,-0.719734
1650623134.507306,1663.000000,1650623134.506441,0.000000,0.000000,1.000000,0.000000,0.000000,0.000000,0.000000,3.545964,6.105861,-0.704685
1650623134.602906,1664.000000,1650623134.602498,0.000000,0.000000,1.000000,0.000000,0.000000,0.000000,0.000000,3.545932,6.106615,-0.690597
1650623134.706552,1665.000000,1650623134.705502,0.000000,0.000000,1.000000,0.000000,0.000000,0.000000,0.000000,3.544776,6.107308,-0.677439
1650623134.809902,1666.000000,1650623134.808756,0.000000,0.000000,1.000000,0.000000,0.000000,0.000000,0.000000,3.542562,6.106852,-0.678085
1650623134.903193,1667.000000,1650623134.902693,0.000000,0.000000,1.000000,0.000000,0.000000,0.000000,0.000000,3.538267,6.105312,-0.683897
1650623135.004792,1668.000000,1650623135.003683,0.000000,0.000000,1.000000,0.000000,0.000000,0.000000,0.000000,3.535291,6.103843,-0.701094
1650623135.104428,1669.000000,1650623135.103603,0.000000,0.000000,1.000000,0.000000,0.000000,0.000000,0.000000,3.544473,6.103539,-0.674334
1650623135.204686,1670.000000,1650623135.203703,0.000000,0.000000,1.000000,0.000000,0.000000,0.000000,0.000000,3.549859,6.103245,-0.649779
1650623135.303850,1671.000000,1650623135.303189,0.000000,0.000000,1.000000,0.000000,0.000000,0.000000,0.000000,3.560362,6.101872,-0.599141
1650623135.404685,1672.000000,1650623135.403562,0.000000,0.000000,1.000000,0.000000,0.000000,0.000000,0.000000,3.574582,6.098393,-0.526769
1650623135.506962,1673.000000,1650623135.505375,0.000000,0.000000,1.000000,0.000000,0.000000,0.000000,0.000000,3.582463,6.096206,-0.477193
1650623135.609868,1674.000000,1650623135.608519,0.000000,0.000000,1.000000,0.000000,0.000000,0.000000,0.000000,3.585423,6.095245,-0.443103
1650623135.703670,1675.000000,1650623135.703185,0.000000,0.000000,1.000000,0.000000,0.000000,0.000000,0.000000,3.586998,6.093266,-0.434394
1650623135.804118,1676.000000,1650623135.803350,0.000000,0.000000,1.000000,0.000000,0.000000,0.000000,0.000000,3.590538,6.092510,-0.444385
1650623135.906477,1677.000000,1650623135.905244,0.000000,0.000000,1.000000,0.000000,0.000000,0.000000,0.000000,3.592662,6.089639,-0.462603
1650623136.005519,1678.000000,1650623136.004274,0.000000,0.000000,1.000000,0.000000,0.000000,0.000000,0.000000,3.592356,6.088048,-0.468501
1650623136.103154,1679.000000,1650623136.102684,0.000000,0.000000,1.000000,0.000000,0.000000,0.000000,0.000000,3.590852,6.086580,-0.478672
1650623136.207368,1680.000000,1650623136.206365,0.000000,0.000000,1.000000,0.000000,0.000000,0.000000,0.000000,3.589319,6.086321,-0.501779
1650623136.309079,1681.000000,1650623136.306827,0.000000,0.000000,1.000000,0.000000,0.000000,0.000000,0.000000,3.586677,6.087204,-0.520305
1650623136.406218,1682.000000,1650623136.405168,0.000000,0.000000,1.000000,0.000000,0.000000,0.000000,0.000000,3.581912,6.085891,-0.542454
1650623136.503958,1683.000000,1650623136.503476,0.000000,0.000000,1.000000,0.000000,0.000000,0.000000,0.000000,3.572979,6.083593,-0.518027
1650623136.606786,1684.000000,1650623136.606108,0.000000,0.000000,1.000000,0.000000,0.000000,0.000000,0.000000,3.565588,6.082550,-0.495704
1650623136.709721,1685.000000,1650623136.708477,0.000000,0.000000,1.000000,0.000000,0.000000,0.000000,0.000000,3.560770,6.081605,-0.497201
1650623136.807063,1686.000000,1650623136.805723,0.000000,0.000000,1.000000,0.000000,0.000000,0.000000,0.000000,3.557312,6.081844,-0.511057
1650623136.902889,1687.000000,1650623136.902563,0.000000,0.000000,1.000000,0.000000,0.000000,0.000000,0.000000,3.555150,6.083198,-0.532703
1650623137.007328,1688.000000,1650623137.006232,0.000000,0.000000,1.000000,0.000000,0.000000,0.000000,0.000000,3.553128,6.084510,-0.561778
1650623137.105776,1689.000000,1650623137.104580,0.000000,0.000000,1.000000,0.000000,0.000000,0.000000,0.000000,3.551243,6.086867,-0.597117
1650623137.203533,1690.000000,1650623137.203143,0.000000,0.000000,1.000000,0.000000,0.000000,0.000000,0.000000,3.542952,6.086932,-0.581946
1650623137.304496,1691.000000,1650623137.303682,0.000000,0.000000,1.000000,0.000000,0.000000,0.000000,0.000000,3.537349,6.087009,-0.567518
1650623137.405020,1692.000000,1650623137.403792,0.000000,0.000000,1.000000,0.000000,0.000000,0.000000,0.000000,3.532121,6.086006,-0.561886
1650623137.505820,1693.000000,1650623137.504404,0.000000,0.000000,1.000000,0.000000,0.000000,0.000000,0.000000,3.528352,6.086165,-0.550183
1650623137.602618,1694.000000,1650623137.602296,0.000000,0.000000,1.000000,0.000000,0.000000,0.000000,0.000000,3.525969,6.085241,-0.556859
1650623137.703945,1695.000000,1650623137.703397,0.000000,0.000000,1.000000,0.000000,0.000000,0.000000,0.000000,3.523809,6.084384,-0.578737
1650623137.806115,1696.000000,1650623137.805079,0.000000,0.000000,1.000000,0.000000,0.000000,0.000000,0.000000,3.524040,6.084683,-0.600645
1650623137.903106,1697.000000,1650623137.902463,0.000000,0.000000,1.000000,0.000000,0.000000,0.000000,0.000000,3.524347,6.084984,-0.615281
1650623138.006494,1698.000000,1650623138.005040,0.000000,0.000000,1.000000,0.000000,0.000000,0.000000,0.000000,3.524719,6.086373,-0.622911
1650623138.108299,1699.000000,1650623138.107149,0.000000,0.000000,1.000000,0.000000,0.000000,0.000000,0.000000,3.525146,6.087697,-0.641546
1650623138.202223,1700.000000,1650623138.201982,0.000000,0.000000,1.000000,0.000000,0.000000,0.000000,0.000000,3.525621,6.088954,-0.665870
1650623138.304012,1701.000000,1650623138.303178,0.000000,0.000000,1.000000,0.000000,0.000000,0.000000,0.000000,3.526134,6.090143,-0.681097
1650623138.407121,1702.000000,1650623138.405772,0.000000,0.000000,1.000000,0.000000,0.000000,0.000000,0.000000,3.526678,6.091265,-0.694828
1650623138.506186,1703.000000,1650623138.505313,0.000000,0.000000,1.000000,0.000000,0.000000,0.000000,0.000000,3.527247,6.092319,-0.718394
1650623138.602855,1704.000000,1650623138.602526,0.000000,0.000000,1.000000,0.000000,0.000000,0.000000,0.000000,3.534376,6.090035,-0.700556
1650623138.710128,1705.000000,1650623138.708256,0.000000,0.000000,1.000000,0.000000,0.000000,0.000000,0.000000,3.540051,6.087875,-0.702696
1650623138.804590,1706.000000,1650623138.803641,0.000000,0.000000,1.000000,0.000000,0.000000,0.000000,0.000000,3.544331,6.088018,-0.714331
1650623138.903011,1707.000000,1650623138.902621,0.000000,0.000000,1.000000,0.000000,0.000000,0.000000,0.000000,3.546188,6.089249,-0.710871
1650623139.002377,1708.000000,1650623139.002102,0.000000,0.000000,1.000000,0.000000,0.000000,0.000000,0.000000,3.546838,6.090413,-0.721965
1650623139.105227,1709.000000,1650623139.103957,0.000000,0.000000,1.000000,0.000000,0.000000,0.000000,0.000000,3.546348,6.090420,-0.743787
1650623139.204827,1710.000000,1650623139.203408,0.000000,0.000000,1.000000,0.000000,0.000000,0.000000,0.000000,3.545871,6.090423,-0.761357
1650623139.304351,1711.000000,1650623139.303717,0.000000,0.000000,1.000000,0.000000,0.000000,0.000000,0.000000,3.546499,6.089334,-0.780467
1650623139.403897,1712.000000,1650623139.403212,0.000000,0.000000,1.000000,0.000000,0.000000,0.000000,0.000000,3.545991,6.089394,-0.804255
1650623139.503955,1713.000000,1650623139.503267,0.000000,0.000000,1.000000,0.000000,0.000000,0.000000,0.000000,3.547681,6.089452,-0.819599
1650623139.603030,1714.000000,1650623139.602382,0.000000,0.000000,1.000000,0.000000,0.000000,0.000000,0.000000,3.551445,6.089507,-0.834079
1650623139.707686,1715.000000,1650623139.706816,0.000000,0.000000,1.000000,0.000000,0.000000,0.000000,0.000000,3.551707,6.090650,-0.837233
1650623139.804868,1716.000000,1650623139.804134,0.000000,0.000000,1.000000,0.000000,0.000000,0.000000,0.000000,3.551930,6.090636,-0.852103
1650623139.911181,1717.000000,1650623139.909396,0.000000,0.000000,1.000000,0.000000,0.000000,0.000000,0.000000,3.549935,6.091710,-0.875783
1650623140.006315,1718.000000,1650623140.003925,0.000000,0.000000,1.000000,0.000000,0.000000,0.000000,0.000000,3.548033,6.092720,-0.901438
1650623140.102892,1719.000000,1650623140.102550,0.000000,0.000000,1.000000,0.000000,0.000000,0.000000,0.000000,3.546225,6.092574,-0.931376
1650623140.203970,1720.000000,1650623140.203278,0.000000,0.000000,1.000000,0.000000,0.000000,0.000000,0.000000,3.542331,6.093519,-0.945226
1650623140.306600,1721.000000,1650623140.305207,0.000000,0.000000,1.000000,0.000000,0.000000,0.000000,0.000000,3.539748,6.094401,-0.966209
1650623140.402967,1722.000000,1650623140.402245,0.000000,0.000000,1.000000,0.000000,0.000000,0.000000,0.000000,3.538413,6.095223,-0.991599
1650623140.508242,1723.000000,1650623140.506922,0.000000,0.000000,1.000000,0.000000,0.000000,0.000000,0.000000,3.538261,6.094894,-1.021192
1650623140.607890,1724.000000,1650623140.606532,0.000000,0.000000,1.000000,0.000000,0.000000,0.000000,0.000000,3.539227,6.095661,-1.030591
1650623140.703718,1725.000000,1650623140.703231,0.000000,0.000000,1.000000,0.000000,0.000000,0.000000,0.000000,3.540156,6.096372,-1.046421
1650623140.807213,1726.000000,1650623140.805714,0.000000,0.000000,1.000000,0.000000,0.000000,0.000000,0.000000,3.539955,6.097028,-1.066800
1650623140.909748,1727.000000,1650623140.908055,0.000000,0.000000,1.000000,0.000000,0.000000,0.000000,0.000000,3.539776,6.097631,-1.073789
1650623141.007697,1728.000000,1650623141.006312,0.000000,0.000000,1.000000,0.000000,0.000000,0.000000,0.000000,3.540708,6.098183,-1.088097
1650623141.103351,1729.000000,1650623141.102836,0.000000,0.000000,1.000000,0.000000,0.000000,0.000000,0.000000,3.540507,6.098687,-1.085230
1650623141.202682,1730.000000,1650623141.202349,0.000000,0.000000,1.000000,0.000000,0.000000,0.000000,0.000000,3.543596,6.099144,-1.088486
1650623141.302462,1731.000000,1650623141.302108,0.000000,0.000000,1.000000,0.000000,0.000000,0.000000,0.000000,3.544333,6.099556,-1.100050
1650623141.404557,1732.000000,1650623141.403916,0.000000,0.000000,1.000000,0.000000,0.000000,0.000000,0.000000,3.545025,6.099927,-1.117167
1650623141.502296,1733.000000,1650623141.502028,0.000000,0.000000,1.000000,0.000000,0.000000,0.000000,0.000000,3.544583,6.101347,-1.113796
1650623141.603488,1734.000000,1650623141.602607,0.000000,0.000000,1.000000,0.000000,0.000000,0.000000,0.000000,3.540890,6.102668,-1.114979
1650623141.705473,1735.000000,1650623141.704020,0.000000,0.000000,1.000000,0.000000,0.000000,0.000000,0.000000,3.538494,6.103890,-1.124583
1650623141.804609,1736.000000,1650623141.803517,0.000000,0.000000,1.000000,0.000000,0.000000,0.000000,0.000000,3.538425,6.105018,-1.122913
1650623141.904648,1737.000000,1650623141.903565,0.000000,0.000000,1.000000,0.000000,0.000000,0.000000,0.000000,3.537283,6.104963,-1.119313
1650623142.002471,1738.000000,1650623142.002058,0.000000,0.000000,1.000000,0.000000,0.000000,0.000000,0.000000,3.536219,6.105974,-1.123563
